[
    {
        "cityId": "2523629",
        "name": "Provincia di Reggio Calabria",
        "stateId": "2525468",
        "latitude": 38.31667,
        "longitude": 16.08333
    },
    {
        "cityId": "2524906",
        "name": "Provincia di Cosenza",
        "stateId": "2525468",
        "latitude": 39.55697,
        "longitude": 16.35491
    },
    {
        "cityId": "2525058",
        "name": "Provincia di Catanzaro",
        "stateId": "2525468",
        "latitude": 38.91667,
        "longitude": 16.43333
    },
    {
        "cityId": "6457405",
        "name": "Provincia di Vibo-Valentia",
        "stateId": "2525468",
        "latitude": 38.69958,
        "longitude": 16.12741
    },
    {
        "cityId": "6458615",
        "name": "Provincia di Crotone",
        "stateId": "2525468",
        "latitude": 39.12007,
        "longitude": 17.08134
    }
]