[
    {
        "cityId": 7731895,
        "name": "Damara",
        "stateId": 2383765,
        "latitude": 5.09961,
        "longitude": 18.69022
    },
    {
        "cityId": 7731896,
        "name": "Bimbo Sub-Prefecture",
        "stateId": 2383765,
        "latitude": 4.32433,
        "longitude": 18.50962
    },
    {
        "cityId": 7732372,
        "name": "Yaloke Sub-Prefecture",
        "stateId": 2383765,
        "latitude": 5.41797,
        "longitude": 16.96877
    },
    {
        "cityId": 7732723,
        "name": "Bossembele Sub-Prefecture",
        "stateId": 2383765,
        "latitude": 5.24147,
        "longitude": 17.60866
    },
    {
        "cityId": 8299285,
        "name": "Boali Sub-Prefecture",
        "stateId": 2383765,
        "latitude": 4.784,
        "longitude": 18.106
    },
    {
        "cityId": 9143490,
        "name": "Bogangolo",
        "stateId": 2383765,
        "latitude": 5.51405,
        "longitude": 18.21001
    }
]