[
    {
        "cityId": 8299286,
        "name": "Bozoum Sub-Prefecture",
        "stateId": 2383650,
        "latitude": 6.2304,
        "longitude": 16.00187
    },
    {
        "cityId": 9143483,
        "name": "Bossemt\u00e9l\u00e9",
        "stateId": 2383650,
        "latitude": 5.94846,
        "longitude": 16.54168
    },
    {
        "cityId": 9143491,
        "name": "Bocaranga",
        "stateId": 2383650,
        "latitude": 6.76546,
        "longitude": 15.77873
    },
    {
        "cityId": 9143492,
        "name": "Koui",
        "stateId": 2383650,
        "latitude": 6.71414,
        "longitude": 15.35143
    },
    {
        "cityId": 9143493,
        "name": "Ngaoundaye",
        "stateId": 2383650,
        "latitude": 7.27649,
        "longitude": 15.66266
    },
    {
        "cityId": 9143494,
        "name": "Paoua",
        "stateId": 2383650,
        "latitude": 7.15641,
        "longitude": 16.42805
    }
]