[
    {
        "cityId": 662935,
        "name": "Comuna Viile Satu Mare",
        "stateId": 667869,
        "latitude": 47.66667,
        "longitude": 22.95
    },
    {
        "cityId": 663013,
        "name": "Comuna Veti\u015f",
        "stateId": 667869,
        "latitude": 47.79292,
        "longitude": 22.75623
    },
    {
        "cityId": 663223,
        "name": "Comuna Vama",
        "stateId": 667869,
        "latitude": 47.84354,
        "longitude": 23.3966
    },
    {
        "cityId": 663304,
        "name": "Comuna Valea Vinului",
        "stateId": 667869,
        "latitude": 47.69553,
        "longitude": 23.18488
    },
    {
        "cityId": 664072,
        "name": "Comuna Urziceni",
        "stateId": 667869,
        "latitude": 47.73286,
        "longitude": 22.40181
    },
    {
        "cityId": 664424,
        "name": "Comuna Turulung",
        "stateId": 667869,
        "latitude": 47.92351,
        "longitude": 23.10382
    },
    {
        "cityId": 664431,
        "name": "Comuna Tur\u0163",
        "stateId": 667869,
        "latitude": 47.98018,
        "longitude": 23.20968
    },
    {
        "cityId": 664939,
        "name": "Comuna T\u00e2r\u015fol\u0163",
        "stateId": 667869,
        "latitude": 47.95,
        "longitude": 23.35
    },
    {
        "cityId": 665026,
        "name": "Comuna Tiream",
        "stateId": 667869,
        "latitude": 47.58553,
        "longitude": 22.43993
    },
    {
        "cityId": 665236,
        "name": "Comuna Terebe\u015fti",
        "stateId": 667869,
        "latitude": 47.67823,
        "longitude": 22.74226
    },
    {
        "cityId": 665468,
        "name": "Ora\u0219 T\u0103\u015fnad",
        "stateId": 667869,
        "latitude": 47.48333,
        "longitude": 22.58333
    },
    {
        "cityId": 666575,
        "name": "Comuna Socond",
        "stateId": 667869,
        "latitude": 47.54018,
        "longitude": 22.98135
    },
    {
        "cityId": 667782,
        "name": "Comuna S\u0103uca",
        "stateId": 667869,
        "latitude": 47.46041,
        "longitude": 22.48621
    },
    {
        "cityId": 668088,
        "name": "Comuna Sant\u0103u",
        "stateId": 667869,
        "latitude": 47.51152,
        "longitude": 22.47327
    },
    {
        "cityId": 668095,
        "name": "Comuna Sanisl\u0103u",
        "stateId": 667869,
        "latitude": 47.63116,
        "longitude": 22.33109
    },
    {
        "cityId": 668329,
        "name": "Comuna S\u0103c\u0103\u015feni",
        "stateId": 667869,
        "latitude": 47.46964,
        "longitude": 22.68273
    },
    {
        "cityId": 669808,
        "name": "Comuna Porumbe\u015fti",
        "stateId": 667869,
        "latitude": 47.98491,
        "longitude": 22.97236
    },
    {
        "cityId": 669949,
        "name": "Comuna Pomi",
        "stateId": 667869,
        "latitude": 47.68071,
        "longitude": 23.32362
    },
    {
        "cityId": 670651,
        "name": "Comuna Pi\u015fcolt",
        "stateId": 667869,
        "latitude": 47.59761,
        "longitude": 22.27498
    },
    {
        "cityId": 670774,
        "name": "Comuna Pir",
        "stateId": 667869,
        "latitude": 47.4665,
        "longitude": 22.3938
    },
    {
        "cityId": 670986,
        "name": "Comuna Petre\u015fti",
        "stateId": 667869,
        "latitude": 47.58993,
        "longitude": 22.35972
    },
    {
        "cityId": 671750,
        "name": "Comuna Ora\u015fu Nou",
        "stateId": 667869,
        "latitude": 47.8347,
        "longitude": 23.30211
    },
    {
        "cityId": 671965,
        "name": "Comuna Odoreu",
        "stateId": 667869,
        "latitude": 47.79427,
        "longitude": 22.99639
    },
    {
        "cityId": 672366,
        "name": "Ora\u015f Negre\u015fti-Oa\u015f",
        "stateId": 667869,
        "latitude": 47.86801,
        "longitude": 23.41816
    },
    {
        "cityId": 672961,
        "name": "Comuna Moftinu",
        "stateId": 667869,
        "latitude": 47.68333,
        "longitude": 22.6
    },
    {
        "cityId": 673452,
        "name": "Comuna Micula",
        "stateId": 667869,
        "latitude": 47.91687,
        "longitude": 22.93652
    },
    {
        "cityId": 673631,
        "name": "Comuna Medie\u015fu Aurit",
        "stateId": 667869,
        "latitude": 47.79451,
        "longitude": 23.1536
    },
    {
        "cityId": 674675,
        "name": "Ora\u0219 Livada",
        "stateId": 667869,
        "latitude": 47.86667,
        "longitude": 23.13333
    },
    {
        "cityId": 674946,
        "name": "Comuna Lazuri",
        "stateId": 667869,
        "latitude": 47.89143,
        "longitude": 22.87213
    },
    {
        "cityId": 676105,
        "name": "Comuna Hodod",
        "stateId": 667869,
        "latitude": 47.3987,
        "longitude": 23.04633
    },
    {
        "cityId": 676350,
        "name": "Comuna Halmeu",
        "stateId": 667869,
        "latitude": 47.97833,
        "longitude": 23.05362
    },
    {
        "cityId": 677418,
        "name": "Comuna Gher\u0163a Mic\u0103",
        "stateId": 667869,
        "latitude": 47.93724,
        "longitude": 23.22169
    },
    {
        "cityId": 678003,
        "name": "Comuna Foieni",
        "stateId": 667869,
        "latitude": 47.7,
        "longitude": 22.38333
    },
    {
        "cityId": 679060,
        "name": "Comuna Dorol\u0163",
        "stateId": 667869,
        "latitude": 47.84524,
        "longitude": 22.78642
    },
    {
        "cityId": 679291,
        "name": "Comuna Doba",
        "stateId": 667869,
        "latitude": 47.74588,
        "longitude": 22.68383
    },
    {
        "cityId": 679974,
        "name": "Comuna Culciu",
        "stateId": 667869,
        "latitude": 47.75246,
        "longitude": 23.05593
    },
    {
        "cityId": 680072,
        "name": "Comuna Cruci\u015for",
        "stateId": 667869,
        "latitude": 47.65949,
        "longitude": 23.24776
    },
    {
        "cityId": 680341,
        "name": "Comuna Craidorol\u0163",
        "stateId": 667869,
        "latitude": 47.59793,
        "longitude": 22.69883
    },
    {
        "cityId": 681426,
        "name": "Comuna Ciume\u015fti",
        "stateId": 667869,
        "latitude": 47.66308,
        "longitude": 22.33452
    },
    {
        "cityId": 682281,
        "name": "Comuna Certeze",
        "stateId": 667869,
        "latitude": 47.92014,
        "longitude": 23.4735
    },
    {
        "cityId": 682446,
        "name": "Comuna Cehal",
        "stateId": 667869,
        "latitude": 47.3844,
        "longitude": 22.59613
    },
    {
        "cityId": 682521,
        "name": "Comuna C\u0103ua\u015f",
        "stateId": 667869,
        "latitude": 47.57998,
        "longitude": 22.55546
    },
    {
        "cityId": 682799,
        "name": "Comuna C\u0103pleni",
        "stateId": 667869,
        "latitude": 47.70942,
        "longitude": 22.50637
    },
    {
        "cityId": 682862,
        "name": "Comuna C\u0103m\u0103rzana",
        "stateId": 667869,
        "latitude": 47.99435,
        "longitude": 23.30874
    },
    {
        "cityId": 684055,
        "name": "Comuna Botiz",
        "stateId": 667869,
        "latitude": 47.83285,
        "longitude": 22.94865
    },
    {
        "cityId": 684405,
        "name": "Comuna Bogdand",
        "stateId": 667869,
        "latitude": 47.41824,
        "longitude": 22.92868
    },
    {
        "cityId": 684629,
        "name": "Comuna Bixad",
        "stateId": 667869,
        "latitude": 47.92031,
        "longitude": 23.37337
    },
    {
        "cityId": 684761,
        "name": "Comuna B\u00e2rs\u0103u",
        "stateId": 667869,
        "latitude": 47.59376,
        "longitude": 23.24257
    },
    {
        "cityId": 684979,
        "name": "Comuna Berveni",
        "stateId": 667869,
        "latitude": 47.74896,
        "longitude": 22.47553
    },
    {
        "cityId": 685120,
        "name": "Comuna Beltiug",
        "stateId": 667869,
        "latitude": 47.56523,
        "longitude": 22.85452
    },
    {
        "cityId": 685276,
        "name": "Comuna B\u0103tarci",
        "stateId": 667869,
        "latitude": 48.04054,
        "longitude": 23.14274
    },
    {
        "cityId": 686205,
        "name": "Ora\u0219 Ardud",
        "stateId": 667869,
        "latitude": 47.63333,
        "longitude": 22.88333
    },
    {
        "cityId": 686292,
        "name": "Comuna Apa",
        "stateId": 667869,
        "latitude": 47.74934,
        "longitude": 23.18966
    },
    {
        "cityId": 686342,
        "name": "Comuna Andrid",
        "stateId": 667869,
        "latitude": 47.5172,
        "longitude": 22.34688
    },
    {
        "cityId": 686699,
        "name": "Comuna Ac\u00e2\u015f",
        "stateId": 667869,
        "latitude": 47.53143,
        "longitude": 22.74106
    },
    {
        "cityId": 8299647,
        "name": "Municipiul Carei",
        "stateId": 667869,
        "latitude": 47.68203,
        "longitude": 22.46635
    },
    {
        "cityId": 8334741,
        "name": "Comuna P\u00e3ule\u015fti",
        "stateId": 667869,
        "latitude": 47.74992,
        "longitude": 22.94743
    },
    {
        "cityId": 8334766,
        "name": "Comuna Rac\u015fa",
        "stateId": 667869,
        "latitude": 47.82068,
        "longitude": 23.33247
    },
    {
        "cityId": 8334767,
        "name": "Municipiul Satu Mare",
        "stateId": 667869,
        "latitude": 47.76514,
        "longitude": 22.83565
    },
    {
        "cityId": 8334768,
        "name": "Comuna C\u00e3line\u015fti-Oa\u015f",
        "stateId": 667869,
        "latitude": 47.9034,
        "longitude": 23.27351
    },
    {
        "cityId": 8334770,
        "name": "Comuna Supur",
        "stateId": 667869,
        "latitude": 47.45826,
        "longitude": 22.80767
    },
    {
        "cityId": 8334771,
        "name": "Comuna Agri\u015f",
        "stateId": 667869,
        "latitude": 47.87377,
        "longitude": 23.00343
    },
    {
        "cityId": 8334774,
        "name": "Comuna Tarna Mare",
        "stateId": 667869,
        "latitude": 48.08356,
        "longitude": 23.19491
    },
    {
        "cityId": 8334793,
        "name": "Comuna Homoroade",
        "stateId": 667869,
        "latitude": 47.63896,
        "longitude": 23.06593
    },
    {
        "cityId": 8334868,
        "name": "Comuna C\u00e3min",
        "stateId": 667869,
        "latitude": 47.72836,
        "longitude": 22.47987
    }
]