[
    {
        "cityId": 662581,
        "name": "Comuna Vlad \u0162epe\u015f",
        "stateId": 683016,
        "latitude": 44.34482,
        "longitude": 27.08505
    },
    {
        "cityId": 663126,
        "name": "Comuna Vasila\u0163i",
        "stateId": 683016,
        "latitude": 44.29143,
        "longitude": 26.42151
    },
    {
        "cityId": 664197,
        "name": "Comuna Unirea",
        "stateId": 683016,
        "latitude": 44.25119,
        "longitude": 27.58278
    },
    {
        "cityId": 664285,
        "name": "Comuna Ulmu",
        "stateId": 683016,
        "latitude": 44.28725,
        "longitude": 26.91814
    },
    {
        "cityId": 664309,
        "name": "Comuna Ulmeni",
        "stateId": 683016,
        "latitude": 44.14587,
        "longitude": 26.72793
    },
    {
        "cityId": 666213,
        "name": "Comuna \u015etefan Vod\u0103",
        "stateId": 683016,
        "latitude": 44.33097,
        "longitude": 27.32505
    },
    {
        "cityId": 666384,
        "name": "Comuna Span\u0163ov",
        "stateId": 683016,
        "latitude": 44.1311,
        "longitude": 26.78896
    },
    {
        "cityId": 666503,
        "name": "Comuna \u015eoldanu",
        "stateId": 683016,
        "latitude": 44.22675,
        "longitude": 26.51224
    },
    {
        "cityId": 666560,
        "name": "Comuna Sohatu",
        "stateId": 683016,
        "latitude": 44.35549,
        "longitude": 26.52161
    },
    {
        "cityId": 667947,
        "name": "Comuna S\u0103rule\u015fti",
        "stateId": 683016,
        "latitude": 44.41289,
        "longitude": 26.61657
    },
    {
        "cityId": 668659,
        "name": "Comuna Rose\u0163i",
        "stateId": 683016,
        "latitude": 44.21435,
        "longitude": 27.45085
    },
    {
        "cityId": 669242,
        "name": "Comuna Radovanu",
        "stateId": 683016,
        "latitude": 44.17671,
        "longitude": 26.53259
    },
    {
        "cityId": 670551,
        "name": "Comuna Pl\u0103t\u0103re\u015fti",
        "stateId": 683016,
        "latitude": 44.34476,
        "longitude": 26.38255
    },
    {
        "cityId": 671107,
        "name": "Comuna Peri\u015foru",
        "stateId": 683016,
        "latitude": 44.43266,
        "longitude": 27.50197
    },
    {
        "cityId": 672269,
        "name": "Comuna Nicolae B\u0103lcescu",
        "stateId": 683016,
        "latitude": 44.44506,
        "longitude": 26.75839
    },
    {
        "cityId": 672522,
        "name": "Comuna Nana",
        "stateId": 683016,
        "latitude": 44.26771,
        "longitude": 26.59199
    },
    {
        "cityId": 672976,
        "name": "Comuna Modelu",
        "stateId": 683016,
        "latitude": 44.19661,
        "longitude": 27.3896
    },
    {
        "cityId": 673047,
        "name": "Comuna Mitreni",
        "stateId": 683016,
        "latitude": 44.16339,
        "longitude": 26.61454
    },
    {
        "cityId": 673263,
        "name": "Comuna M\u00e2n\u0103stirea",
        "stateId": 683016,
        "latitude": 44.23953,
        "longitude": 26.8794
    },
    {
        "cityId": 674266,
        "name": "Comuna Lup\u015fanu",
        "stateId": 683016,
        "latitude": 44.38075,
        "longitude": 26.94842
    },
    {
        "cityId": 674525,
        "name": "Comuna Luica",
        "stateId": 683016,
        "latitude": 44.24126,
        "longitude": 26.60071
    },
    {
        "cityId": 674917,
        "name": "Comuna Lehliu",
        "stateId": 683016,
        "latitude": 44.48828,
        "longitude": 26.82729
    },
    {
        "cityId": 675284,
        "name": "Comuna Jeg\u0103lia",
        "stateId": 683016,
        "latitude": 44.29436,
        "longitude": 27.64286
    },
    {
        "cityId": 675610,
        "name": "Comuna Independen\u0163a",
        "stateId": 683016,
        "latitude": 44.27922,
        "longitude": 27.16053
    },
    {
        "cityId": 675681,
        "name": "Comuna Ileana",
        "stateId": 683016,
        "latitude": 44.52732,
        "longitude": 26.68993
    },
    {
        "cityId": 676446,
        "name": "Comuna Gurb\u0103ne\u015fti",
        "stateId": 683016,
        "latitude": 44.3754,
        "longitude": 26.69277
    },
    {
        "cityId": 676811,
        "name": "Comuna Gr\u0103di\u015ftea",
        "stateId": 683016,
        "latitude": 44.21945,
        "longitude": 27.1616
    },
    {
        "cityId": 677671,
        "name": "Comuna G\u0103lbina\u015fi",
        "stateId": 683016,
        "latitude": 44.31724,
        "longitude": 26.41941
    },
    {
        "cityId": 677789,
        "name": "Ora\u015f Fundulea",
        "stateId": 683016,
        "latitude": 44.46456,
        "longitude": 26.49901
    },
    {
        "cityId": 677806,
        "name": "Comuna Fundeni",
        "stateId": 683016,
        "latitude": 44.38325,
        "longitude": 26.34968
    },
    {
        "cityId": 677879,
        "name": "Comuna Frumu\u015fani",
        "stateId": 683016,
        "latitude": 44.31716,
        "longitude": 26.30967
    },
    {
        "cityId": 677948,
        "name": "Comuna Fr\u0103sinet",
        "stateId": 683016,
        "latitude": 44.30798,
        "longitude": 26.82463
    },
    {
        "cityId": 678907,
        "name": "Comuna Drago\u015f Vod\u0103",
        "stateId": 683016,
        "latitude": 44.44836,
        "longitude": 27.15382
    },
    {
        "cityId": 679008,
        "name": "Comuna Dragalina",
        "stateId": 683016,
        "latitude": 44.44479,
        "longitude": 27.37537
    },
    {
        "cityId": 679070,
        "name": "Comuna Doroban\u0163u",
        "stateId": 683016,
        "latitude": 44.22324,
        "longitude": 26.95219
    },
    {
        "cityId": 679094,
        "name": "Comuna Dor M\u0103runt",
        "stateId": 683016,
        "latitude": 44.44116,
        "longitude": 26.99417
    },
    {
        "cityId": 679427,
        "name": "Comuna Dichiseni",
        "stateId": 683016,
        "latitude": 44.23056,
        "longitude": 27.53466
    },
    {
        "cityId": 679848,
        "name": "Comuna Cuza Vod\u0103",
        "stateId": 683016,
        "latitude": 44.2673,
        "longitude": 27.27113
    },
    {
        "cityId": 679935,
        "name": "Comuna Curcani",
        "stateId": 683016,
        "latitude": 44.20208,
        "longitude": 26.57632
    },
    {
        "cityId": 680132,
        "name": "Comuna Criv\u0103\u0163",
        "stateId": 683016,
        "latitude": 44.19338,
        "longitude": 26.43846
    },
    {
        "cityId": 681741,
        "name": "Comuna Cioc\u0103ne\u015fti",
        "stateId": 683016,
        "latitude": 44.19701,
        "longitude": 27.0653
    },
    {
        "cityId": 682013,
        "name": "Comuna Chiselet",
        "stateId": 683016,
        "latitude": 44.16868,
        "longitude": 26.85603
    },
    {
        "cityId": 682034,
        "name": "Comuna Chirnogi",
        "stateId": 683016,
        "latitude": 44.11064,
        "longitude": 26.57747
    },
    {
        "cityId": 682616,
        "name": "Comuna C\u0103scioarele",
        "stateId": 683016,
        "latitude": 44.12731,
        "longitude": 26.4696
    },
    {
        "cityId": 683022,
        "name": "Municipiul C\u0103l\u0103ra\u015fi",
        "stateId": 683016,
        "latitude": 44.2,
        "longitude": 27.33333
    },
    {
        "cityId": 683432,
        "name": "Ora\u015f Bude\u015fti",
        "stateId": 683016,
        "latitude": 44.24766,
        "longitude": 26.45099
    },
    {
        "cityId": 685154,
        "name": "Comuna Belciugatele",
        "stateId": 683016,
        "latitude": 44.5116,
        "longitude": 26.44556
    },
    {
        "cityId": 8334637,
        "name": "Comuna \u015etefan Cel Mare",
        "stateId": 683016,
        "latitude": 44.42593,
        "longitude": 27.63963
    },
    {
        "cityId": 8334664,
        "name": "Comuna T\u00e3m\u00e3d\u00e3u Mare",
        "stateId": 683016,
        "latitude": 44.45951,
        "longitude": 26.57622
    },
    {
        "cityId": 8334666,
        "name": "Comuna Valea Argovei",
        "stateId": 683016,
        "latitude": 44.34829,
        "longitude": 26.7818
    },
    {
        "cityId": 8334735,
        "name": "Comuna V\u00e2lcelele",
        "stateId": 683016,
        "latitude": 44.37457,
        "longitude": 27.16661
    },
    {
        "cityId": 8334811,
        "name": "Comuna Alexandru Odobescu",
        "stateId": 683016,
        "latitude": 44.27254,
        "longitude": 27.09402
    },
    {
        "cityId": 8334824,
        "name": "Municipiul Olteni\u0163a",
        "stateId": 683016,
        "latitude": 44.09204,
        "longitude": 26.64183
    },
    {
        "cityId": 8334843,
        "name": "Comuna Borcea",
        "stateId": 683016,
        "latitude": 44.32356,
        "longitude": 27.71808
    },
    {
        "cityId": 8334885,
        "name": "Ora\u015f Lehliu Gar\u00e3",
        "stateId": 683016,
        "latitude": 44.42178,
        "longitude": 26.86167
    }
]