[
    {
        "cityId": "662467",
        "name": "Comuna Vorona",
        "stateId": "684038",
        "latitude": 47.57859,
        "longitude": 26.6138
    },
    {
        "cityId": "662472",
        "name": "Comuna Vorniceni",
        "stateId": "684038",
        "latitude": 47.96004,
        "longitude": 26.64699
    },
    {
        "cityId": "662552",
        "name": "Comuna Vl\u0103sine\u015fti",
        "stateId": "684038",
        "latitude": 47.93988,
        "longitude": 26.91901
    },
    {
        "cityId": "662627",
        "name": "Comuna Vl\u0103deni",
        "stateId": "684038",
        "latitude": 47.72216,
        "longitude": 26.5088
    },
    {
        "cityId": "662777",
        "name": "Comuna V\u00e2rfu C\u00e2mpului",
        "stateId": "684038",
        "latitude": 47.86108,
        "longitude": 26.31529
    },
    {
        "cityId": "664033",
        "name": "Comuna V\u0103cule\u015fti",
        "stateId": "684038",
        "latitude": 47.88229,
        "longitude": 26.3859
    },
    {
        "cityId": "664192",
        "name": "Comuna Un\u0163eni",
        "stateId": "684038",
        "latitude": 47.81164,
        "longitude": 26.77886
    },
    {
        "cityId": "664222",
        "name": "Comuna Ungureni",
        "stateId": "684038",
        "latitude": 47.90384,
        "longitude": 26.76051
    },
    {
        "cityId": "664574",
        "name": "Comuna Tudora",
        "stateId": "684038",
        "latitude": 47.50773,
        "longitude": 26.63397
    },
    {
        "cityId": "664577",
        "name": "Comuna Tru\u015fe\u015fti",
        "stateId": "684038",
        "latitude": 47.78058,
        "longitude": 26.98911
    },
    {
        "cityId": "664863",
        "name": "Comuna Todireni",
        "stateId": "684038",
        "latitude": 47.61386,
        "longitude": 27.10122
    },
    {
        "cityId": "665787",
        "name": "Comuna Suli\u0163a",
        "stateId": "684038",
        "latitude": 47.63723,
        "longitude": 26.9351
    },
    {
        "cityId": "665808",
        "name": "Comuna Suhar\u0103u",
        "stateId": "684038",
        "latitude": 48.11697,
        "longitude": 26.44743
    },
    {
        "cityId": "666084",
        "name": "Comuna \u015etiubieni",
        "stateId": "684038",
        "latitude": 47.97903,
        "longitude": 26.7642
    },
    {
        "cityId": "666225",
        "name": "Ora\u015f \u015etef\u00e3ne\u015fti",
        "stateId": "684038",
        "latitude": 47.78834,
        "longitude": 27.20601
    },
    {
        "cityId": "666262",
        "name": "Comuna St\u0103uceni",
        "stateId": "684038",
        "latitude": 47.72142,
        "longitude": 26.77471
    },
    {
        "cityId": "667394",
        "name": "Comuna \u015eendriceni",
        "stateId": "684038",
        "latitude": 47.94657,
        "longitude": 26.32957
    },
    {
        "cityId": "667755",
        "name": "Ora\u015f S\u00e3veni",
        "stateId": "684038",
        "latitude": 47.95998,
        "longitude": 26.86677
    },
    {
        "cityId": "668726",
        "name": "Comuna Rom\u00e2ne\u015fti",
        "stateId": "684038",
        "latitude": 47.7086,
        "longitude": 27.23491
    },
    {
        "cityId": "668735",
        "name": "Comuna Roma",
        "stateId": "684038",
        "latitude": 47.84497,
        "longitude": 26.57084
    },
    {
        "cityId": "668848",
        "name": "Comuna Ripiceni",
        "stateId": "684038",
        "latitude": 47.91899,
        "longitude": 27.13958
    },
    {
        "cityId": "669096",
        "name": "Comuna R\u0103useni",
        "stateId": "684038",
        "latitude": 47.55941,
        "longitude": 27.22551
    },
    {
        "cityId": "669370",
        "name": "Comuna R\u0103chi\u0163i",
        "stateId": "684038",
        "latitude": 47.77282,
        "longitude": 26.68847
    },
    {
        "cityId": "669729",
        "name": "Comuna Pr\u0103jeni",
        "stateId": "684038",
        "latitude": 47.49577,
        "longitude": 27.02386
    },
    {
        "cityId": "669946",
        "name": "Comuna Pom\u00e2rla",
        "stateId": "684038",
        "latitude": 48.06225,
        "longitude": 26.3209
    },
    {
        "cityId": "671424",
        "name": "Comuna P\u0103ltini\u015f",
        "stateId": "684038",
        "latitude": 48.23494,
        "longitude": 26.68555
    },
    {
        "cityId": "672239",
        "name": "Comuna Nic\u015feni",
        "stateId": "684038",
        "latitude": 47.8617,
        "longitude": 26.66023
    },
    {
        "cityId": "673053",
        "name": "Comuna Mitoc",
        "stateId": "684038",
        "latitude": 48.11288,
        "longitude": 27.00423
    },
    {
        "cityId": "673314",
        "name": "Comuna Mileanca",
        "stateId": "684038",
        "latitude": 48.09121,
        "longitude": 26.72965
    },
    {
        "cityId": "673358",
        "name": "Comuna Mih\u0103l\u0103\u015feni",
        "stateId": "684038",
        "latitude": 47.87956,
        "longitude": 27.0962
    },
    {
        "cityId": "673388",
        "name": "Comuna Mih\u0103ileni",
        "stateId": "684038",
        "latitude": 47.95552,
        "longitude": 26.16204
    },
    {
        "cityId": "673907",
        "name": "Comuna Manoleasa",
        "stateId": "684038",
        "latitude": 48.00852,
        "longitude": 27.07951
    },
    {
        "cityId": "674443",
        "name": "Comuna Lunca",
        "stateId": "684038",
        "latitude": 47.62751,
        "longitude": 26.9924
    },
    {
        "cityId": "674578",
        "name": "Comuna Lozna",
        "stateId": "684038",
        "latitude": 47.9441,
        "longitude": 26.28694
    },
    {
        "cityId": "674887",
        "name": "Comuna Leorda",
        "stateId": "684038",
        "latitude": 47.81862,
        "longitude": 26.45408
    },
    {
        "cityId": "675780",
        "name": "Comuna Ib\u0103ne\u015fti",
        "stateId": "684038",
        "latitude": 48.04435,
        "longitude": 26.4045
    },
    {
        "cityId": "675940",
        "name": "Comuna Hude\u015fti",
        "stateId": "684038",
        "latitude": 48.1528,
        "longitude": 26.50102
    },
    {
        "cityId": "676137",
        "name": "Comuna Hlipiceni",
        "stateId": "684038",
        "latitude": 47.60401,
        "longitude": 27.1708
    },
    {
        "cityId": "676267",
        "name": "Comuna Hav\u00e2rna",
        "stateId": "684038",
        "latitude": 48.05683,
        "longitude": 26.68314
    },
    {
        "cityId": "676333",
        "name": "Comuna H\u0103ne\u015fti",
        "stateId": "684038",
        "latitude": 47.91987,
        "longitude": 27.01151
    },
    {
        "cityId": "676917",
        "name": "Comuna Gorb\u0103ne\u015fti",
        "stateId": "684038",
        "latitude": 47.7745,
        "longitude": 26.88143
    },
    {
        "cityId": "677507",
        "name": "Comuna George Enescu",
        "stateId": "684038",
        "latitude": 48.03617,
        "longitude": 26.51437
    },
    {
        "cityId": "677871",
        "name": "Comuna Frumu\u015fica",
        "stateId": "684038",
        "latitude": 47.52602,
        "longitude": 26.87967
    },
    {
        "cityId": "678079",
        "name": "Ora\u015f Fl\u00e3m\u00e2nzi",
        "stateId": "684038",
        "latitude": 47.56193,
        "longitude": 26.90381
    },
    {
        "cityId": "678603",
        "name": "Comuna Durne\u015fti",
        "stateId": "684038",
        "latitude": 47.76992,
        "longitude": 27.09406
    },
    {
        "cityId": "678876",
        "name": "Comuna Dr\u0103gu\u015feni",
        "stateId": "684038",
        "latitude": 48.0329,
        "longitude": 26.81987
    },
    {
        "cityId": "679278",
        "name": "Comuna Dob\u00e2rceni",
        "stateId": "684038",
        "latitude": 47.83289,
        "longitude": 27.07611
    },
    {
        "cityId": "679350",
        "name": "Comuna D\u00e2ngeni",
        "stateId": "684038",
        "latitude": 47.84762,
        "longitude": 26.94817
    },
    {
        "cityId": "679397",
        "name": "Comuna Dim\u0103cheni",
        "stateId": "684038",
        "latitude": 47.91832,
        "longitude": 26.54362
    },
    {
        "cityId": "679466",
        "name": "Comuna Dersca",
        "stateId": "684038",
        "latitude": 47.98958,
        "longitude": 26.21496
    },
    {
        "cityId": "679734",
        "name": "Ora\u015f Darabani",
        "stateId": "684038",
        "latitude": 48.17429,
        "longitude": 26.61519
    },
    {
        "cityId": "680160",
        "name": "Comuna Cristine\u015fti",
        "stateId": "684038",
        "latitude": 48.10199,
        "longitude": 26.36951
    },
    {
        "cityId": "680172",
        "name": "Comuna Criste\u015fti",
        "stateId": "684038",
        "latitude": 47.61482,
        "longitude": 26.71546
    },
    {
        "cityId": "680439",
        "name": "Comuna Co\u0163u\u015fca",
        "stateId": "684038",
        "latitude": 48.12109,
        "longitude": 26.87179
    },
    {
        "cityId": "680528",
        "name": "Comuna Co\u015fula",
        "stateId": "684038",
        "latitude": 47.61915,
        "longitude": 26.78553
    },
    {
        "cityId": "680738",
        "name": "Comuna Corni",
        "stateId": "684038",
        "latitude": 47.64025,
        "longitude": 26.60869
    },
    {
        "cityId": "680814",
        "name": "Comuna Corl\u0103teni",
        "stateId": "684038",
        "latitude": 47.93121,
        "longitude": 26.58515
    },
    {
        "cityId": "680838",
        "name": "Comun\u0103 Cord\u0103reni",
        "stateId": "684038",
        "latitude": 48.0042,
        "longitude": 26.59106
    },
    {
        "cityId": "680910",
        "name": "Comuna Cop\u0103l\u0103u",
        "stateId": "684038",
        "latitude": 47.6112,
        "longitude": 26.86778
    },
    {
        "cityId": "680976",
        "name": "Comuna Conce\u015fti",
        "stateId": "684038",
        "latitude": 48.14676,
        "longitude": 26.57937
    },
    {
        "cityId": "681815",
        "name": "Comuna C\u00e2nde\u015fti",
        "stateId": "684038",
        "latitude": 47.92325,
        "longitude": 26.2205
    },
    {
        "cityId": "683017",
        "name": "Comuna C\u0103l\u0103ra\u015fi",
        "stateId": "684038",
        "latitude": 47.6034,
        "longitude": 27.27766
    },
    {
        "cityId": "683601",
        "name": "Ora\u015f Bucecea",
        "stateId": "684038",
        "latitude": 47.77741,
        "longitude": 26.43966
    },
    {
        "cityId": "683655",
        "name": "Comuna Brosc\u0103u\u0163i",
        "stateId": "684038",
        "latitude": 47.95596,
        "longitude": 26.46648
    },
    {
        "cityId": "683916",
        "name": "Comuna Br\u0103e\u015fti",
        "stateId": "684038",
        "latitude": 47.84903,
        "longitude": 26.45715
    },
    {
        "cityId": "684037",
        "name": "Municipiul Boto\u015fani",
        "stateId": "684038",
        "latitude": 47.73984,
        "longitude": 26.67156
    },
    {
        "cityId": "684565",
        "name": "Comuna Bl\u00e2nde\u015fti",
        "stateId": "684038",
        "latitude": 47.71218,
        "longitude": 26.89193
    },
    {
        "cityId": "685505",
        "name": "Comuna B\u0103lu\u015feni",
        "stateId": "684038",
        "latitude": 47.67758,
        "longitude": 26.77855
    },
    {
        "cityId": "686027",
        "name": "Comuna Avr\u0103meni",
        "stateId": "684038",
        "latitude": 48.02439,
        "longitude": 26.95734
    },
    {
        "cityId": "686546",
        "name": "Comuna Albe\u015fti",
        "stateId": "684038",
        "latitude": 47.68387,
        "longitude": 27.08704
    },
    {
        "cityId": "686681",
        "name": "Comuna Ad\u0103\u015feni",
        "stateId": "684038",
        "latitude": 48.06287,
        "longitude": 26.95205
    },
    {
        "cityId": "8334651",
        "name": "Comuna Mihai Eminescu",
        "stateId": "684038",
        "latitude": 47.76632,
        "longitude": 26.56267
    },
    {
        "cityId": "8334728",
        "name": "Municipiul Dorohoi",
        "stateId": "684038",
        "latitude": 47.96772,
        "longitude": 26.41685
    },
    {
        "cityId": "8334781",
        "name": "Comuna Curte\u015fti",
        "stateId": "684038",
        "latitude": 47.70275,
        "longitude": 26.64109
    },
    {
        "cityId": "8334832",
        "name": "Comuna Santa Mare",
        "stateId": "684038",
        "latitude": 47.63308,
        "longitude": 27.3026
    },
    {
        "cityId": "8334872",
        "name": "Comuna Hili\u015feu-Horia",
        "stateId": "684038",
        "latitude": 48.01336,
        "longitude": 26.29685
    },
    {
        "cityId": "8334951",
        "name": "Comuna R\u00e3d\u00e3u\u0163i-Prut",
        "stateId": "684038",
        "latitude": 48.22492,
        "longitude": 26.81304
    },
    {
        "cityId": "8334956",
        "name": "Comuna Vii\u015foara",
        "stateId": "684038",
        "latitude": 48.16752,
        "longitude": 26.74267
    }
]