[
    {
        "cityId": 662475,
        "name": "Voluntari City",
        "stateId": 865518,
        "latitude": 44.49023,
        "longitude": 26.18439
    },
    {
        "cityId": 662967,
        "name": "Comuna Vidra",
        "stateId": 865518,
        "latitude": 44.28107,
        "longitude": 26.1431
    },
    {
        "cityId": 664498,
        "name": "Comuna Tunari",
        "stateId": 865518,
        "latitude": 44.56797,
        "longitude": 26.13908
    },
    {
        "cityId": 666228,
        "name": "Comuna \u015etef\u00e3ne\u015ftii De Jos",
        "stateId": 865518,
        "latitude": 44.53333,
        "longitude": 26.18333
    },
    {
        "cityId": 666610,
        "name": "Comuna Snagov",
        "stateId": 865518,
        "latitude": 44.68481,
        "longitude": 26.12384
    },
    {
        "cityId": 669869,
        "name": "Ora\u015f Pope\u015fti Leordeni",
        "stateId": 865518,
        "latitude": 44.38005,
        "longitude": 26.17134
    },
    {
        "cityId": 671380,
        "name": "Ora\u015f Pantelimon",
        "stateId": 865518,
        "latitude": 44.45235,
        "longitude": 26.20684
    },
    {
        "cityId": 671589,
        "name": "Ora\u015f Otopeni",
        "stateId": 865518,
        "latitude": 44.54217,
        "longitude": 26.06526
    },
    {
        "cityId": 672936,
        "name": "Comuna Mogo\u015foaia",
        "stateId": 865518,
        "latitude": 44.52903,
        "longitude": 26.00178
    },
    {
        "cityId": 674111,
        "name": "Ora\u015f M\u00e3gurele",
        "stateId": 865518,
        "latitude": 44.33925,
        "longitude": 26.01403
    },
    {
        "cityId": 675229,
        "name": "Comuna Jilava",
        "stateId": 865518,
        "latitude": 44.32863,
        "longitude": 26.07754
    },
    {
        "cityId": 676611,
        "name": "Comuna Gruiu",
        "stateId": 865518,
        "latitude": 44.72648,
        "longitude": 26.22133
    },
    {
        "cityId": 676810,
        "name": "Comuna Gr\u0103di\u015ftea",
        "stateId": 865518,
        "latitude": 44.66557,
        "longitude": 26.31448
    },
    {
        "cityId": 677626,
        "name": "Comuna G\u0103neasa",
        "stateId": 865518,
        "latitude": 44.49447,
        "longitude": 26.29923
    },
    {
        "cityId": 677804,
        "name": "Comuna Fundeni-Dobroe\u015fti",
        "stateId": 865518,
        "latitude": 44.45455,
        "longitude": 26.18368
    },
    {
        "cityId": 679116,
        "name": "Comuna Domne\u015fti",
        "stateId": 865518,
        "latitude": 44.39058,
        "longitude": 25.89492
    },
    {
        "cityId": 679707,
        "name": "Comuna Dasc\u0103lu Crea\u0163a",
        "stateId": 865518,
        "latitude": 44.60008,
        "longitude": 26.24201
    },
    {
        "cityId": 679731,
        "name": "Comuna D\u0103r\u0103\u015fti-Ilfov",
        "stateId": 865518,
        "latitude": 44.30912,
        "longitude": 26.02139
    },
    {
        "cityId": 680295,
        "name": "Comuna Petr\u0103chioaia",
        "stateId": 865518,
        "latitude": 44.57953,
        "longitude": 26.31114
    },
    {
        "cityId": 680749,
        "name": "Comuna Cornetu",
        "stateId": 865518,
        "latitude": 44.34286,
        "longitude": 25.92489
    },
    {
        "cityId": 680889,
        "name": "Comuna Corbeanca",
        "stateId": 865518,
        "latitude": 44.59671,
        "longitude": 26.03241
    },
    {
        "cityId": 680924,
        "name": "Comuna Cop\u0103ceni",
        "stateId": 865518,
        "latitude": 44.26297,
        "longitude": 26.09374
    },
    {
        "cityId": 681646,
        "name": "Comuna Ciorog\u00e2rla",
        "stateId": 865518,
        "latitude": 44.43222,
        "longitude": 25.87861
    },
    {
        "cityId": 681689,
        "name": "Comuna Ciolpani",
        "stateId": 865518,
        "latitude": 44.72603,
        "longitude": 26.10193
    },
    {
        "cityId": 681989,
        "name": "Ora\u015f Chitila",
        "stateId": 865518,
        "latitude": 44.49053,
        "longitude": 25.97847
    },
    {
        "cityId": 682158,
        "name": "Comuna Chiajna",
        "stateId": 865518,
        "latitude": 44.45499,
        "longitude": 25.99345
    },
    {
        "cityId": 682300,
        "name": "Comuna Cernica",
        "stateId": 865518,
        "latitude": 44.39343,
        "longitude": 26.28992
    },
    {
        "cityId": 683393,
        "name": "Ora\u015f Buftea",
        "stateId": 865518,
        "latitude": 44.55475,
        "longitude": 25.95628
    },
    {
        "cityId": 683878,
        "name": "Comuna Br\u0103ne\u015fti",
        "stateId": 865518,
        "latitude": 44.45362,
        "longitude": 26.34995
    },
    {
        "cityId": 683911,
        "name": "Ora\u015f Bragadiru",
        "stateId": 865518,
        "latitude": 44.36998,
        "longitude": 25.97871
    },
    {
        "cityId": 685074,
        "name": "Comuna Berceni",
        "stateId": 865518,
        "latitude": 44.30887,
        "longitude": 26.19051
    },
    {
        "cityId": 685587,
        "name": "Comuna Balote\u015fti",
        "stateId": 865518,
        "latitude": 44.62026,
        "longitude": 26.08664
    },
    {
        "cityId": 686643,
        "name": "Comuna Afuma\u0163i",
        "stateId": 865518,
        "latitude": 44.52501,
        "longitude": 26.24943
    },
    {
        "cityId": 8334589,
        "name": "Comuna Glina",
        "stateId": 865518,
        "latitude": 44.38546,
        "longitude": 26.24582
    },
    {
        "cityId": 8334711,
        "name": "Comuna 1 Decembrie",
        "stateId": 865518,
        "latitude": 44.28869,
        "longitude": 26.06178
    },
    {
        "cityId": 8334739,
        "name": "Comuna Nuci",
        "stateId": 865518,
        "latitude": 44.7091,
        "longitude": 26.3177
    },
    {
        "cityId": 8334849,
        "name": "Comuna Clinceni",
        "stateId": 865518,
        "latitude": 44.37639,
        "longitude": 25.92445
    },
    {
        "cityId": 8334859,
        "name": "Comuna Moara Vl\u00e3siei",
        "stateId": 865518,
        "latitude": 44.63416,
        "longitude": 26.18935
    },
    {
        "cityId": 8334881,
        "name": "Comuna Dragomire\u015fti-Vale",
        "stateId": 865518,
        "latitude": 44.47555,
        "longitude": 25.93164
    },
    {
        "cityId": 8334888,
        "name": "Comuna Peri\u015f",
        "stateId": 865518,
        "latitude": 44.70859,
        "longitude": 26.01472
    }
]