[
    {
        "cityId": 7670616,
        "name": "Ruyigi",
        "stateId": 426699,
        "latitude": -3.43319,
        "longitude": 30.27474
    },
    {
        "cityId": 9171841,
        "name": "Gisuru",
        "stateId": 426699,
        "latitude": -3.44592,
        "longitude": 30.49793
    },
    {
        "cityId": 9171844,
        "name": "Kinyinya",
        "stateId": 426699,
        "latitude": -3.6241,
        "longitude": 30.3642
    },
    {
        "cityId": 9171851,
        "name": "Nyabitsinda",
        "stateId": 426699,
        "latitude": -3.57813,
        "longitude": 30.27037
    },
    {
        "cityId": 9171856,
        "name": "Butezi",
        "stateId": 426699,
        "latitude": -3.35392,
        "longitude": 30.19745
    },
    {
        "cityId": 9171859,
        "name": "Bweru",
        "stateId": 426699,
        "latitude": -3.29666,
        "longitude": 30.38269
    },
    {
        "cityId": 11819937,
        "name": "Butaganzwa",
        "stateId": 426699,
        "latitude": -3.53137,
        "longitude": 30.14559
    }
]