[
    {
        "cityId": "522943",
        "name": "Neftegorskiy Rayon",
        "stateId": "499068",
        "latitude": 52.83333,
        "longitude": 50.83333
    },
    {
        "cityId": "542130",
        "name": "Krasnoyarskiy Rayon",
        "stateId": "499068",
        "latitude": 53.5,
        "longitude": 50.5
    },
    {
        "cityId": "544174",
        "name": "Koshkinskiy Rayon",
        "stateId": "499068",
        "latitude": 54.25,
        "longitude": 50.41667
    },
    {
        "cityId": "548614",
        "name": "Kinel\u2019skiy Rayon",
        "stateId": "499068",
        "latitude": 53.16667,
        "longitude": 50.75
    },
    {
        "cityId": "571989",
        "name": "Borskiy Rayon",
        "stateId": "499068",
        "latitude": 53,
        "longitude": 51.75
    },
    {
        "cityId": "574410",
        "name": "Bol\u2019sheglushitskiy Rayon",
        "stateId": "499068",
        "latitude": 52.41667,
        "longitude": 50.75
    },
    {
        "cityId": "574418",
        "name": "Bol\u2019shechernigovskiy Rayon",
        "stateId": "499068",
        "latitude": 52.08333,
        "longitude": 50.83333
    },
    {
        "cityId": "575758",
        "name": "Bogatovskiy Rayon",
        "stateId": "499068",
        "latitude": 53,
        "longitude": 51.33333
    },
    {
        "cityId": "576588",
        "name": "Bezenchukskiy Rayon",
        "stateId": "499068",
        "latitude": 53,
        "longitude": 49.25
    }
]