[
    {
        "cityId": "464686",
        "name": "Zarayskiy Rayon",
        "stateId": "524925",
        "latitude": 54.75,
        "longitude": 38.91667
    },
    {
        "cityId": "465636",
        "name": "Sergiyevo-Posadskiy Rayon",
        "stateId": "524925",
        "latitude": 56.33333,
        "longitude": 38.16667
    },
    {
        "cityId": "468247",
        "name": "Yegor\u2019yevskiy Rayon",
        "stateId": "524925",
        "latitude": 55.41667,
        "longitude": 39.08333
    },
    {
        "cityId": "471643",
        "name": "Voskresenskiy Rayon",
        "stateId": "524925",
        "latitude": 55.33333,
        "longitude": 38.75
    },
    {
        "cityId": "472430",
        "name": "Volokolamskiy Rayon",
        "stateId": "524925",
        "latitude": 56.08886,
        "longitude": 35.99248
    },
    {
        "cityId": "484825",
        "name": "Taldomskiy Rayon",
        "stateId": "524925",
        "latitude": 56.75,
        "longitude": 37.58333
    },
    {
        "cityId": "486955",
        "name": "Stupinskiy Rayon",
        "stateId": "524925",
        "latitude": 54.91667,
        "longitude": 38.08333
    },
    {
        "cityId": "490995",
        "name": "Solnechnogorskiy Rayon",
        "stateId": "524925",
        "latitude": 56.08333,
        "longitude": 37.08333
    },
    {
        "cityId": "495337",
        "name": "Shch\u00eblkovskiy Rayon",
        "stateId": "524925",
        "latitude": 56,
        "longitude": 38.16667
    },
    {
        "cityId": "495516",
        "name": "Shaturskiy Rayon",
        "stateId": "524925",
        "latitude": 55.58333,
        "longitude": 39.75
    },
    {
        "cityId": "496029",
        "name": "Shakhovskoy Rayon",
        "stateId": "524925",
        "latitude": 56.00192,
        "longitude": 35.49537
    },
    {
        "cityId": "496526",
        "name": "Serpukhovskiy Rayon",
        "stateId": "524925",
        "latitude": 54.91667,
        "longitude": 37.41667
    },
    {
        "cityId": "496894",
        "name": "Serebryano-Prudskiy Rayon",
        "stateId": "524925",
        "latitude": 54.5,
        "longitude": 38.66667
    },
    {
        "cityId": "500285",
        "name": "Ruzskiy Rayon",
        "stateId": "524925",
        "latitude": 55.7,
        "longitude": 36.25
    },
    {
        "cityId": "502966",
        "name": "Ramenskiy Rayon",
        "stateId": "524925",
        "latitude": 55.56667,
        "longitude": 38.23333
    },
    {
        "cityId": "503964",
        "name": "Pushkinskiy Rayon",
        "stateId": "524925",
        "latitude": 55.91667,
        "longitude": 37.83333
    },
    {
        "cityId": "508091",
        "name": "Podolsk Urban Okrug",
        "stateId": "524925",
        "latitude": 55.41667,
        "longitude": 37.58333
    },
    {
        "cityId": "512055",
        "name": "Pavlovo-Posadskiy Rayon",
        "stateId": "524925",
        "latitude": 55.75,
        "longitude": 38.66667
    },
    {
        "cityId": "513393",
        "name": "Ozyory Urban Okrug",
        "stateId": "524925",
        "latitude": 54.83333,
        "longitude": 38.58333
    },
    {
        "cityId": "515022",
        "name": "Orekhovo-Zuyevskiy Rayon",
        "stateId": "524925",
        "latitude": 55.75,
        "longitude": 39
    },
    {
        "cityId": "516210",
        "name": "Odintsovskiy Rayon",
        "stateId": "524925",
        "latitude": 55.66667,
        "longitude": 36.91667
    },
    {
        "cityId": "520066",
        "name": "Noginskiy Rayon",
        "stateId": "524925",
        "latitude": 55.91667,
        "longitude": 38.41667
    },
    {
        "cityId": "523425",
        "name": "Naro-Fominskiy Rayon",
        "stateId": "524925",
        "latitude": 55.41667,
        "longitude": 36.75
    },
    {
        "cityId": "523810",
        "name": "Mytishchi Urban Okrug",
        "stateId": "524925",
        "latitude": 56,
        "longitude": 37.66667
    },
    {
        "cityId": "524708",
        "name": "Mozhayskiy Rayon",
        "stateId": "524925",
        "latitude": 55.5,
        "longitude": 36
    },
    {
        "cityId": "532616",
        "name": "Lyuberetskiy Rayon",
        "stateId": "524925",
        "latitude": 55.66667,
        "longitude": 37.91667
    },
    {
        "cityId": "533544",
        "name": "Lukhovitskiy Rayon",
        "stateId": "524925",
        "latitude": 54.91667,
        "longitude": 39.08333
    },
    {
        "cityId": "533974",
        "name": "Lotoshinskiy Rayon",
        "stateId": "524925",
        "latitude": 56.25,
        "longitude": 35.66667
    },
    {
        "cityId": "536086",
        "name": "Leninskiy Rayon",
        "stateId": "524925",
        "latitude": 55.41667,
        "longitude": 37.58333
    },
    {
        "cityId": "542363",
        "name": "Krasnogorskiy Rayon",
        "stateId": "524925",
        "latitude": 55.83333,
        "longitude": 37.33333
    },
    {
        "cityId": "546247",
        "name": "Kolomenskiy Rayon",
        "stateId": "524925",
        "latitude": 55.08333,
        "longitude": 38.75
    },
    {
        "cityId": "547486",
        "name": "Klinskiy Rayon",
        "stateId": "524925",
        "latitude": 56.41667,
        "longitude": 36.83333
    },
    {
        "cityId": "550279",
        "name": "Khimki Urban Okrug",
        "stateId": "524925",
        "latitude": 55.91667,
        "longitude": 37.41667
    },
    {
        "cityId": "551949",
        "name": "Kashira Urban Okrug",
        "stateId": "524925",
        "latitude": 54.83333,
        "longitude": 38.25
    },
    {
        "cityId": "555740",
        "name": "Istrinskiy Rayon",
        "stateId": "524925",
        "latitude": 55.88333,
        "longitude": 36.93333
    },
    {
        "cityId": "565379",
        "name": "Domodedovskiy Rayon",
        "stateId": "524925",
        "latitude": 55.41667,
        "longitude": 37.75
    },
    {
        "cityId": "565909",
        "name": "Dmitrovskiy Rayon",
        "stateId": "524925",
        "latitude": 56.35,
        "longitude": 37.58333
    },
    {
        "cityId": "569587",
        "name": "Chekhovskiy Rayon",
        "stateId": "524925",
        "latitude": 55.16667,
        "longitude": 37.41667
    },
    {
        "cityId": "579462",
        "name": "Balashikha Urban Okrug",
        "stateId": "524925",
        "latitude": 55.83333,
        "longitude": 38
    }
]