[
    {
        "cityId": "471173",
        "name": "Voznesenskiy Rayon",
        "stateId": "559838",
        "latitude": 54.91667,
        "longitude": 42.83333
    },
    {
        "cityId": "471642",
        "name": "Voskresenskiy Rayon",
        "stateId": "559838",
        "latitude": 56.75,
        "longitude": 45.5
    },
    {
        "cityId": "471793",
        "name": "Vorotynskiy Rayon",
        "stateId": "559838",
        "latitude": 56.16667,
        "longitude": 45.75
    },
    {
        "cityId": "472482",
        "name": "Volodarskiy Rayon",
        "stateId": "559838",
        "latitude": 56.33333,
        "longitude": 43
    },
    {
        "cityId": "473902",
        "name": "Vetluzhskiy Rayon",
        "stateId": "559838",
        "latitude": 57.75,
        "longitude": 45.58333
    },
    {
        "cityId": "476980",
        "name": "Varnavinskiy Rayon",
        "stateId": "559838",
        "latitude": 57.5,
        "longitude": 44.91667
    },
    {
        "cityId": "477406",
        "name": "Vadskiy Rayon",
        "stateId": "559838",
        "latitude": 55.5,
        "longitude": 44.16667
    },
    {
        "cityId": "477425",
        "name": "Vachskiy Rayon",
        "stateId": "559838",
        "latitude": 55.75,
        "longitude": 42.75
    },
    {
        "cityId": "490199",
        "name": "Sosnovskiy Rayon",
        "stateId": "559838",
        "latitude": 55.75,
        "longitude": 43.25
    },
    {
        "cityId": "497311",
        "name": "Sem\u00ebnovskiy Rayon",
        "stateId": "559838",
        "latitude": 56.75,
        "longitude": 44.5
    },
    {
        "cityId": "512018",
        "name": "Pavlovskiy Rayon",
        "stateId": "559838",
        "latitude": 56,
        "longitude": 43
    },
    {
        "cityId": "533397",
        "name": "Lukoyanovskiy Rayon",
        "stateId": "559838",
        "latitude": 55,
        "longitude": 44.5
    },
    {
        "cityId": "540102",
        "name": "Kstovskiy Rayon",
        "stateId": "559838",
        "latitude": 56.18333,
        "longitude": 44.08333
    },
    {
        "cityId": "543493",
        "name": "Koverninskiy Rayon",
        "stateId": "559838",
        "latitude": 57.16667,
        "longitude": 44
    },
    {
        "cityId": "547159",
        "name": "Knyagininskiy Rayon",
        "stateId": "559838",
        "latitude": 55.83333,
        "longitude": 45.16667
    },
    {
        "cityId": "559667",
        "name": "Gorodetskiy Rayon",
        "stateId": "559838",
        "latitude": 56.75,
        "longitude": 43.75
    },
    {
        "cityId": "562208",
        "name": "Gaginskiy Rayon",
        "stateId": "559838",
        "latitude": 55.25,
        "longitude": 45
    },
    {
        "cityId": "566164",
        "name": "Diveyevskiy Rayon",
        "stateId": "559838",
        "latitude": 55.08333,
        "longitude": 43.41667
    },
    {
        "cityId": "567266",
        "name": "Dal\u2019nekonstantinovskiy Rayon",
        "stateId": "559838",
        "latitude": 55.83333,
        "longitude": 44.08333
    },
    {
        "cityId": "570560",
        "name": "Buturlinskiy Rayon",
        "stateId": "559838",
        "latitude": 55.5,
        "longitude": 44.91667
    },
    {
        "cityId": "571988",
        "name": "Borskiy Rayon",
        "stateId": "559838",
        "latitude": 56.41667,
        "longitude": 44.41667
    },
    {
        "cityId": "574377",
        "name": "Bol\u2019shemurashkinskiy Rayon",
        "stateId": "559838",
        "latitude": 55.83333,
        "longitude": 44.75
    },
    {
        "cityId": "574426",
        "name": "Bol\u2019sheboldinskiy Rayon",
        "stateId": "559838",
        "latitude": 55,
        "longitude": 45.25
    },
    {
        "cityId": "575549",
        "name": "Bogorodskiy Rayon",
        "stateId": "559838",
        "latitude": 56.08333,
        "longitude": 43.5
    },
    {
        "cityId": "579510",
        "name": "Balakhninskiy Rayon",
        "stateId": "559838",
        "latitude": 56.5,
        "longitude": 43.5
    },
    {
        "cityId": "580722",
        "name": "Arzamasskiy Rayon",
        "stateId": "559838",
        "latitude": 55.33333,
        "longitude": 43.75
    },
    {
        "cityId": "581181",
        "name": "Ardatovskiy Rayon",
        "stateId": "559838",
        "latitude": 55.25,
        "longitude": 43.08333
    }
]