[
    {
        "cityId": "2012779",
        "name": "Zabaykal\u2019skiy Rayon",
        "stateId": "7779061",
        "latitude": 49.66667,
        "longitude": 117.33333
    },
    {
        "cityId": "2014372",
        "name": "Uletovskiy Rayon",
        "stateId": "7779061",
        "latitude": 51,
        "longitude": 112
    },
    {
        "cityId": "2014882",
        "name": "Tungokochenskiy Rayon",
        "stateId": "7779061",
        "latitude": 53.5,
        "longitude": 116
    },
    {
        "cityId": "2014885",
        "name": "Tungiro-Ol\u00ebkminskiy Rayon",
        "stateId": "7779061",
        "latitude": 55,
        "longitude": 120
    },
    {
        "cityId": "2016109",
        "name": "Sretenskiy Rayon",
        "stateId": "7779061",
        "latitude": 52.33333,
        "longitude": 117.83333
    },
    {
        "cityId": "2016703",
        "name": "Shilkinskiy Rayon",
        "stateId": "7779061",
        "latitude": 52,
        "longitude": 115.66667
    },
    {
        "cityId": "2016756",
        "name": "Shelopuginskiy Rayon",
        "stateId": "7779061",
        "latitude": 51.66667,
        "longitude": 118.66667
    },
    {
        "cityId": "2017645",
        "name": "Priargunskiy Rayon",
        "stateId": "7779061",
        "latitude": 50.75,
        "longitude": 118.5
    },
    {
        "cityId": "2017944",
        "name": "Petrovsk-Zabaykal\u2019skiy Rayon",
        "stateId": "7779061",
        "latitude": 51,
        "longitude": 109
    },
    {
        "cityId": "2018427",
        "name": "Ononskiy Rayon",
        "stateId": "7779061",
        "latitude": 50.33333,
        "longitude": 115
    },
    {
        "cityId": "2018500",
        "name": "Olovyanninskiy Rayon",
        "stateId": "7779061",
        "latitude": 51,
        "longitude": 116.16667
    },
    {
        "cityId": "2019322",
        "name": "Nerchinsko-Zavodskiy Rayon",
        "stateId": "7779061",
        "latitude": 51.31667,
        "longitude": 119.6
    },
    {
        "cityId": "2019324",
        "name": "Nerchinskiy Rayon",
        "stateId": "7779061",
        "latitude": 52.33333,
        "longitude": 116.25
    },
    {
        "cityId": "2019909",
        "name": "Mogochinskiy Rayon",
        "stateId": "7779061",
        "latitude": 53.66667,
        "longitude": 120.33333
    },
    {
        "cityId": "2021029",
        "name": "Kyrinskiy Rayon",
        "stateId": "7779061",
        "latitude": 49.75,
        "longitude": 112
    },
    {
        "cityId": "2021617",
        "name": "Krasnokamenskiy Rayon",
        "stateId": "7779061",
        "latitude": 50.05,
        "longitude": 118.01667
    },
    {
        "cityId": "2022461",
        "name": "Khilokskiy Rayon",
        "stateId": "7779061",
        "latitude": 51.35,
        "longitude": 110.46667
    },
    {
        "cityId": "2023095",
        "name": "Karymskiy Rayon",
        "stateId": "7779061",
        "latitude": 51.91667,
        "longitude": 114.66667
    },
    {
        "cityId": "2023283",
        "name": "Kalganskiy Rayon",
        "stateId": "7779061",
        "latitude": 51,
        "longitude": 119
    },
    {
        "cityId": "2023295",
        "name": "Kalarskiy Rayon",
        "stateId": "7779061",
        "latitude": 56.5,
        "longitude": 118.5
    },
    {
        "cityId": "2024124",
        "name": "Gazimuro-Zavodskiy Rayon",
        "stateId": "7779061",
        "latitude": 51.55,
        "longitude": 118.36667
    },
    {
        "cityId": "2025332",
        "name": "Chitinskiy Rayon",
        "stateId": "7779061",
        "latitude": 52,
        "longitude": 113.50024
    },
    {
        "cityId": "2025455",
        "name": "Chernyshevskiy Rayon",
        "stateId": "7779061",
        "latitude": 52.83333,
        "longitude": 117.16667
    },
    {
        "cityId": "2026128",
        "name": "Borzinskiy Rayon",
        "stateId": "7779061",
        "latitude": 50.16667,
        "longitude": 117.33333
    },
    {
        "cityId": "2027182",
        "name": "Baleyskiy Rayon",
        "stateId": "7779061",
        "latitude": 51.5,
        "longitude": 117
    },
    {
        "cityId": "2027942",
        "name": "Aleksandrovo-Zavodskiy Rayon",
        "stateId": "7779061",
        "latitude": 50.91667,
        "longitude": 117.95
    },
    {
        "cityId": "2028024",
        "name": "Akshinskiy Rayon",
        "stateId": "7779061",
        "latitude": 50.25,
        "longitude": 113.25
    },
    {
        "cityId": "2028094",
        "name": "Aginskiy Buryatskiy Okrug",
        "stateId": "7779061",
        "latitude": 51,
        "longitude": 114.5
    },
    {
        "cityId": "11205330",
        "name": "Krasnochikoyskiy rayon",
        "stateId": "7779061",
        "latitude": 50.40502,
        "longitude": 108.91846
    }
]