[
    {
        "cityId": 466214,
        "name": "Yur\u2019yev-Pol\u2019skiy Rayon",
        "stateId": 826294,
        "latitude": 56.58333,
        "longitude": 39.58333
    },
    {
        "cityId": 470665,
        "name": "Vyaznikovskiy Rayon",
        "stateId": 826294,
        "latitude": 56.25,
        "longitude": 42.16667
    },
    {
        "cityId": 473247,
        "name": "Vladimir",
        "stateId": 826294,
        "latitude": 56.13655,
        "longitude": 40.39658
    },
    {
        "cityId": 485819,
        "name": "Suzdal\u2019skiy Rayon",
        "stateId": 826294,
        "latitude": 56.08333,
        "longitude": 40.5
    },
    {
        "cityId": 486831,
        "name": "Sudogodskiy Rayon",
        "stateId": 826294,
        "latitude": 56,
        "longitude": 41
    },
    {
        "cityId": 491475,
        "name": "Sobinskiy Rayon",
        "stateId": 826294,
        "latitude": 56.16667,
        "longitude": 40
    },
    {
        "cityId": 497671,
        "name": "Selivanovskiy Rayon",
        "stateId": 826294,
        "latitude": 55.83333,
        "longitude": 41.75
    },
    {
        "cityId": 509702,
        "name": "Petushinskiy Rayon",
        "stateId": 826294,
        "latitude": 55.91667,
        "longitude": 40
    },
    {
        "cityId": 524284,
        "name": "Muromskiy Rayon",
        "stateId": 826294,
        "latitude": 55.58333,
        "longitude": 41.91667
    },
    {
        "cityId": 527732,
        "name": "Melenkovskiy Rayon",
        "stateId": 826294,
        "latitude": 55.33333,
        "longitude": 41.5
    },
    {
        "cityId": 543454,
        "name": "Kovrovskiy Rayon",
        "stateId": 826294,
        "latitude": 56.25,
        "longitude": 41.33333
    },
    {
        "cityId": 546520,
        "name": "Kol\u2019chuginskiy Rayon",
        "stateId": 826294,
        "latitude": 56.25,
        "longitude": 39.41667
    },
    {
        "cityId": 548276,
        "name": "Kirzhachskiy Rayon",
        "stateId": 826294,
        "latitude": 56.08333,
        "longitude": 38.91667
    },
    {
        "cityId": 553388,
        "name": "Kameshkovskiy Rayon",
        "stateId": 826294,
        "latitude": 56.33333,
        "longitude": 40.91667
    },
    {
        "cityId": 557774,
        "name": "Gus\u2019-Khrustal\u2019nyy Rayon",
        "stateId": 826294,
        "latitude": 55.66667,
        "longitude": 40.75
    },
    {
        "cityId": 559455,
        "name": "Gorokhovetskiy Rayon",
        "stateId": 826294,
        "latitude": 56.25,
        "longitude": 42.66667
    },
    {
        "cityId": 582996,
        "name": "Aleksandrovskiy Rayon",
        "stateId": 826294,
        "latitude": 56.41667,
        "longitude": 38.58333
    }
]