[
    {
        "cityId": "3186293",
        "name": "Grad \u017dupanja",
        "stateId": "3337529",
        "latitude": 45.07231,
        "longitude": 18.69513
    },
    {
        "cityId": "3187046",
        "name": "Grad Vukovar",
        "stateId": "3337529",
        "latitude": 45.33333,
        "longitude": 19
    },
    {
        "cityId": "3187718",
        "name": "Grad Vinkovci",
        "stateId": "3337529",
        "latitude": 45.28044,
        "longitude": 18.80482
    },
    {
        "cityId": "11054526",
        "name": "Andrija\u0161evci",
        "stateId": "3337529",
        "latitude": 45.22515,
        "longitude": 18.74053
    },
    {
        "cityId": "11054527",
        "name": "Babina Greda",
        "stateId": "3337529",
        "latitude": 45.11626,
        "longitude": 18.5381
    },
    {
        "cityId": "11054529",
        "name": "Bogdanovci",
        "stateId": "3337529",
        "latitude": 45.33723,
        "longitude": 18.9297
    },
    {
        "cityId": "11054530",
        "name": "Borovo",
        "stateId": "3337529",
        "latitude": 45.4013,
        "longitude": 18.97167
    },
    {
        "cityId": "11054531",
        "name": "Bo\u0161njaci",
        "stateId": "3337529",
        "latitude": 45.04911,
        "longitude": 18.75722
    },
    {
        "cityId": "11054533",
        "name": "Cerna",
        "stateId": "3337529",
        "latitude": 45.18874,
        "longitude": 18.68723
    },
    {
        "cityId": "11054534",
        "name": "Drenovci",
        "stateId": "3337529",
        "latitude": 44.91944,
        "longitude": 18.90284
    },
    {
        "cityId": "11054535",
        "name": "Gradi\u0161te",
        "stateId": "3337529",
        "latitude": 45.14938,
        "longitude": 18.70611
    },
    {
        "cityId": "11054536",
        "name": "Gunja",
        "stateId": "3337529",
        "latitude": 44.88711,
        "longitude": 18.8255
    },
    {
        "cityId": "11054537",
        "name": "Ilok",
        "stateId": "3337529",
        "latitude": 45.22193,
        "longitude": 19.3749
    },
    {
        "cityId": "11054538",
        "name": "Ivankovo",
        "stateId": "3337529",
        "latitude": 45.28849,
        "longitude": 18.6841
    },
    {
        "cityId": "11054539",
        "name": "Jarmina",
        "stateId": "3337529",
        "latitude": 45.31717,
        "longitude": 18.73066
    },
    {
        "cityId": "11054540",
        "name": "Lovas",
        "stateId": "3337529",
        "latitude": 45.22617,
        "longitude": 19.16801
    },
    {
        "cityId": "11054541",
        "name": "Marku\u0161ica",
        "stateId": "3337529",
        "latitude": 45.37309,
        "longitude": 18.70517
    },
    {
        "cityId": "11054542",
        "name": "Negoslavci",
        "stateId": "3337529",
        "latitude": 45.27802,
        "longitude": 18.99716
    },
    {
        "cityId": "11054543",
        "name": "Nijemci",
        "stateId": "3337529",
        "latitude": 45.13903,
        "longitude": 19.03519
    },
    {
        "cityId": "11054545",
        "name": "Nu\u0161tar",
        "stateId": "3337529",
        "latitude": 45.33217,
        "longitude": 18.84009
    },
    {
        "cityId": "11054546",
        "name": "Stari Jankovci",
        "stateId": "3337529",
        "latitude": 45.25904,
        "longitude": 18.91022
    },
    {
        "cityId": "11054547",
        "name": "Stari Mikanovci",
        "stateId": "3337529",
        "latitude": 45.28563,
        "longitude": 18.55827
    },
    {
        "cityId": "11054549",
        "name": "\u0160titar",
        "stateId": "3337529",
        "latitude": 45.09624,
        "longitude": 18.63843
    },
    {
        "cityId": "11054550",
        "name": "Tompojevci",
        "stateId": "3337529",
        "latitude": 45.23148,
        "longitude": 19.09329
    },
    {
        "cityId": "11054551",
        "name": "Tordinci",
        "stateId": "3337529",
        "latitude": 45.36965,
        "longitude": 18.79387
    },
    {
        "cityId": "11054552",
        "name": "Tovarnik",
        "stateId": "3337529",
        "latitude": 45.16375,
        "longitude": 19.15205
    },
    {
        "cityId": "11054553",
        "name": "Trpinja",
        "stateId": "3337529",
        "latitude": 45.41851,
        "longitude": 18.89953
    },
    {
        "cityId": "11054554",
        "name": "Vo\u0111inci",
        "stateId": "3337529",
        "latitude": 45.27488,
        "longitude": 18.61037
    },
    {
        "cityId": "11054556",
        "name": "Vrbanja",
        "stateId": "3337529",
        "latitude": 44.98079,
        "longitude": 18.92717
    },
    {
        "cityId": "11054955",
        "name": "Otok",
        "stateId": "3337529",
        "latitude": 45.14587,
        "longitude": 18.88331
    },
    {
        "cityId": "11072232",
        "name": "Privlaka",
        "stateId": "3337529",
        "latitude": 45.19703,
        "longitude": 18.83726
    }
]