[
    {
        "cityId": 3190938,
        "name": "Grad \u0160ibenik",
        "stateId": 3337525,
        "latitude": 43.73576,
        "longitude": 15.89602
    },
    {
        "cityId": 3201161,
        "name": "Grad Drni\u0161",
        "stateId": 3337525,
        "latitude": 43.83333,
        "longitude": 16.16667
    },
    {
        "cityId": 9076750,
        "name": "Rogoznica Op\u0107ina",
        "stateId": 3337525,
        "latitude": 43.5362,
        "longitude": 15.97086
    },
    {
        "cityId": 11054512,
        "name": "Biskupija",
        "stateId": 3337525,
        "latitude": 44.00963,
        "longitude": 16.22749
    },
    {
        "cityId": 11054513,
        "name": "Civljane",
        "stateId": 3337525,
        "latitude": 43.95184,
        "longitude": 16.40302
    },
    {
        "cityId": 11054514,
        "name": "Kijevo",
        "stateId": 3337525,
        "latitude": 43.97845,
        "longitude": 16.35796
    },
    {
        "cityId": 11054515,
        "name": "Kistanje",
        "stateId": 3337525,
        "latitude": 43.98107,
        "longitude": 15.96331
    },
    {
        "cityId": 11054516,
        "name": "Knin",
        "stateId": 3337525,
        "latitude": 44.04064,
        "longitude": 16.19668
    },
    {
        "cityId": 11054517,
        "name": "Pirovac",
        "stateId": 3337525,
        "latitude": 43.82034,
        "longitude": 15.66818
    },
    {
        "cityId": 11054518,
        "name": "Murter-Kornati",
        "stateId": 3337525,
        "latitude": 43.80959,
        "longitude": 15.60024
    },
    {
        "cityId": 11054519,
        "name": "Primo\u0161ten",
        "stateId": 3337525,
        "latitude": 43.58657,
        "longitude": 15.92541
    },
    {
        "cityId": 11054520,
        "name": "Ru\u017ei\u0107",
        "stateId": 3337525,
        "latitude": 43.8247,
        "longitude": 16.25449
    },
    {
        "cityId": 11054521,
        "name": "Skradin",
        "stateId": 3337525,
        "latitude": 43.81832,
        "longitude": 15.92468
    },
    {
        "cityId": 11054522,
        "name": "Tisno",
        "stateId": 3337525,
        "latitude": 43.79788,
        "longitude": 15.64161
    },
    {
        "cityId": 11054523,
        "name": "Tribunj",
        "stateId": 3337525,
        "latitude": 43.75642,
        "longitude": 15.74736
    },
    {
        "cityId": 11054524,
        "name": "Une\u0161i\u0107",
        "stateId": 3337525,
        "latitude": 43.74102,
        "longitude": 16.18406
    },
    {
        "cityId": 11054525,
        "name": "Vodice",
        "stateId": 3337525,
        "latitude": 43.76067,
        "longitude": 15.77907
    },
    {
        "cityId": 11054956,
        "name": "Bilice",
        "stateId": 3337525,
        "latitude": 43.78832,
        "longitude": 15.87593
    },
    {
        "cityId": 11055022,
        "name": "Ervenik",
        "stateId": 3337525,
        "latitude": 44.10749,
        "longitude": 15.94198
    },
    {
        "cityId": 11055025,
        "name": "Promina",
        "stateId": 3337525,
        "latitude": 43.95798,
        "longitude": 16.09737
    }
]