[
    {
        "cityId": 3197228,
        "name": "Grad Kri\u017eevci",
        "stateId": 3337518,
        "latitude": 46.03333,
        "longitude": 16.56667
    },
    {
        "cityId": 3197726,
        "name": "Grad Koprivnica",
        "stateId": 3337518,
        "latitude": 46.16667,
        "longitude": 16.83333
    },
    {
        "cityId": 3200960,
        "name": "Grad \u0110ur\u0111evac",
        "stateId": 3337518,
        "latitude": 46.03333,
        "longitude": 17.06667
    },
    {
        "cityId": 11049322,
        "name": "Drnje",
        "stateId": 3337518,
        "latitude": 46.20875,
        "longitude": 16.91796
    },
    {
        "cityId": 11049323,
        "name": "Ferdinandovac",
        "stateId": 3337518,
        "latitude": 46.05999,
        "longitude": 17.18897
    },
    {
        "cityId": 11049324,
        "name": "Gola",
        "stateId": 3337518,
        "latitude": 46.19756,
        "longitude": 17.05966
    },
    {
        "cityId": 11049326,
        "name": "Gornja Rijeka",
        "stateId": 3337518,
        "latitude": 46.10977,
        "longitude": 16.39079
    },
    {
        "cityId": 11049369,
        "name": "Hlebine",
        "stateId": 3337518,
        "latitude": 46.15373,
        "longitude": 16.96675
    },
    {
        "cityId": 11049370,
        "name": "Kalinovac",
        "stateId": 3337518,
        "latitude": 46.02491,
        "longitude": 17.11314
    },
    {
        "cityId": 11049372,
        "name": "Kalnik",
        "stateId": 3337518,
        "latitude": 46.1272,
        "longitude": 16.46439
    },
    {
        "cityId": 11049373,
        "name": "Klo\u0161tar Podravski",
        "stateId": 3337518,
        "latitude": 45.98339,
        "longitude": 17.15665
    },
    {
        "cityId": 11049374,
        "name": "Koprivni\u010dki Bregi",
        "stateId": 3337518,
        "latitude": 46.13321,
        "longitude": 16.90131
    },
    {
        "cityId": 11049375,
        "name": "Koprivni\u010dki Ivanec",
        "stateId": 3337518,
        "latitude": 46.19907,
        "longitude": 16.81629
    },
    {
        "cityId": 11049376,
        "name": "Legrad",
        "stateId": 3337518,
        "latitude": 46.29588,
        "longitude": 16.85492
    },
    {
        "cityId": 11049377,
        "name": "Molve",
        "stateId": 3337518,
        "latitude": 46.10602,
        "longitude": 17.03628
    },
    {
        "cityId": 11049378,
        "name": "Novigrad Podravski",
        "stateId": 3337518,
        "latitude": 46.07605,
        "longitude": 16.94959
    },
    {
        "cityId": 11049380,
        "name": "Novo Virje",
        "stateId": 3337518,
        "latitude": 46.09834,
        "longitude": 17.15215
    },
    {
        "cityId": 11049381,
        "name": "Peteranec",
        "stateId": 3337518,
        "latitude": 46.19322,
        "longitude": 16.8886
    },
    {
        "cityId": 11049383,
        "name": "Podravske Sesvete",
        "stateId": 3337518,
        "latitude": 46.00386,
        "longitude": 17.21403
    },
    {
        "cityId": 11049389,
        "name": "Rasinja",
        "stateId": 3337518,
        "latitude": 46.18318,
        "longitude": 16.70433
    },
    {
        "cityId": 11049391,
        "name": "Sokolovac",
        "stateId": 3337518,
        "latitude": 46.10428,
        "longitude": 16.70952
    },
    {
        "cityId": 11049393,
        "name": "Sveti Ivan \u017dabno",
        "stateId": 3337518,
        "latitude": 45.94526,
        "longitude": 16.60622
    },
    {
        "cityId": 11049395,
        "name": "Sveti Petar Orehovec",
        "stateId": 3337518,
        "latitude": 46.08004,
        "longitude": 16.45267
    },
    {
        "cityId": 11049397,
        "name": "Virje",
        "stateId": 3337518,
        "latitude": 46.06664,
        "longitude": 16.98675
    },
    {
        "cityId": 11055014,
        "name": "\u0110elekovec",
        "stateId": 3337518,
        "latitude": 46.24989,
        "longitude": 16.87011
    },
    {
        "cityId": 11055015,
        "name": "\u0110ur\u0111evac",
        "stateId": 3337518,
        "latitude": 46.03972,
        "longitude": 17.07168
    }
]