[
    {
        "cityId": "3600255",
        "name": "Yamaranguila",
        "stateId": "3608833",
        "latitude": 14.28333,
        "longitude": -88.25
    },
    {
        "cityId": "3601572",
        "name": "Santa Luc\u00eda",
        "stateId": "3608833",
        "latitude": 13.9,
        "longitude": -88.4
    },
    {
        "cityId": "3601857",
        "name": "San Miguelito",
        "stateId": "3608833",
        "latitude": 14.51667,
        "longitude": -88.36667
    },
    {
        "cityId": "3601886",
        "name": "San Marcos de Sierra",
        "stateId": "3608833",
        "latitude": 14.11667,
        "longitude": -88.25
    },
    {
        "cityId": "3602062",
        "name": "San Juan",
        "stateId": "3608833",
        "latitude": 14.41667,
        "longitude": -88.43333
    },
    {
        "cityId": "3602249",
        "name": "San Isidro",
        "stateId": "3608833",
        "latitude": 14.55,
        "longitude": -88.11667
    },
    {
        "cityId": "3602523",
        "name": "San Antonio",
        "stateId": "3608833",
        "latitude": 13.96667,
        "longitude": -88.46667
    },
    {
        "cityId": "3604977",
        "name": "Masaguara",
        "stateId": "3608833",
        "latitude": 14.38333,
        "longitude": -88
    },
    {
        "cityId": "3605180",
        "name": "Magdalena",
        "stateId": "3608833",
        "latitude": 13.95,
        "longitude": -88.36667
    },
    {
        "cityId": "3607973",
        "name": "La Esperanza",
        "stateId": "3608833",
        "latitude": 14.31667,
        "longitude": -88.18333
    },
    {
        "cityId": "3608716",
        "name": "Jes\u00fas de Otoro",
        "stateId": "3608833",
        "latitude": 14.5,
        "longitude": -88
    },
    {
        "cityId": "3608835",
        "name": "Intibuc\u00e1",
        "stateId": "3608833",
        "latitude": 14.43,
        "longitude": -88.17
    },
    {
        "cityId": "3612845",
        "name": "Dolores",
        "stateId": "3608833",
        "latitude": 14.25,
        "longitude": -88.33333
    },
    {
        "cityId": "3613301",
        "name": "Concepci\u00f3n",
        "stateId": "3608833",
        "latitude": 14.03333,
        "longitude": -88.33333
    },
    {
        "cityId": "3613362",
        "name": "Colomoncagua",
        "stateId": "3608833",
        "latitude": 13.95,
        "longitude": -88.26667
    },
    {
        "cityId": "3614329",
        "name": "Camasca",
        "stateId": "3608833",
        "latitude": 14,
        "longitude": -88.36667
    },
    {
        "cityId": "8062432",
        "name": "San Francisco de Opalaca",
        "stateId": "3608833",
        "latitude": 14.58441,
        "longitude": -88.30253
    }
]