[
    {
        "cityId": 3600341,
        "name": "Villa de San Antonio",
        "stateId": 3613319,
        "latitude": 14.33333,
        "longitude": -87.51667
    },
    {
        "cityId": 3601312,
        "name": "Siguatepeque",
        "stateId": 3613319,
        "latitude": 14.61667,
        "longitude": -87.83333
    },
    {
        "cityId": 3601742,
        "name": "San Sebasti\u00e1n",
        "stateId": 3613319,
        "latitude": 14.23333,
        "longitude": -87.63333
    },
    {
        "cityId": 3601943,
        "name": "San Luis",
        "stateId": 3613319,
        "latitude": 14.75,
        "longitude": -87.41667
    },
    {
        "cityId": 3602072,
        "name": "San Jos\u00e9 del Potrero",
        "stateId": 3613319,
        "latitude": 14.88333,
        "longitude": -87.3
    },
    {
        "cityId": 3602095,
        "name": "San Jos\u00e9 de Comayagua",
        "stateId": 3613319,
        "latitude": 14.71667,
        "longitude": -88
    },
    {
        "cityId": 3602208,
        "name": "San Jer\u00f3nimo",
        "stateId": 3613319,
        "latitude": 14.61667,
        "longitude": -87.6
    },
    {
        "cityId": 3604269,
        "name": "Ojos de Agua",
        "stateId": 3613319,
        "latitude": 14.75,
        "longitude": -87.66667
    },
    {
        "cityId": 3604796,
        "name": "Minas de Oro",
        "stateId": 3613319,
        "latitude": 14.79878,
        "longitude": -87.34835
    },
    {
        "cityId": 3604895,
        "name": "Me\u00e1mbar",
        "stateId": 3613319,
        "latitude": 14.81667,
        "longitude": -87.8
    },
    {
        "cityId": 3606070,
        "name": "Lejaman\u00ed",
        "stateId": 3613319,
        "latitude": 14.36,
        "longitude": -87.69
    },
    {
        "cityId": 3606192,
        "name": "La Trinidad",
        "stateId": 3613319,
        "latitude": 14.7,
        "longitude": -87.66667
    },
    {
        "cityId": 3607437,
        "name": "Laman\u00ed",
        "stateId": 3613319,
        "latitude": 14.18333,
        "longitude": -87.61667
    },
    {
        "cityId": 3607545,
        "name": "La Libertad",
        "stateId": 3613319,
        "latitude": 14.88,
        "longitude": -87.55
    },
    {
        "cityId": 3608880,
        "name": "Humuya",
        "stateId": 3613319,
        "latitude": 14.25,
        "longitude": -87.66667
    },
    {
        "cityId": 3609743,
        "name": "Esqu\u00edas",
        "stateId": 3613319,
        "latitude": 14.65,
        "longitude": -87.41
    },
    {
        "cityId": 3610389,
        "name": "El Rosario",
        "stateId": 3613319,
        "latitude": 14.575,
        "longitude": -87.74306
    },
    {
        "cityId": 3613322,
        "name": "Comayagua",
        "stateId": 3613319,
        "latitude": 14.45,
        "longitude": -87.63333
    },
    {
        "cityId": 3615280,
        "name": "Ajuterique",
        "stateId": 3613319,
        "latitude": 14.4,
        "longitude": -87.73333
    },
    {
        "cityId": 8062442,
        "name": "Las Lajas",
        "stateId": 3613319,
        "latitude": 14.9,
        "longitude": -87.58333
    },
    {
        "cityId": 8062524,
        "name": "Taulab\u00e9",
        "stateId": 3613319,
        "latitude": 14.67145,
        "longitude": -87.98693
    }
]