[
    {
        "cityId": 3131900,
        "name": "Vevelstad",
        "stateId": 3144301,
        "latitude": 65.70002,
        "longitude": 12.43921
    },
    {
        "cityId": 3132346,
        "name": "Vefsn",
        "stateId": 3144301,
        "latitude": 65.84109,
        "longitude": 13.20024
    },
    {
        "cityId": 3133044,
        "name": "V\u00e5gan",
        "stateId": 3144301,
        "latitude": 68.2322,
        "longitude": 14.56226
    },
    {
        "cityId": 3133071,
        "name": "V\u00e6r\u00f8y",
        "stateId": 3144301,
        "latitude": 67.66374,
        "longitude": 12.69337
    },
    {
        "cityId": 3133482,
        "name": "Tysfjord",
        "stateId": 3144301,
        "latitude": 68.09772,
        "longitude": 16.37591
    },
    {
        "cityId": 3134084,
        "name": "Tr\u00e6na",
        "stateId": 3144301,
        "latitude": 66.50159,
        "longitude": 12.09645
    },
    {
        "cityId": 3134549,
        "name": "Tjeldsund",
        "stateId": 3144301,
        "latitude": 68.55557,
        "longitude": 16.36172
    },
    {
        "cityId": 3137038,
        "name": "Steigen",
        "stateId": 3144301,
        "latitude": 67.77625,
        "longitude": 15.01621
    },
    {
        "cityId": 3137404,
        "name": "Sortland",
        "stateId": 3144301,
        "latitude": 68.69618,
        "longitude": 15.41174
    },
    {
        "cityId": 3137522,
        "name": "S\u00f8rfold",
        "stateId": 3144301,
        "latitude": 67.34803,
        "longitude": 15.59445
    },
    {
        "cityId": 3137700,
        "name": "S\u00f8mna",
        "stateId": 3144301,
        "latitude": 65.31379,
        "longitude": 12.16729
    },
    {
        "cityId": 3140498,
        "name": "Saltdal",
        "stateId": 3144301,
        "latitude": 67.10144,
        "longitude": 15.39458
    },
    {
        "cityId": 3141198,
        "name": "R\u00f8st",
        "stateId": 3144301,
        "latitude": 67.51727,
        "longitude": 12.11564
    },
    {
        "cityId": 3141588,
        "name": "R\u00f8d\u00f8y",
        "stateId": 3144301,
        "latitude": 66.71195,
        "longitude": 13.2853
    },
    {
        "cityId": 3143705,
        "name": "\u00d8ksnes",
        "stateId": 3144301,
        "latitude": 68.91463,
        "longitude": 15.08703
    },
    {
        "cityId": 3144660,
        "name": "Nesna",
        "stateId": 3144301,
        "latitude": 66.19796,
        "longitude": 13.02229
    },
    {
        "cityId": 3145382,
        "name": "Moskenes",
        "stateId": 3144301,
        "latitude": 67.93467,
        "longitude": 13.09109
    },
    {
        "cityId": 3146067,
        "name": "Mel\u00f8y",
        "stateId": 3144301,
        "latitude": 66.87204,
        "longitude": 13.70763
    },
    {
        "cityId": 3146743,
        "name": "Lur\u00f8y",
        "stateId": 3144301,
        "latitude": 66.41887,
        "longitude": 12.84248
    },
    {
        "cityId": 3147101,
        "name": "L\u00f8dingen",
        "stateId": 3144301,
        "latitude": 68.40998,
        "longitude": 15.99012
    },
    {
        "cityId": 3147877,
        "name": "Leirfjord",
        "stateId": 3144301,
        "latitude": 66.06348,
        "longitude": 12.93667
    },
    {
        "cityId": 3152993,
        "name": "Hemnes",
        "stateId": 3144301,
        "latitude": 66.07712,
        "longitude": 13.8135
    },
    {
        "cityId": 3153753,
        "name": "Hattfjelldal",
        "stateId": 3144301,
        "latitude": 65.59765,
        "longitude": 13.98948
    },
    {
        "cityId": 3154063,
        "name": "Hamar\u00f8y",
        "stateId": 3144301,
        "latitude": 68.08381,
        "longitude": 15.61671
    },
    {
        "cityId": 3154394,
        "name": "Hadsel",
        "stateId": 3144301,
        "latitude": 68.56328,
        "longitude": 14.90835
    },
    {
        "cityId": 3155295,
        "name": "Grane",
        "stateId": 3144301,
        "latitude": 65.53865,
        "longitude": 13.38499
    },
    {
        "cityId": 3155849,
        "name": "Gildesk\u00e5l",
        "stateId": 3144301,
        "latitude": 67.03394,
        "longitude": 14.02582
    },
    {
        "cityId": 3157197,
        "name": "Flakstad",
        "stateId": 3144301,
        "latitude": 68.09292,
        "longitude": 13.2331
    },
    {
        "cityId": 3157780,
        "name": "Fauske",
        "stateId": 3144301,
        "latitude": 67.25963,
        "longitude": 15.3941
    },
    {
        "cityId": 3158002,
        "name": "Evenes",
        "stateId": 3144301,
        "latitude": 68.52334,
        "longitude": 17.00888
    },
    {
        "cityId": 3159094,
        "name": "D\u00f8nna",
        "stateId": 3144301,
        "latitude": 66.10606,
        "longitude": 12.48189
    },
    {
        "cityId": 3159955,
        "name": "Br\u00f8nn\u00f8y",
        "stateId": 3144301,
        "latitude": 65.46786,
        "longitude": 12.20626
    },
    {
        "cityId": 3161552,
        "name": "Bindal",
        "stateId": 3144301,
        "latitude": 65.0878,
        "longitude": 12.37747
    },
    {
        "cityId": 3161943,
        "name": "Beiarn",
        "stateId": 3144301,
        "latitude": 67.00725,
        "longitude": 14.57304
    },
    {
        "cityId": 3162107,
        "name": "Ballangen",
        "stateId": 3144301,
        "latitude": 68.34365,
        "longitude": 16.83317
    },
    {
        "cityId": 3163293,
        "name": "Alstahaug",
        "stateId": 3144301,
        "latitude": 65.97556,
        "longitude": 12.56836
    },
    {
        "cityId": 6453318,
        "name": "And\u00f8y",
        "stateId": 3144301,
        "latitude": 69.08033,
        "longitude": 15.77637
    },
    {
        "cityId": 6453320,
        "name": "B\u00f8",
        "stateId": 3144301,
        "latitude": 68.68823,
        "longitude": 14.47899
    },
    {
        "cityId": 6453321,
        "name": "Narvik",
        "stateId": 3144301,
        "latitude": 68.43896,
        "longitude": 17.42775
    },
    {
        "cityId": 6453322,
        "name": "Vestv\u00e5g\u00f8y",
        "stateId": 3144301,
        "latitude": 68.1483,
        "longitude": 13.61119
    },
    {
        "cityId": 6453323,
        "name": "Bod\u00f8",
        "stateId": 3144301,
        "latitude": 67.28325,
        "longitude": 14.38319
    },
    {
        "cityId": 6453324,
        "name": "Rana",
        "stateId": 3144301,
        "latitude": 66.31122,
        "longitude": 14.13996
    },
    {
        "cityId": 6453325,
        "name": "Her\u00f8y",
        "stateId": 3144301,
        "latitude": 65.98427,
        "longitude": 12.28916
    },
    {
        "cityId": 6453326,
        "name": "Vega",
        "stateId": 3144301,
        "latitude": 65.67539,
        "longitude": 11.96456
    }
]