[
    {
        "cityId": 11352645,
        "name": "Strazdes pagasts",
        "stateId": 454968,
        "latitude": 57.13973,
        "longitude": 22.7567
    },
    {
        "cityId": 11352768,
        "name": "Talsi",
        "stateId": 454968,
        "latitude": 57.24516,
        "longitude": 22.58604
    },
    {
        "cityId": 11352785,
        "name": "Valdem\u0101rpils",
        "stateId": 454968,
        "latitude": 57.36913,
        "longitude": 22.59312
    },
    {
        "cityId": 11352905,
        "name": "\u012aves pagasts",
        "stateId": 454968,
        "latitude": 57.43648,
        "longitude": 22.52049
    },
    {
        "cityId": 11352926,
        "name": "Abavas pagasts",
        "stateId": 454968,
        "latitude": 57.06295,
        "longitude": 22.515
    },
    {
        "cityId": 11352927,
        "name": "\u0100rlavas pagasts",
        "stateId": 454968,
        "latitude": 57.38197,
        "longitude": 22.67522
    },
    {
        "cityId": 11352928,
        "name": "Balgales pagasts",
        "stateId": 454968,
        "latitude": 57.18241,
        "longitude": 22.87518
    },
    {
        "cityId": 11352930,
        "name": "\u0122ibu\u013cu pagasts",
        "stateId": 454968,
        "latitude": 57.20794,
        "longitude": 22.37697
    },
    {
        "cityId": 11352931,
        "name": "\u0136\u016b\u013cciema pagasts",
        "stateId": 454968,
        "latitude": 57.24931,
        "longitude": 23.01518
    },
    {
        "cityId": 11352932,
        "name": "Laidzes pagasts",
        "stateId": 454968,
        "latitude": 57.29342,
        "longitude": 22.63844
    },
    {
        "cityId": 11352933,
        "name": "Laucienes pagasts",
        "stateId": 454968,
        "latitude": 57.2437,
        "longitude": 22.82938
    },
    {
        "cityId": 11352935,
        "name": "L\u012bbagu pagasts",
        "stateId": 454968,
        "latitude": 57.17616,
        "longitude": 22.56355
    },
    {
        "cityId": 11352936,
        "name": "Lubes pagasts",
        "stateId": 454968,
        "latitude": 57.45003,
        "longitude": 22.64174
    },
    {
        "cityId": 11352937,
        "name": "Sabile",
        "stateId": 454968,
        "latitude": 57.04756,
        "longitude": 22.57147
    },
    {
        "cityId": 11352938,
        "name": "Stende",
        "stateId": 454968,
        "latitude": 57.14242,
        "longitude": 22.53836
    },
    {
        "cityId": 11352939,
        "name": "Valdgales pagasts",
        "stateId": 454968,
        "latitude": 57.35165,
        "longitude": 22.40754
    },
    {
        "cityId": 11352942,
        "name": "Vandzenes pagasts",
        "stateId": 454968,
        "latitude": 57.33619,
        "longitude": 22.82518
    },
    {
        "cityId": 11352943,
        "name": "Virbu pagasts",
        "stateId": 454968,
        "latitude": 57.12958,
        "longitude": 22.63177
    }
]