[
    {
        "cityId": 11352752,
        "name": "Aronas pagasts",
        "stateId": 457712,
        "latitude": 56.90622,
        "longitude": 26.09668
    },
    {
        "cityId": 11352753,
        "name": "Barkavas pagasts",
        "stateId": 457712,
        "latitude": 56.73201,
        "longitude": 26.59275
    },
    {
        "cityId": 11352754,
        "name": "B\u0113rzaunes pagasts",
        "stateId": 457712,
        "latitude": 56.83016,
        "longitude": 25.98727
    },
    {
        "cityId": 11352755,
        "name": "Dzelzavas pagasts",
        "stateId": 457712,
        "latitude": 56.99374,
        "longitude": 26.47403
    },
    {
        "cityId": 11352756,
        "name": "Kalsnavas pagasts",
        "stateId": 457712,
        "latitude": 56.73111,
        "longitude": 25.93796
    },
    {
        "cityId": 11352757,
        "name": "\u013baudonas pagasts",
        "stateId": 457712,
        "latitude": 56.692,
        "longitude": 26.16577
    },
    {
        "cityId": 11352758,
        "name": "Lazdonas pagasts",
        "stateId": 457712,
        "latitude": 56.82441,
        "longitude": 26.19215
    },
    {
        "cityId": 11352760,
        "name": "Sarka\u0146u pagasts",
        "stateId": 457712,
        "latitude": 56.90591,
        "longitude": 26.35701
    },
    {
        "cityId": 11352761,
        "name": "Liez\u0113res pagasts",
        "stateId": 457712,
        "latitude": 57.01881,
        "longitude": 26.03577
    },
    {
        "cityId": 11352762,
        "name": "Madona",
        "stateId": 457712,
        "latitude": 56.85458,
        "longitude": 26.22387
    },
    {
        "cityId": 11352763,
        "name": "M\u0101rcienas pagasts",
        "stateId": 457712,
        "latitude": 56.77373,
        "longitude": 26.10154
    },
    {
        "cityId": 11352764,
        "name": "M\u0113trienas pagasts",
        "stateId": 457712,
        "latitude": 56.6857,
        "longitude": 26.35603
    },
    {
        "cityId": 11352766,
        "name": "O\u0161upes pagasts",
        "stateId": 457712,
        "latitude": 56.81609,
        "longitude": 26.76969
    },
    {
        "cityId": 11352767,
        "name": "Praulienas pagasts",
        "stateId": 457712,
        "latitude": 56.80941,
        "longitude": 26.36949
    },
    {
        "cityId": 11352769,
        "name": "Vestienas pagasts",
        "stateId": 457712,
        "latitude": 56.86622,
        "longitude": 25.849
    }
]