[
    {
        "cityId": "11352549",
        "name": "Kalnciema pagasts",
        "stateId": "459278",
        "latitude": 56.78718,
        "longitude": 23.60223
    },
    {
        "cityId": "11352640",
        "name": "Elejas pagasts",
        "stateId": "459278",
        "latitude": 56.41958,
        "longitude": 23.70162
    },
    {
        "cityId": "11352641",
        "name": "Gl\u016bdas pagasts",
        "stateId": "459278",
        "latitude": 56.61529,
        "longitude": 23.54
    },
    {
        "cityId": "11352642",
        "name": "Jaunsvirlaukas pagasts",
        "stateId": "459278",
        "latitude": 56.57013,
        "longitude": 23.89188
    },
    {
        "cityId": "11352643",
        "name": "Lielplatones pagasts",
        "stateId": "459278",
        "latitude": 56.45143,
        "longitude": 23.6406
    },
    {
        "cityId": "11352644",
        "name": "L\u012bvb\u0113rzes pagasts",
        "stateId": "459278",
        "latitude": 56.70669,
        "longitude": 23.56267
    },
    {
        "cityId": "11352647",
        "name": "Platones pagasts",
        "stateId": "459278",
        "latitude": 56.53753,
        "longitude": 23.70732
    },
    {
        "cityId": "11352648",
        "name": "Sesavas pagasts",
        "stateId": "459278",
        "latitude": 56.40372,
        "longitude": 23.79907
    },
    {
        "cityId": "11352649",
        "name": "Sv\u0113tes pagasts",
        "stateId": "459278",
        "latitude": 56.56036,
        "longitude": 23.62378
    },
    {
        "cityId": "11352650",
        "name": "Valgundes pagasts",
        "stateId": "459278",
        "latitude": 56.81372,
        "longitude": 23.62601
    },
    {
        "cityId": "11352651",
        "name": "Vilces pagasts",
        "stateId": "459278",
        "latitude": 56.39306,
        "longitude": 23.5268
    },
    {
        "cityId": "11352652",
        "name": "Vircavas pagasts",
        "stateId": "459278",
        "latitude": 56.5232,
        "longitude": 23.82912
    },
    {
        "cityId": "11352654",
        "name": "Za\u013cenieku pagasts",
        "stateId": "459278",
        "latitude": 56.50807,
        "longitude": 23.51205
    }
]