[
    {
        "cityId": 11352530,
        "name": "Andrupenes pagasts",
        "stateId": 7628350,
        "latitude": 56.14773,
        "longitude": 27.36947
    },
    {
        "cityId": 11352532,
        "name": "Andze\u013cu pagasts",
        "stateId": 7628350,
        "latitude": 56.18776,
        "longitude": 27.52683
    },
    {
        "cityId": 11352534,
        "name": "As\u016bnes pagasts",
        "stateId": 7628350,
        "latitude": 56.03447,
        "longitude": 27.59734
    },
    {
        "cityId": 11352535,
        "name": "B\u0113rzi\u0146u pagasts",
        "stateId": 7628350,
        "latitude": 56.08287,
        "longitude": 27.84688
    },
    {
        "cityId": 11352536,
        "name": "Dagda",
        "stateId": 7628350,
        "latitude": 56.09706,
        "longitude": 27.53189
    },
    {
        "cityId": 11352538,
        "name": "Dagdas pagasts",
        "stateId": 7628350,
        "latitude": 56.09941,
        "longitude": 27.55178
    },
    {
        "cityId": 11352539,
        "name": "Ezernieku pagasts",
        "stateId": 7628350,
        "latitude": 56.18055,
        "longitude": 27.67617
    },
    {
        "cityId": 11352540,
        "name": "\u0136epovas pagasts",
        "stateId": 7628350,
        "latitude": 56.01374,
        "longitude": 27.75046
    },
    {
        "cityId": 11352541,
        "name": "Konstantinovas pagasts",
        "stateId": 7628350,
        "latitude": 56.06895,
        "longitude": 27.429
    },
    {
        "cityId": 11352542,
        "name": "\u0160\u0137aunes pagasts",
        "stateId": 7628350,
        "latitude": 56.16254,
        "longitude": 27.94977
    },
    {
        "cityId": 11352543,
        "name": "Svari\u0146u pagasts",
        "stateId": 7628350,
        "latitude": 56.10215,
        "longitude": 27.71845
    }
]