[
    {
        "cityId": 11352689,
        "name": "K\u016bku pagasts",
        "stateId": 7628355,
        "latitude": 56.5191,
        "longitude": 26.01993
    },
    {
        "cityId": 11352705,
        "name": "Ata\u0161ienes pagasts",
        "stateId": 7628355,
        "latitude": 56.54548,
        "longitude": 26.45208
    },
    {
        "cityId": 11352706,
        "name": "Krustpils pagasts",
        "stateId": 7628355,
        "latitude": 56.56856,
        "longitude": 25.82775
    },
    {
        "cityId": 11352707,
        "name": "Me\u017e\u0101res pagasts",
        "stateId": 7628355,
        "latitude": 56.55556,
        "longitude": 26.22082
    },
    {
        "cityId": 11352710,
        "name": "Varie\u0161u pagasts",
        "stateId": 7628355,
        "latitude": 56.60328,
        "longitude": 26.01515
    },
    {
        "cityId": 11352711,
        "name": "V\u012bpes pagasts",
        "stateId": 7628355,
        "latitude": 56.46962,
        "longitude": 26.11702
    }
]