[
    {
        "cityId": 7647177,
        "name": "Nadowli",
        "stateId": 2294286,
        "latitude": 10.34104,
        "longitude": -2.38136
    },
    {
        "cityId": 7647179,
        "name": "Sissala West",
        "stateId": 2294286,
        "latitude": 10.70514,
        "longitude": -2.108
    },
    {
        "cityId": 7647181,
        "name": "Wa East",
        "stateId": 2294286,
        "latitude": 9.92933,
        "longitude": -1.86848
    },
    {
        "cityId": 7647182,
        "name": "Wa West",
        "stateId": 2294286,
        "latitude": 9.96559,
        "longitude": -2.63098
    },
    {
        "cityId": 7647380,
        "name": "Sissala East",
        "stateId": 2294286,
        "latitude": 10.70489,
        "longitude": -1.75388
    },
    {
        "cityId": 7647381,
        "name": "Jirapa Lambussie",
        "stateId": 2294286,
        "latitude": 10.71025,
        "longitude": -2.58332
    },
    {
        "cityId": 7647392,
        "name": "Lawra",
        "stateId": 2294286,
        "latitude": 10.72454,
        "longitude": -2.79977
    },
    {
        "cityId": 7647393,
        "name": "Jirapa",
        "stateId": 2294286,
        "latitude": 10.53333,
        "longitude": -2.7
    },
    {
        "cityId": 7647658,
        "name": "Lambussie Karni",
        "stateId": 2294286,
        "latitude": 10.83333,
        "longitude": -2.7
    },
    {
        "cityId": 7649063,
        "name": "Wa",
        "stateId": 2294286,
        "latitude": 10.05,
        "longitude": -2.48333
    },
    {
        "cityId": 10303481,
        "name": "Daffiama Bussie Issa District",
        "stateId": 2294286,
        "latitude": 10.39158,
        "longitude": -2.33412
    }
]