[
    {
        "cityId": "7647527",
        "name": "Ellembelle",
        "stateId": "2294076",
        "latitude": 4.96389,
        "longitude": -2.32222
    },
    {
        "cityId": "7648932",
        "name": "Ahanta West",
        "stateId": "2294076",
        "latitude": 4.84952,
        "longitude": -2.00979
    },
    {
        "cityId": "7648941",
        "name": "Aowin\/Suaman",
        "stateId": "2294076",
        "latitude": 5.81667,
        "longitude": -2.81667
    },
    {
        "cityId": "7648959",
        "name": "Bia",
        "stateId": "2294076",
        "latitude": 6.73664,
        "longitude": -3.04404
    },
    {
        "cityId": "7648962",
        "name": "Bibiani\/Ahwiaso\/Bekwai",
        "stateId": "2294076",
        "latitude": 6.46667,
        "longitude": -2.33333
    },
    {
        "cityId": "7648989",
        "name": "Jomoro",
        "stateId": "2294076",
        "latitude": 5.133,
        "longitude": -2.62
    },
    {
        "cityId": "7648990",
        "name": "Juaboso",
        "stateId": "2294076",
        "latitude": 6.33333,
        "longitude": -2.83333
    },
    {
        "cityId": "7649014",
        "name": "Mpohor\/Wassa East",
        "stateId": "2294076",
        "latitude": 5.13333,
        "longitude": -1.65
    },
    {
        "cityId": "7649021",
        "name": "Nzema East",
        "stateId": "2294076",
        "latitude": 5.124,
        "longitude": -2.299
    },
    {
        "cityId": "7649028",
        "name": "Prestea-Huni Valley",
        "stateId": "2294076",
        "latitude": 5.56667,
        "longitude": -2.01667
    },
    {
        "cityId": "7649030",
        "name": "Secondi Takoradi",
        "stateId": "2294076",
        "latitude": 4.93473,
        "longitude": -1.71378
    },
    {
        "cityId": "7649031",
        "name": "Sefwi Akontobra",
        "stateId": "2294076",
        "latitude": 6.04183,
        "longitude": -2.87517
    },
    {
        "cityId": "7649032",
        "name": "Sefwi-Wiawso",
        "stateId": "2294076",
        "latitude": 6.2,
        "longitude": -2.48333
    },
    {
        "cityId": "7649040",
        "name": "Shama new",
        "stateId": "2294076",
        "latitude": 5.01667,
        "longitude": -1.63333
    },
    {
        "cityId": "7649054",
        "name": "Tarkwa Nsuaem",
        "stateId": "2294076",
        "latitude": 5.3,
        "longitude": -1.98333
    },
    {
        "cityId": "7649064",
        "name": "Wassa Amenfi East",
        "stateId": "2294076",
        "latitude": 5.79755,
        "longitude": -2.00958
    },
    {
        "cityId": "7649065",
        "name": "Wassa Amenfi West",
        "stateId": "2294076",
        "latitude": 5.8,
        "longitude": -2.43333
    },
    {
        "cityId": "8260280",
        "name": "Wassa West",
        "stateId": "2294076",
        "latitude": 5.32,
        "longitude": -1.98
    },
    {
        "cityId": "9166073",
        "name": "Shama Ahanta East Metropolitan District",
        "stateId": "2294076",
        "latitude": 4.91667,
        "longitude": -1.76667
    }
]