[
    {
        "cityId": "3588255",
        "name": "Municipio de Totonicap\u00e1n",
        "stateId": "3588257",
        "latitude": 14.91667,
        "longitude": -91.36667
    },
    {
        "cityId": "3589255",
        "name": "Municipio de Santa Mar\u00eda Chiquimula",
        "stateId": "3588257",
        "latitude": 15.02886,
        "longitude": -91.32917
    },
    {
        "cityId": "3589286",
        "name": "Municipio de Santa Luc\u00eda La Reforma",
        "stateId": "3588257",
        "latitude": 15.1503,
        "longitude": -91.2785
    },
    {
        "cityId": "3590218",
        "name": "Municipio de San Francisco El Alto",
        "stateId": "3588257",
        "latitude": 14.95,
        "longitude": -91.45
    },
    {
        "cityId": "3590317",
        "name": "Municipio de San Crist\u00f3bal Totonicap\u00e1n",
        "stateId": "3588257",
        "latitude": 14.91667,
        "longitude": -91.43333
    },
    {
        "cityId": "3590397",
        "name": "Municipio de San Bartolo",
        "stateId": "3588257",
        "latitude": 15.13333,
        "longitude": -91.41667
    },
    {
        "cityId": "3590519",
        "name": "Municipio de San Andr\u00e9s Xecul",
        "stateId": "3588257",
        "latitude": 14.9,
        "longitude": -91.48333
    },
    {
        "cityId": "3592482",
        "name": "Municipio de Momostenango",
        "stateId": "3588257",
        "latitude": 15.04726,
        "longitude": -91.40625
    }
]