[
    {
        "cityId": "3589399",
        "name": "Municipio de Santa Cruz Mulu\u00e1",
        "stateId": "3590857",
        "latitude": 14.58333,
        "longitude": -91.61667
    },
    {
        "cityId": "3589545",
        "name": "Municipio de San Sebasti\u00e1n",
        "stateId": "3590857",
        "latitude": 14.56667,
        "longitude": -91.65
    },
    {
        "cityId": "3589775",
        "name": "Municipio de San Mart\u00edn Zapotitl\u00e1n",
        "stateId": "3590857",
        "latitude": 14.61282,
        "longitude": -91.59388
    },
    {
        "cityId": "3590281",
        "name": "Municipio de San Felipe",
        "stateId": "3590857",
        "latitude": 14.63009,
        "longitude": -91.60261
    },
    {
        "cityId": "3590521",
        "name": "Municipio de San Andr\u00e9s Villa Seca",
        "stateId": "3590857",
        "latitude": 14.56667,
        "longitude": -91.58333
    },
    {
        "cityId": "3590856",
        "name": "Municipio de Retalhuleu",
        "stateId": "3590857",
        "latitude": 14.53386,
        "longitude": -91.68623
    },
    {
        "cityId": "3592104",
        "name": "Municipio de Nuevo San Carlos",
        "stateId": "3590857",
        "latitude": 14.6,
        "longitude": -91.7
    },
    {
        "cityId": "3597586",
        "name": "Municipio de El Asintal",
        "stateId": "3590857",
        "latitude": 14.6,
        "longitude": -91.73333
    },
    {
        "cityId": "3598786",
        "name": "Municipio de Champerico",
        "stateId": "3590857",
        "latitude": 14.3,
        "longitude": -91.91667
    }
]