[
    {
        "cityId": "3588652",
        "name": "Municipio de Sumpango",
        "stateId": "3590686",
        "latitude": 14.65,
        "longitude": -90.73333
    },
    {
        "cityId": "3589071",
        "name": "Municipio de Santo Domingo Xenacoj",
        "stateId": "3590686",
        "latitude": 14.68333,
        "longitude": -90.7
    },
    {
        "cityId": "3589100",
        "name": "Municipio de Santiago Sacatep\u00e9quez",
        "stateId": "3590686",
        "latitude": 14.63333,
        "longitude": -90.68333
    },
    {
        "cityId": "3589251",
        "name": "Municipio de Santa Mar\u00eda de Jes\u00fas",
        "stateId": "3590686",
        "latitude": 14.5,
        "longitude": -90.71667
    },
    {
        "cityId": "3589284",
        "name": "Municipio de Santa Luc\u00eda Milpas Altas",
        "stateId": "3590686",
        "latitude": 14.56753,
        "longitude": -90.67551
    },
    {
        "cityId": "3589459",
        "name": "Municipio de Santa Catarina Barahona",
        "stateId": "3590686",
        "latitude": 14.55,
        "longitude": -90.78333
    },
    {
        "cityId": "3589726",
        "name": "Municipio de San Miguel Due\u00f1as",
        "stateId": "3590686",
        "latitude": 14.51667,
        "longitude": -90.8
    },
    {
        "cityId": "3589851",
        "name": "Municipio de San Lucas Sacatep\u00e9quez",
        "stateId": "3590686",
        "latitude": 14.61667,
        "longitude": -90.66667
    },
    {
        "cityId": "3590392",
        "name": "Municipio de San Bartolom\u00e9 Milpas Altas",
        "stateId": "3590686",
        "latitude": 14.6,
        "longitude": -90.68333
    },
    {
        "cityId": "3590474",
        "name": "Municipio de San Antonio Aguas Calientes",
        "stateId": "3590686",
        "latitude": 14.5526,
        "longitude": -90.78224
    },
    {
        "cityId": "3591573",
        "name": "Municipio de Pastores",
        "stateId": "3590686",
        "latitude": 14.6,
        "longitude": -90.75
    },
    {
        "cityId": "3592769",
        "name": "Municipio de Magdalena Milpas Altas",
        "stateId": "3590686",
        "latitude": 14.55,
        "longitude": -90.68333
    },
    {
        "cityId": "3595170",
        "name": "Municipio de Jocotenango",
        "stateId": "3590686",
        "latitude": 14.58333,
        "longitude": -90.73333
    },
    {
        "cityId": "3598127",
        "name": "Municipio de Ciudad Vieja",
        "stateId": "3590686",
        "latitude": 14.51667,
        "longitude": -90.76667
    },
    {
        "cityId": "3599698",
        "name": "Municipio de Antigua",
        "stateId": "3590686",
        "latitude": 14.56667,
        "longitude": -90.73333
    },
    {
        "cityId": "3599786",
        "name": "Municipio de Alotenango",
        "stateId": "3590686",
        "latitude": 14.48333,
        "longitude": -90.8
    }
]