[
    {
        "cityId": 3589553,
        "name": "Municipio de Sansare",
        "stateId": 3596416,
        "latitude": 14.75,
        "longitude": -90.11667
    },
    {
        "cityId": 3590324,
        "name": "Municipio de San Crist\u00f3bal Acasaguastl\u00e1n",
        "stateId": 3596416,
        "latitude": 14.91667,
        "longitude": -89.88333
    },
    {
        "cityId": 3590405,
        "name": "Municipio de Sanarate",
        "stateId": 3596416,
        "latitude": 14.78333,
        "longitude": -90.2
    },
    {
        "cityId": 3590447,
        "name": "Municipio de San Antonio La Paz",
        "stateId": 3596416,
        "latitude": 14.75,
        "longitude": -90.28333
    },
    {
        "cityId": 3590546,
        "name": "Municipio de San Agust\u00edn Acasaguastl\u00e1n",
        "stateId": 3596416,
        "latitude": 14.95,
        "longitude": -89.96667
    },
    {
        "cityId": 3592348,
        "name": "Municipio de Moraz\u00e1n",
        "stateId": 3596416,
        "latitude": 14.93333,
        "longitude": -90.15
    },
    {
        "cityId": 3596410,
        "name": "Municipio de El Progreso",
        "stateId": 3596416,
        "latitude": 14.85,
        "longitude": -90.06667
    },
    {
        "cityId": 3596938,
        "name": "Municipio de El J\u00edcaro",
        "stateId": 3596416,
        "latitude": 14.88752,
        "longitude": -89.91598
    },
    {
        "cityId": 9253734,
        "name": "San Cristobal Acasguastlan",
        "stateId": 3596416,
        "latitude": 15.00304,
        "longitude": -89.8728
    },
    {
        "cityId": 9253768,
        "name": "Municipio de Guastatoya",
        "stateId": 3596416,
        "latitude": 14.85043,
        "longitude": -90.06359
    }
]