[
    {
        "cityId": "3587541",
        "name": "Municipio de Zaragoza",
        "stateId": "3598571",
        "latitude": 14.65,
        "longitude": -90.88333
    },
    {
        "cityId": "3587635",
        "name": "Municipio de Yepocapa",
        "stateId": "3598571",
        "latitude": 14.5,
        "longitude": -90.95
    },
    {
        "cityId": "3588475",
        "name": "Municipio de Tecp\u00e1n Guatemala",
        "stateId": "3598571",
        "latitude": 14.76667,
        "longitude": -91
    },
    {
        "cityId": "3589407",
        "name": "Municipio de Santa Cruz Balany\u00e1",
        "stateId": "3598571",
        "latitude": 14.68333,
        "longitude": -90.91667
    },
    {
        "cityId": "3589479",
        "name": "Municipio de Santa Apolonia",
        "stateId": "3598571",
        "latitude": 14.78333,
        "longitude": -90.96667
    },
    {
        "cityId": "3589779",
        "name": "Municipio de San Mart\u00edn Jilotepeque",
        "stateId": "3598571",
        "latitude": 14.78333,
        "longitude": -90.78333
    },
    {
        "cityId": "3589974",
        "name": "Municipio de San Jos\u00e9 Poaquil",
        "stateId": "3598571",
        "latitude": 14.81667,
        "longitude": -90.91667
    },
    {
        "cityId": "3590528",
        "name": "Municipio de San Andr\u00e9s Itzapa",
        "stateId": "3598571",
        "latitude": 14.61667,
        "longitude": -90.85
    },
    {
        "cityId": "3591209",
        "name": "Municipio de Pochuta",
        "stateId": "3598571",
        "latitude": 14.55,
        "longitude": -91.08333
    },
    {
        "cityId": "3591511",
        "name": "Municipio de Patz\u00fan",
        "stateId": "3598571",
        "latitude": 14.64616,
        "longitude": -91.03436
    },
    {
        "cityId": "3591521",
        "name": "Municipio de Patzic\u00eda",
        "stateId": "3598571",
        "latitude": 14.63333,
        "longitude": -90.93333
    },
    {
        "cityId": "3591628",
        "name": "Municipio de Parramos",
        "stateId": "3598571",
        "latitude": 14.61667,
        "longitude": -90.8
    },
    {
        "cityId": "3596040",
        "name": "Municipio de El Tejar",
        "stateId": "3598571",
        "latitude": 14.65,
        "longitude": -90.78333
    },
    {
        "cityId": "3598032",
        "name": "Municipio de San Juan Comalapa",
        "stateId": "3598571",
        "latitude": 14.73333,
        "longitude": -90.88333
    },
    {
        "cityId": "3598570",
        "name": "Municipio de Chimaltenango",
        "stateId": "3598571",
        "latitude": 14.66667,
        "longitude": -90.81667
    },
    {
        "cityId": "3600007",
        "name": "Municipio de Acatenango",
        "stateId": "3598571",
        "latitude": 14.55,
        "longitude": -90.95
    },
    {
        "cityId": "9253822",
        "name": "San Juan Comalapa",
        "stateId": "3598571",
        "latitude": 14.73333,
        "longitude": -90.88333
    }
]