[
    {
        "cityId": 3589902,
        "name": "Municipio de San Juan Ermita",
        "stateId": 3598464,
        "latitude": 14.76667,
        "longitude": -89.43333
    },
    {
        "cityId": 3590016,
        "name": "Municipio de San Jos\u00e9 La Arada",
        "stateId": 3598464,
        "latitude": 14.71667,
        "longitude": -89.58333
    },
    {
        "cityId": 3590124,
        "name": "Municipio de San Jacinto",
        "stateId": 3598464,
        "latitude": 14.66667,
        "longitude": -89.5
    },
    {
        "cityId": 3590972,
        "name": "Municipio de Quezaltepeque",
        "stateId": 3598464,
        "latitude": 14.63333,
        "longitude": -89.45
    },
    {
        "cityId": 3592034,
        "name": "Municipio de Olopa",
        "stateId": 3598464,
        "latitude": 14.68333,
        "longitude": -89.35
    },
    {
        "cityId": 3595180,
        "name": "Municipio de Jocot\u00e1n",
        "stateId": 3598464,
        "latitude": 14.81667,
        "longitude": -89.38333
    },
    {
        "cityId": 3595363,
        "name": "Municipio de Ipala",
        "stateId": 3598464,
        "latitude": 14.61667,
        "longitude": -89.61667
    },
    {
        "cityId": 3595780,
        "name": "Municipio de Esquipulas",
        "stateId": 3598464,
        "latitude": 14.56667,
        "longitude": -89.35
    },
    {
        "cityId": 3597984,
        "name": "Municipio de Concepci\u00f3n Las Minas",
        "stateId": 3598464,
        "latitude": 14.51667,
        "longitude": -89.45
    },
    {
        "cityId": 3598463,
        "name": "Municipio de Chiquimula",
        "stateId": 3598464,
        "latitude": 14.8,
        "longitude": -89.55
    },
    {
        "cityId": 3599180,
        "name": "Municipio de Camot\u00e1n",
        "stateId": 3598464,
        "latitude": 14.81667,
        "longitude": -89.36667
    }
]