[
    {
        "cityId": 3455679,
        "name": "Ouro Fino",
        "stateId": 3457153,
        "latitude": -22.25689,
        "longitude": -46.37384
    },
    {
        "cityId": 3457775,
        "name": "Mar de Espanha",
        "stateId": 3457153,
        "latitude": -21.87597,
        "longitude": -43.02192
    },
    {
        "cityId": 3459504,
        "name": "Juiz de Fora",
        "stateId": 3457153,
        "latitude": -21.74896,
        "longitude": -43.43817
    },
    {
        "cityId": 3465744,
        "name": "Concei\u00e7\u00e3o do Mato Dentro",
        "stateId": 3457153,
        "latitude": -18.9001,
        "longitude": -43.50229
    },
    {
        "cityId": 6319092,
        "name": "Al\u00e9m Para\u00edba",
        "stateId": 3457153,
        "latitude": -21.80936,
        "longitude": -42.7574
    },
    {
        "cityId": 6319093,
        "name": "Ara\u00e7a\u00ed",
        "stateId": 3457153,
        "latitude": -19.242,
        "longitude": -44.22429
    },
    {
        "cityId": 6319094,
        "name": "Consola\u00e7\u00e3o",
        "stateId": 3457153,
        "latitude": -22.54002,
        "longitude": -45.90414
    },
    {
        "cityId": 6319095,
        "name": "Guidoval",
        "stateId": 3457153,
        "latitude": -21.17678,
        "longitude": -42.79015
    },
    {
        "cityId": 6319096,
        "name": "Guimar\u00e2nia",
        "stateId": 3457153,
        "latitude": -18.81689,
        "longitude": -46.73553
    },
    {
        "cityId": 6321101,
        "name": "Abadia dos Dourados",
        "stateId": 3457153,
        "latitude": -18.36347,
        "longitude": -47.46997
    },
    {
        "cityId": 6321102,
        "name": "Abaet\u00e9",
        "stateId": 3457153,
        "latitude": -19.11099,
        "longitude": -45.43051
    },
    {
        "cityId": 6321103,
        "name": "Abre Campo",
        "stateId": 3457153,
        "latitude": -20.27265,
        "longitude": -42.43908
    },
    {
        "cityId": 6321104,
        "name": "Acaiaca",
        "stateId": 3457153,
        "latitude": -20.4036,
        "longitude": -43.10077
    },
    {
        "cityId": 6321105,
        "name": "A\u00e7ucena",
        "stateId": 3457153,
        "latitude": -19.03008,
        "longitude": -42.41105
    },
    {
        "cityId": 6321108,
        "name": "Aguanil",
        "stateId": 3457153,
        "latitude": -20.96959,
        "longitude": -45.41717
    },
    {
        "cityId": 6321109,
        "name": "\u00c1guas Formosas",
        "stateId": 3457153,
        "latitude": -17.04848,
        "longitude": -40.97266
    },
    {
        "cityId": 6321110,
        "name": "\u00c1guas Vermelhas",
        "stateId": 3457153,
        "latitude": -15.68676,
        "longitude": -41.56041
    },
    {
        "cityId": 6321111,
        "name": "Aimor\u00e9s",
        "stateId": 3457153,
        "latitude": -19.62552,
        "longitude": -41.20955
    },
    {
        "cityId": 6321112,
        "name": "Aiuruoca",
        "stateId": 3457153,
        "latitude": -21.94703,
        "longitude": -44.64779
    },
    {
        "cityId": 6321113,
        "name": "Alagoa",
        "stateId": 3457153,
        "latitude": -22.18147,
        "longitude": -44.66024
    },
    {
        "cityId": 6321114,
        "name": "Albertina",
        "stateId": 3457153,
        "latitude": -22.19908,
        "longitude": -46.62076
    },
    {
        "cityId": 6321115,
        "name": "Alfenas",
        "stateId": 3457153,
        "latitude": -21.39287,
        "longitude": -45.99521
    },
    {
        "cityId": 6321116,
        "name": "Alfredo Vasconcelos",
        "stateId": 3457153,
        "latitude": -21.1424,
        "longitude": -43.71114
    },
    {
        "cityId": 6321117,
        "name": "Almenara",
        "stateId": 3457153,
        "latitude": -16.10053,
        "longitude": -40.71006
    },
    {
        "cityId": 6321118,
        "name": "Alpercata",
        "stateId": 3457153,
        "latitude": -18.98379,
        "longitude": -42.00135
    },
    {
        "cityId": 6321119,
        "name": "Alpin\u00f3polis",
        "stateId": 3457153,
        "latitude": -20.81822,
        "longitude": -46.37937
    },
    {
        "cityId": 6321120,
        "name": "Alterosa",
        "stateId": 3457153,
        "latitude": -21.21904,
        "longitude": -46.18694
    },
    {
        "cityId": 6321121,
        "name": "Alto Capara\u00f3",
        "stateId": 3457153,
        "latitude": -20.44669,
        "longitude": -41.87096
    },
    {
        "cityId": 6321122,
        "name": "Alto Rio Doce",
        "stateId": 3457153,
        "latitude": -21.01929,
        "longitude": -43.40538
    },
    {
        "cityId": 6321123,
        "name": "Alvarenga",
        "stateId": 3457153,
        "latitude": -19.3987,
        "longitude": -41.68138
    },
    {
        "cityId": 6321124,
        "name": "Alvin\u00f3polis",
        "stateId": 3457153,
        "latitude": -20.12078,
        "longitude": -43.15399
    },
    {
        "cityId": 6321125,
        "name": "Alvorada de Minas",
        "stateId": 3457153,
        "latitude": -18.79532,
        "longitude": -43.37002
    },
    {
        "cityId": 6321126,
        "name": "Amparo do Serra",
        "stateId": 3457153,
        "latitude": -20.52383,
        "longitude": -42.79878
    },
    {
        "cityId": 6321127,
        "name": "Andradas",
        "stateId": 3457153,
        "latitude": -22.06984,
        "longitude": -46.5723
    },
    {
        "cityId": 6321128,
        "name": "Cachoeira de Paje\u00fa",
        "stateId": 3457153,
        "latitude": -15.97163,
        "longitude": -41.49303
    },
    {
        "cityId": 6321129,
        "name": "Andrel\u00e2ndia",
        "stateId": 3457153,
        "latitude": -21.71132,
        "longitude": -44.27912
    },
    {
        "cityId": 6321130,
        "name": "Angel\u00e2ndia",
        "stateId": 3457153,
        "latitude": -17.72394,
        "longitude": -42.26234
    },
    {
        "cityId": 6321131,
        "name": "Ant\u00f4nio Carlos",
        "stateId": 3457153,
        "latitude": -21.40838,
        "longitude": -43.76937
    },
    {
        "cityId": 6321132,
        "name": "Ant\u00f4nio Dias",
        "stateId": 3457153,
        "latitude": -19.56225,
        "longitude": -42.88855
    },
    {
        "cityId": 6321133,
        "name": "Ant\u00f4nio Prado de Minas",
        "stateId": 3457153,
        "latitude": -21.02658,
        "longitude": -42.15497
    },
    {
        "cityId": 6321134,
        "name": "Aracitaba",
        "stateId": 3457153,
        "latitude": -21.35243,
        "longitude": -43.40862
    },
    {
        "cityId": 6321135,
        "name": "Ara\u00e7ua\u00ed",
        "stateId": 3457153,
        "latitude": -16.90822,
        "longitude": -41.98596
    },
    {
        "cityId": 6321136,
        "name": "Araguari",
        "stateId": 3457153,
        "latitude": -18.59073,
        "longitude": -48.26154
    },
    {
        "cityId": 6321137,
        "name": "Arantina",
        "stateId": 3457153,
        "latitude": -21.89632,
        "longitude": -44.22633
    },
    {
        "cityId": 6321138,
        "name": "Araponga",
        "stateId": 3457153,
        "latitude": -20.66607,
        "longitude": -42.51113
    },
    {
        "cityId": 6321139,
        "name": "Arapor\u00e3",
        "stateId": 3457153,
        "latitude": -18.49061,
        "longitude": -49.13761
    },
    {
        "cityId": 6321140,
        "name": "Arapu\u00e1",
        "stateId": 3457153,
        "latitude": -19.03065,
        "longitude": -46.09585
    },
    {
        "cityId": 6321141,
        "name": "Ara\u00fajos",
        "stateId": 3457153,
        "latitude": -19.87542,
        "longitude": -45.15682
    },
    {
        "cityId": 6321142,
        "name": "Arax\u00e1",
        "stateId": 3457153,
        "latitude": -19.61083,
        "longitude": -46.97975
    },
    {
        "cityId": 6321143,
        "name": "Arceburgo",
        "stateId": 3457153,
        "latitude": -21.36655,
        "longitude": -46.94472
    },
    {
        "cityId": 6321144,
        "name": "Arcos",
        "stateId": 3457153,
        "latitude": -20.24351,
        "longitude": -45.5676
    },
    {
        "cityId": 6321145,
        "name": "Areado",
        "stateId": 3457153,
        "latitude": -21.33401,
        "longitude": -46.16798
    },
    {
        "cityId": 6321146,
        "name": "Argirita",
        "stateId": 3457153,
        "latitude": -21.63912,
        "longitude": -42.82857
    },
    {
        "cityId": 6321147,
        "name": "Aricanduva",
        "stateId": 3457153,
        "latitude": -17.85789,
        "longitude": -42.59791
    },
    {
        "cityId": 6321148,
        "name": "Arinos",
        "stateId": 3457153,
        "latitude": -15.80332,
        "longitude": -45.94198
    },
    {
        "cityId": 6321149,
        "name": "Astolfo Dutra",
        "stateId": 3457153,
        "latitude": -21.30413,
        "longitude": -42.88194
    },
    {
        "cityId": 6321150,
        "name": "Atal\u00e9ia",
        "stateId": 3457153,
        "latitude": -18.18353,
        "longitude": -41.16721
    },
    {
        "cityId": 6321151,
        "name": "Baependi",
        "stateId": 3457153,
        "latitude": -21.97623,
        "longitude": -44.85558
    },
    {
        "cityId": 6321152,
        "name": "Baldim",
        "stateId": 3457153,
        "latitude": -19.23659,
        "longitude": -43.84684
    },
    {
        "cityId": 6321153,
        "name": "Bambu\u00ed",
        "stateId": 3457153,
        "latitude": -20.10451,
        "longitude": -45.98743
    },
    {
        "cityId": 6321154,
        "name": "Bandeira",
        "stateId": 3457153,
        "latitude": -15.88042,
        "longitude": -40.59969
    },
    {
        "cityId": 6321155,
        "name": "Bandeira do Sul",
        "stateId": 3457153,
        "latitude": -21.72907,
        "longitude": -46.38283
    },
    {
        "cityId": 6321156,
        "name": "Bar\u00e3o de Cocais",
        "stateId": 3457153,
        "latitude": -19.8798,
        "longitude": -43.49476
    },
    {
        "cityId": 6321157,
        "name": "Bar\u00e3o de Monte Alto",
        "stateId": 3457153,
        "latitude": -21.26536,
        "longitude": -42.27886
    },
    {
        "cityId": 6321158,
        "name": "Barbacena",
        "stateId": 3457153,
        "latitude": -21.25031,
        "longitude": -43.84171
    },
    {
        "cityId": 6321159,
        "name": "Barra Longa",
        "stateId": 3457153,
        "latitude": -20.27861,
        "longitude": -43.0717
    },
    {
        "cityId": 6321160,
        "name": "Barroso",
        "stateId": 3457153,
        "latitude": -21.17886,
        "longitude": -43.95708
    },
    {
        "cityId": 6321161,
        "name": "Bela Vista de Minas",
        "stateId": 3457153,
        "latitude": -19.80136,
        "longitude": -43.10273
    },
    {
        "cityId": 6321162,
        "name": "Belo Horizonte",
        "stateId": 3457153,
        "latitude": -19.92623,
        "longitude": -43.93982
    },
    {
        "cityId": 6321163,
        "name": "Belo Oriente",
        "stateId": 3457153,
        "latitude": -19.25558,
        "longitude": -42.44289
    },
    {
        "cityId": 6321164,
        "name": "Belo Vale",
        "stateId": 3457153,
        "latitude": -20.41584,
        "longitude": -44.0647
    },
    {
        "cityId": 6321165,
        "name": "Berilo",
        "stateId": 3457153,
        "latitude": -16.8634,
        "longitude": -42.48889
    },
    {
        "cityId": 6321166,
        "name": "Bert\u00f3polis",
        "stateId": 3457153,
        "latitude": -16.95442,
        "longitude": -40.56435
    },
    {
        "cityId": 6321167,
        "name": "Berizal",
        "stateId": 3457153,
        "latitude": -15.67761,
        "longitude": -41.77137
    },
    {
        "cityId": 6321168,
        "name": "Betim",
        "stateId": 3457153,
        "latitude": -19.96262,
        "longitude": -44.19455
    },
    {
        "cityId": 6321169,
        "name": "Bias Fortes",
        "stateId": 3457153,
        "latitude": -21.63008,
        "longitude": -43.75508
    },
    {
        "cityId": 6321170,
        "name": "Bicas",
        "stateId": 3457153,
        "latitude": -21.73237,
        "longitude": -43.10454
    },
    {
        "cityId": 6321171,
        "name": "Biquinhas",
        "stateId": 3457153,
        "latitude": -18.76231,
        "longitude": -45.54853
    },
    {
        "cityId": 6321172,
        "name": "Boa Esperan\u00e7a",
        "stateId": 3457153,
        "latitude": -21.08132,
        "longitude": -45.62433
    },
    {
        "cityId": 6321173,
        "name": "Bocaina de Minas",
        "stateId": 3457153,
        "latitude": -22.23436,
        "longitude": -44.49342
    },
    {
        "cityId": 6321174,
        "name": "Bocai\u00fava",
        "stateId": 3457153,
        "latitude": -17.38916,
        "longitude": -43.83571
    },
    {
        "cityId": 6321175,
        "name": "Bom Despacho",
        "stateId": 3457153,
        "latitude": -19.69145,
        "longitude": -45.25297
    },
    {
        "cityId": 6321176,
        "name": "Bom Jardim de Minas",
        "stateId": 3457153,
        "latitude": -21.9439,
        "longitude": -44.12193
    },
    {
        "cityId": 6321177,
        "name": "Bom Jesus da Penha",
        "stateId": 3457153,
        "latitude": -20.99902,
        "longitude": -46.54769
    },
    {
        "cityId": 6321178,
        "name": "Bom Jesus do Amparo",
        "stateId": 3457153,
        "latitude": -19.71668,
        "longitude": -43.4684
    },
    {
        "cityId": 6321179,
        "name": "Bom Jesus do Galho",
        "stateId": 3457153,
        "latitude": -19.71687,
        "longitude": -42.37558
    },
    {
        "cityId": 6321180,
        "name": "Bom Repouso",
        "stateId": 3457153,
        "latitude": -22.44963,
        "longitude": -46.18632
    },
    {
        "cityId": 6321181,
        "name": "Bom Sucesso",
        "stateId": 3457153,
        "latitude": -21.03029,
        "longitude": -44.79501
    },
    {
        "cityId": 6321182,
        "name": "Bonfim",
        "stateId": 3457153,
        "latitude": -20.31591,
        "longitude": -44.2074
    },
    {
        "cityId": 6321183,
        "name": "Bonfin\u00f3polis de Minas",
        "stateId": 3457153,
        "latitude": -16.54416,
        "longitude": -46.13266
    },
    {
        "cityId": 6321184,
        "name": "Bonito de Minas",
        "stateId": 3457153,
        "latitude": -14.91015,
        "longitude": -44.88471
    },
    {
        "cityId": 6321185,
        "name": "Borda da Mata",
        "stateId": 3457153,
        "latitude": -22.25106,
        "longitude": -46.16707
    },
    {
        "cityId": 6321186,
        "name": "Botelhos",
        "stateId": 3457153,
        "latitude": -21.64903,
        "longitude": -46.42831
    },
    {
        "cityId": 6321187,
        "name": "Botumirim",
        "stateId": 3457153,
        "latitude": -16.9095,
        "longitude": -43.00848
    },
    {
        "cityId": 6321188,
        "name": "Brasil\u00e2ndia de Minas",
        "stateId": 3457153,
        "latitude": -16.93061,
        "longitude": -45.96385
    },
    {
        "cityId": 6321189,
        "name": "Bras\u00edlia de Minas",
        "stateId": 3457153,
        "latitude": -16.25246,
        "longitude": -44.45712
    },
    {
        "cityId": 6321190,
        "name": "Br\u00e1s Pires",
        "stateId": 3457153,
        "latitude": -20.87837,
        "longitude": -43.22442
    },
    {
        "cityId": 6321191,
        "name": "Bra\u00fanas",
        "stateId": 3457153,
        "latitude": -19.02181,
        "longitude": -42.71399
    },
    {
        "cityId": 6321192,
        "name": "Bras\u00f3polis",
        "stateId": 3457153,
        "latitude": -22.48169,
        "longitude": -45.62802
    },
    {
        "cityId": 6321193,
        "name": "Brumadinho",
        "stateId": 3457153,
        "latitude": -20.20447,
        "longitude": -44.15388
    },
    {
        "cityId": 6321194,
        "name": "Bueno Brand\u00e3o",
        "stateId": 3457153,
        "latitude": -22.50459,
        "longitude": -46.35271
    },
    {
        "cityId": 6321195,
        "name": "Bugre",
        "stateId": 3457153,
        "latitude": -19.36701,
        "longitude": -42.30815
    },
    {
        "cityId": 6321196,
        "name": "Buritis",
        "stateId": 3457153,
        "latitude": -15.41389,
        "longitude": -46.5547
    },
    {
        "cityId": 6321197,
        "name": "Buritizeiro",
        "stateId": 3457153,
        "latitude": -17.40582,
        "longitude": -45.30446
    },
    {
        "cityId": 6321198,
        "name": "Cabeceira Grande",
        "stateId": 3457153,
        "latitude": -16.06178,
        "longitude": -47.17573
    },
    {
        "cityId": 6321199,
        "name": "Cabo Verde",
        "stateId": 3457153,
        "latitude": -21.48702,
        "longitude": -46.37999
    },
    {
        "cityId": 6321200,
        "name": "Cachoeira da Prata",
        "stateId": 3457153,
        "latitude": -19.51865,
        "longitude": -44.4625
    },
    {
        "cityId": 6321201,
        "name": "Cachoeira de Minas",
        "stateId": 3457153,
        "latitude": -22.35563,
        "longitude": -45.79447
    },
    {
        "cityId": 6321202,
        "name": "Cachoeira Dourada",
        "stateId": 3457153,
        "latitude": -18.59094,
        "longitude": -49.47013
    },
    {
        "cityId": 6321203,
        "name": "Caetan\u00f3polis",
        "stateId": 3457153,
        "latitude": -19.33473,
        "longitude": -44.41002
    },
    {
        "cityId": 6321204,
        "name": "Caet\u00e9",
        "stateId": 3457153,
        "latitude": -19.87017,
        "longitude": -43.6506
    },
    {
        "cityId": 6321205,
        "name": "Caiana",
        "stateId": 3457153,
        "latitude": -20.7308,
        "longitude": -41.90016
    },
    {
        "cityId": 6321206,
        "name": "Cajuri",
        "stateId": 3457153,
        "latitude": -20.78744,
        "longitude": -42.76259
    },
    {
        "cityId": 6321207,
        "name": "Caldas",
        "stateId": 3457153,
        "latitude": -21.88671,
        "longitude": -46.35924
    },
    {
        "cityId": 6321208,
        "name": "Camacho",
        "stateId": 3457153,
        "latitude": -20.64216,
        "longitude": -45.14334
    },
    {
        "cityId": 6321209,
        "name": "Camanducaia",
        "stateId": 3457153,
        "latitude": -22.79065,
        "longitude": -46.07841
    },
    {
        "cityId": 6321210,
        "name": "Cambu\u00ed",
        "stateId": 3457153,
        "latitude": -22.58243,
        "longitude": -46.06121
    },
    {
        "cityId": 6321211,
        "name": "Cambuquira",
        "stateId": 3457153,
        "latitude": -21.85379,
        "longitude": -45.2717
    },
    {
        "cityId": 6321212,
        "name": "Campan\u00e1rio",
        "stateId": 3457153,
        "latitude": -18.2749,
        "longitude": -41.73907
    },
    {
        "cityId": 6321213,
        "name": "Campanha",
        "stateId": 3457153,
        "latitude": -21.81412,
        "longitude": -45.39753
    },
    {
        "cityId": 6321214,
        "name": "Campestre",
        "stateId": 3457153,
        "latitude": -21.73436,
        "longitude": -46.22571
    },
    {
        "cityId": 6321215,
        "name": "Campina Verde",
        "stateId": 3457153,
        "latitude": -19.46113,
        "longitude": -49.73967
    },
    {
        "cityId": 6321216,
        "name": "Campo Azul",
        "stateId": 3457153,
        "latitude": -16.52161,
        "longitude": -44.80679
    },
    {
        "cityId": 6321217,
        "name": "Campo Belo",
        "stateId": 3457153,
        "latitude": -20.92449,
        "longitude": -45.234
    },
    {
        "cityId": 6321218,
        "name": "Campo do Meio",
        "stateId": 3457153,
        "latitude": -21.12604,
        "longitude": -45.79572
    },
    {
        "cityId": 6321219,
        "name": "Campo Florido",
        "stateId": 3457153,
        "latitude": -19.69262,
        "longitude": -48.65664
    },
    {
        "cityId": 6321220,
        "name": "Campos Altos",
        "stateId": 3457153,
        "latitude": -19.63694,
        "longitude": -46.19815
    },
    {
        "cityId": 6321221,
        "name": "Campos Gerais",
        "stateId": 3457153,
        "latitude": -21.24705,
        "longitude": -45.71391
    },
    {
        "cityId": 6321222,
        "name": "Cana\u00e3",
        "stateId": 3457153,
        "latitude": -20.66128,
        "longitude": -42.63787
    },
    {
        "cityId": 6321223,
        "name": "Can\u00e1polis",
        "stateId": 3457153,
        "latitude": -18.77777,
        "longitude": -49.27579
    },
    {
        "cityId": 6321224,
        "name": "Cana Verde",
        "stateId": 3457153,
        "latitude": -21.02062,
        "longitude": -45.18335
    },
    {
        "cityId": 6321225,
        "name": "Cantagalo",
        "stateId": 3457153,
        "latitude": -18.51033,
        "longitude": -42.6498
    },
    {
        "cityId": 6321226,
        "name": "Capara\u00f3",
        "stateId": 3457153,
        "latitude": -20.52613,
        "longitude": -41.9022
    },
    {
        "cityId": 6321227,
        "name": "Capela Nova",
        "stateId": 3457153,
        "latitude": -20.91843,
        "longitude": -43.61587
    },
    {
        "cityId": 6321228,
        "name": "Capelinha",
        "stateId": 3457153,
        "latitude": -17.69167,
        "longitude": -42.50214
    },
    {
        "cityId": 6321229,
        "name": "Capetinga",
        "stateId": 3457153,
        "latitude": -20.65301,
        "longitude": -47.01826
    },
    {
        "cityId": 6321230,
        "name": "Capim Branco",
        "stateId": 3457153,
        "latitude": -19.57826,
        "longitude": -44.16662
    },
    {
        "cityId": 6321231,
        "name": "Capin\u00f3polis",
        "stateId": 3457153,
        "latitude": -18.69222,
        "longitude": -49.57943
    },
    {
        "cityId": 6321232,
        "name": "Capit\u00e3o Andrade",
        "stateId": 3457153,
        "latitude": -19.04293,
        "longitude": -41.82608
    },
    {
        "cityId": 6321233,
        "name": "Capit\u00e3o En\u00e9as",
        "stateId": 3457153,
        "latitude": -16.05629,
        "longitude": -43.6747
    },
    {
        "cityId": 6321234,
        "name": "Capit\u00f3lio",
        "stateId": 3457153,
        "latitude": -20.59235,
        "longitude": -46.1572
    },
    {
        "cityId": 6321235,
        "name": "Caputira",
        "stateId": 3457153,
        "latitude": -20.18512,
        "longitude": -42.25284
    },
    {
        "cityId": 6321236,
        "name": "Cara\u00ed",
        "stateId": 3457153,
        "latitude": -17.18089,
        "longitude": -41.54964
    },
    {
        "cityId": 6321237,
        "name": "Carana\u00edba",
        "stateId": 3457153,
        "latitude": -20.88526,
        "longitude": -43.71231
    },
    {
        "cityId": 6321238,
        "name": "Caranda\u00ed",
        "stateId": 3457153,
        "latitude": -20.9884,
        "longitude": -43.83413
    },
    {
        "cityId": 6321239,
        "name": "Carangola",
        "stateId": 3457153,
        "latitude": -20.70784,
        "longitude": -42.10486
    },
    {
        "cityId": 6321240,
        "name": "Caratinga",
        "stateId": 3457153,
        "latitude": -19.68877,
        "longitude": -41.88778
    },
    {
        "cityId": 6321241,
        "name": "Carbonita",
        "stateId": 3457153,
        "latitude": -17.47884,
        "longitude": -43.04885
    },
    {
        "cityId": 6321242,
        "name": "Carea\u00e7u",
        "stateId": 3457153,
        "latitude": -22.07964,
        "longitude": -45.66541
    },
    {
        "cityId": 6321243,
        "name": "Carlos Chagas",
        "stateId": 3457153,
        "latitude": -17.67817,
        "longitude": -40.88519
    },
    {
        "cityId": 6321244,
        "name": "Carm\u00e9sia",
        "stateId": 3457153,
        "latitude": -19.06534,
        "longitude": -43.18402
    },
    {
        "cityId": 6321245,
        "name": "Carmo da Cachoeira",
        "stateId": 3457153,
        "latitude": -21.43323,
        "longitude": -45.18036
    },
    {
        "cityId": 6321246,
        "name": "Carmo da Mata",
        "stateId": 3457153,
        "latitude": -20.56847,
        "longitude": -44.88516
    },
    {
        "cityId": 6321247,
        "name": "Carmo de Minas",
        "stateId": 3457153,
        "latitude": -22.08863,
        "longitude": -45.14949
    },
    {
        "cityId": 6321248,
        "name": "Carmo do Cajuru",
        "stateId": 3457153,
        "latitude": -20.18782,
        "longitude": -44.71399
    },
    {
        "cityId": 6321249,
        "name": "Carmo do Parana\u00edba",
        "stateId": 3457153,
        "latitude": -18.87335,
        "longitude": -46.14425
    },
    {
        "cityId": 6321250,
        "name": "Carmo do Rio Claro",
        "stateId": 3457153,
        "latitude": -20.97974,
        "longitude": -46.10445
    },
    {
        "cityId": 6321251,
        "name": "Carm\u00f3polis de Minas",
        "stateId": 3457153,
        "latitude": -20.54914,
        "longitude": -44.64527
    },
    {
        "cityId": 6321252,
        "name": "Carneirinho",
        "stateId": 3457153,
        "latitude": -19.71424,
        "longitude": -50.80874
    },
    {
        "cityId": 6321253,
        "name": "Carrancas",
        "stateId": 3457153,
        "latitude": -21.49589,
        "longitude": -44.61042
    },
    {
        "cityId": 6321254,
        "name": "Carvalh\u00f3polis",
        "stateId": 3457153,
        "latitude": -21.77488,
        "longitude": -45.82688
    },
    {
        "cityId": 6321255,
        "name": "Carvalhos",
        "stateId": 3457153,
        "latitude": -22.03096,
        "longitude": -44.47544
    },
    {
        "cityId": 6321256,
        "name": "Casa Grande",
        "stateId": 3457153,
        "latitude": -20.84072,
        "longitude": -43.93951
    },
    {
        "cityId": 6321257,
        "name": "Cascalho Rico",
        "stateId": 3457153,
        "latitude": -18.54617,
        "longitude": -47.85132
    },
    {
        "cityId": 6321258,
        "name": "C\u00e1ssia",
        "stateId": 3457153,
        "latitude": -20.59294,
        "longitude": -46.91761
    },
    {
        "cityId": 6321259,
        "name": "Concei\u00e7\u00e3o da Barra de Minas",
        "stateId": 3457153,
        "latitude": -21.14228,
        "longitude": -44.48863
    },
    {
        "cityId": 6321260,
        "name": "Cataguases",
        "stateId": 3457153,
        "latitude": -21.34548,
        "longitude": -42.64976
    },
    {
        "cityId": 6321261,
        "name": "Catas Altas",
        "stateId": 3457153,
        "latitude": -20.07049,
        "longitude": -43.42197
    },
    {
        "cityId": 6321262,
        "name": "Catas Altas da Noruega",
        "stateId": 3457153,
        "latitude": -20.68094,
        "longitude": -43.4978
    },
    {
        "cityId": 6321263,
        "name": "Catuji",
        "stateId": 3457153,
        "latitude": -17.36328,
        "longitude": -41.48183
    },
    {
        "cityId": 6321264,
        "name": "Catuti",
        "stateId": 3457153,
        "latitude": -15.3236,
        "longitude": -43.11391
    },
    {
        "cityId": 6321265,
        "name": "Caxambu",
        "stateId": 3457153,
        "latitude": -21.96025,
        "longitude": -44.95298
    },
    {
        "cityId": 6321266,
        "name": "Cedro do Abaet\u00e9",
        "stateId": 3457153,
        "latitude": -19.11465,
        "longitude": -45.7007
    },
    {
        "cityId": 6321267,
        "name": "Central de Minas",
        "stateId": 3457153,
        "latitude": -18.76784,
        "longitude": -41.28963
    },
    {
        "cityId": 6321268,
        "name": "Centralina",
        "stateId": 3457153,
        "latitude": -18.60922,
        "longitude": -49.16062
    },
    {
        "cityId": 6321269,
        "name": "Ch\u00e1cara",
        "stateId": 3457153,
        "latitude": -21.67919,
        "longitude": -43.21835
    },
    {
        "cityId": 6321270,
        "name": "Chal\u00e9",
        "stateId": 3457153,
        "latitude": -20.03354,
        "longitude": -41.67809
    },
    {
        "cityId": 6321271,
        "name": "Chapada do Norte",
        "stateId": 3457153,
        "latitude": -17.16293,
        "longitude": -42.37718
    },
    {
        "cityId": 6321272,
        "name": "Chapada Ga\u00facha",
        "stateId": 3457153,
        "latitude": -15.57934,
        "longitude": -45.41242
    },
    {
        "cityId": 6321273,
        "name": "Chiador",
        "stateId": 3457153,
        "latitude": -21.97253,
        "longitude": -43.00735
    },
    {
        "cityId": 6321274,
        "name": "Cipot\u00e2nea",
        "stateId": 3457153,
        "latitude": -20.93027,
        "longitude": -43.36547
    },
    {
        "cityId": 6321275,
        "name": "Claraval",
        "stateId": 3457153,
        "latitude": -20.35681,
        "longitude": -47.25241
    },
    {
        "cityId": 6321276,
        "name": "Claro dos Po\u00e7\u00f5es",
        "stateId": 3457153,
        "latitude": -17.09679,
        "longitude": -44.233
    },
    {
        "cityId": 6321277,
        "name": "Cl\u00e1udio",
        "stateId": 3457153,
        "latitude": -20.39006,
        "longitude": -44.79135
    },
    {
        "cityId": 6321278,
        "name": "Coimbra",
        "stateId": 3457153,
        "latitude": -20.84494,
        "longitude": -42.79834
    },
    {
        "cityId": 6321279,
        "name": "Coluna",
        "stateId": 3457153,
        "latitude": -18.26842,
        "longitude": -42.82813
    },
    {
        "cityId": 6321280,
        "name": "Comendador Gomes",
        "stateId": 3457153,
        "latitude": -19.6533,
        "longitude": -49.08738
    },
    {
        "cityId": 6321281,
        "name": "Comercinho",
        "stateId": 3457153,
        "latitude": -16.28896,
        "longitude": -41.77346
    },
    {
        "cityId": 6321282,
        "name": "Concei\u00e7\u00e3o da Aparecida",
        "stateId": 3457153,
        "latitude": -21.1012,
        "longitude": -46.22626
    },
    {
        "cityId": 6321283,
        "name": "Concei\u00e7\u00e3o das Pedras",
        "stateId": 3457153,
        "latitude": -22.13866,
        "longitude": -45.42694
    },
    {
        "cityId": 6321284,
        "name": "Concei\u00e7\u00e3o das Alagoas",
        "stateId": 3457153,
        "latitude": -19.95627,
        "longitude": -48.3051
    },
    {
        "cityId": 6321285,
        "name": "Concei\u00e7\u00e3o de Ipanema",
        "stateId": 3457153,
        "latitude": -19.91781,
        "longitude": -41.70024
    },
    {
        "cityId": 6321286,
        "name": "Concei\u00e7\u00e3o do Par\u00e1",
        "stateId": 3457153,
        "latitude": -19.7855,
        "longitude": -44.87016
    },
    {
        "cityId": 6321287,
        "name": "Concei\u00e7\u00e3o do Rio Verde",
        "stateId": 3457153,
        "latitude": -21.90132,
        "longitude": -45.07975
    },
    {
        "cityId": 6321288,
        "name": "Concei\u00e7\u00e3o dos Ouros",
        "stateId": 3457153,
        "latitude": -22.45037,
        "longitude": -45.77976
    },
    {
        "cityId": 6321289,
        "name": "C\u00f4nego Marinho",
        "stateId": 3457153,
        "latitude": -14.98755,
        "longitude": -44.60965
    },
    {
        "cityId": 6321290,
        "name": "Confins",
        "stateId": 3457153,
        "latitude": -19.65686,
        "longitude": -43.98131
    },
    {
        "cityId": 6321291,
        "name": "Congonhal",
        "stateId": 3457153,
        "latitude": -22.13543,
        "longitude": -46.03992
    },
    {
        "cityId": 6321292,
        "name": "Congonhas",
        "stateId": 3457153,
        "latitude": -20.5316,
        "longitude": -43.85905
    },
    {
        "cityId": 6321293,
        "name": "Congonhas do Norte",
        "stateId": 3457153,
        "latitude": -18.88604,
        "longitude": -43.6962
    },
    {
        "cityId": 6321294,
        "name": "Conquista",
        "stateId": 3457153,
        "latitude": -19.86841,
        "longitude": -47.63352
    },
    {
        "cityId": 6321295,
        "name": "Conselheiro Lafaiete",
        "stateId": 3457153,
        "latitude": -20.65143,
        "longitude": -43.80553
    },
    {
        "cityId": 6321296,
        "name": "Conselheiro Pena",
        "stateId": 3457153,
        "latitude": -19.17411,
        "longitude": -41.458
    },
    {
        "cityId": 6321297,
        "name": "Contagem",
        "stateId": 3457153,
        "latitude": -19.88722,
        "longitude": -44.07594
    },
    {
        "cityId": 6321298,
        "name": "Coqueiral",
        "stateId": 3457153,
        "latitude": -21.17947,
        "longitude": -45.43619
    },
    {
        "cityId": 6321299,
        "name": "Cora\u00e7\u00e3o de Jesus",
        "stateId": 3457153,
        "latitude": -16.68619,
        "longitude": -44.36279
    },
    {
        "cityId": 6321300,
        "name": "Cordisburgo",
        "stateId": 3457153,
        "latitude": -19.09925,
        "longitude": -44.16458
    },
    {
        "cityId": 6321301,
        "name": "Cordisl\u00e2ndia",
        "stateId": 3457153,
        "latitude": -21.7875,
        "longitude": -45.67156
    },
    {
        "cityId": 6321302,
        "name": "Corinto",
        "stateId": 3457153,
        "latitude": -18.35246,
        "longitude": -44.60589
    },
    {
        "cityId": 6321304,
        "name": "Coromandel",
        "stateId": 3457153,
        "latitude": -18.40456,
        "longitude": -47.15161
    },
    {
        "cityId": 6321305,
        "name": "Coronel Fabriciano",
        "stateId": 3457153,
        "latitude": -19.45657,
        "longitude": -42.68532
    },
    {
        "cityId": 6321306,
        "name": "Coronel Murta",
        "stateId": 3457153,
        "latitude": -16.58925,
        "longitude": -42.19742
    },
    {
        "cityId": 6321307,
        "name": "Coronel Pacheco",
        "stateId": 3457153,
        "latitude": -21.60865,
        "longitude": -43.29006
    },
    {
        "cityId": 6321308,
        "name": "Coronel Xavier Chaves",
        "stateId": 3457153,
        "latitude": -21.02869,
        "longitude": -44.20221
    },
    {
        "cityId": 6321309,
        "name": "C\u00f3rrego Danta",
        "stateId": 3457153,
        "latitude": -19.81349,
        "longitude": -45.96149
    },
    {
        "cityId": 6321310,
        "name": "C\u00f3rrego do Bom Jesus",
        "stateId": 3457153,
        "latitude": -22.62998,
        "longitude": -45.99681
    },
    {
        "cityId": 6321311,
        "name": "C\u00f3rrego Fundo",
        "stateId": 3457153,
        "latitude": -20.45029,
        "longitude": -45.53592
    },
    {
        "cityId": 6321312,
        "name": "C\u00f3rrego Novo",
        "stateId": 3457153,
        "latitude": -19.82874,
        "longitude": -42.44214
    },
    {
        "cityId": 6321313,
        "name": "Couto de Magalh\u00e3es de Minas",
        "stateId": 3457153,
        "latitude": -18.11856,
        "longitude": -43.41813
    },
    {
        "cityId": 6321314,
        "name": "Cris\u00f3lita",
        "stateId": 3457153,
        "latitude": -17.24147,
        "longitude": -40.97498
    },
    {
        "cityId": 6321315,
        "name": "Cristais",
        "stateId": 3457153,
        "latitude": -20.80957,
        "longitude": -45.52448
    },
    {
        "cityId": 6321316,
        "name": "Crist\u00e1lia",
        "stateId": 3457153,
        "latitude": -16.72547,
        "longitude": -42.8187
    },
    {
        "cityId": 6321317,
        "name": "Cristiano Otoni",
        "stateId": 3457153,
        "latitude": -20.83688,
        "longitude": -43.82931
    },
    {
        "cityId": 6321318,
        "name": "Cristina",
        "stateId": 3457153,
        "latitude": -22.21592,
        "longitude": -45.2882
    },
    {
        "cityId": 6321319,
        "name": "Crucil\u00e2ndia",
        "stateId": 3457153,
        "latitude": -20.4066,
        "longitude": -44.35991
    },
    {
        "cityId": 6321320,
        "name": "Cruzeiro da Fortaleza",
        "stateId": 3457153,
        "latitude": -18.96712,
        "longitude": -46.65779
    },
    {
        "cityId": 6321321,
        "name": "Cruz\u00edlia",
        "stateId": 3457153,
        "latitude": -21.73596,
        "longitude": -44.79827
    },
    {
        "cityId": 6321322,
        "name": "Cuparaque",
        "stateId": 3457153,
        "latitude": -18.99664,
        "longitude": -41.13368
    },
    {
        "cityId": 6321323,
        "name": "Curral de Dentro",
        "stateId": 3457153,
        "latitude": -15.84632,
        "longitude": -41.75405
    },
    {
        "cityId": 6321324,
        "name": "Curvelo",
        "stateId": 3457153,
        "latitude": -18.78525,
        "longitude": -44.41599
    },
    {
        "cityId": 6321325,
        "name": "Datas",
        "stateId": 3457153,
        "latitude": -18.48073,
        "longitude": -43.65216
    },
    {
        "cityId": 6321326,
        "name": "Delfim Moreira",
        "stateId": 3457153,
        "latitude": -22.51165,
        "longitude": -45.28972
    },
    {
        "cityId": 6321327,
        "name": "Delfin\u00f3polis",
        "stateId": 3457153,
        "latitude": -20.34248,
        "longitude": -46.83952
    },
    {
        "cityId": 6321328,
        "name": "Delta",
        "stateId": 3457153,
        "latitude": -19.93414,
        "longitude": -47.80435
    },
    {
        "cityId": 6321329,
        "name": "Descoberto",
        "stateId": 3457153,
        "latitude": -21.45167,
        "longitude": -42.97128
    },
    {
        "cityId": 6321330,
        "name": "Desterro de Entre Rios",
        "stateId": 3457153,
        "latitude": -20.64186,
        "longitude": -44.28135
    },
    {
        "cityId": 6321331,
        "name": "Desterro do Melo",
        "stateId": 3457153,
        "latitude": -21.1429,
        "longitude": -43.52011
    },
    {
        "cityId": 6321332,
        "name": "Diogo de Vasconcelos",
        "stateId": 3457153,
        "latitude": -20.47593,
        "longitude": -43.19094
    },
    {
        "cityId": 6321333,
        "name": "Dion\u00edsio",
        "stateId": 3457153,
        "latitude": -19.83679,
        "longitude": -42.68817
    },
    {
        "cityId": 6321334,
        "name": "Divin\u00e9sia",
        "stateId": 3457153,
        "latitude": -20.99465,
        "longitude": -42.99513
    },
    {
        "cityId": 6321335,
        "name": "Divino",
        "stateId": 3457153,
        "latitude": -20.58996,
        "longitude": -42.1755
    },
    {
        "cityId": 6321336,
        "name": "Divino das Laranjeiras",
        "stateId": 3457153,
        "latitude": -18.71237,
        "longitude": -41.4916
    },
    {
        "cityId": 6321337,
        "name": "Divinol\u00e2ndia de Minas",
        "stateId": 3457153,
        "latitude": -18.77559,
        "longitude": -42.57075
    },
    {
        "cityId": 6321338,
        "name": "Divin\u00f3polis",
        "stateId": 3457153,
        "latitude": -20.11692,
        "longitude": -44.91623
    },
    {
        "cityId": 6321339,
        "name": "Divisa Alegre",
        "stateId": 3457153,
        "latitude": -15.69447,
        "longitude": -41.39107
    },
    {
        "cityId": 6321340,
        "name": "Divisa Nova",
        "stateId": 3457153,
        "latitude": -21.52382,
        "longitude": -46.24417
    },
    {
        "cityId": 6321341,
        "name": "Divis\u00f3polis",
        "stateId": 3457153,
        "latitude": -15.7674,
        "longitude": -40.92393
    },
    {
        "cityId": 6321342,
        "name": "Dom Bosco",
        "stateId": 3457153,
        "latitude": -16.81133,
        "longitude": -46.28457
    },
    {
        "cityId": 6321343,
        "name": "Dom Cavati",
        "stateId": 3457153,
        "latitude": -19.38835,
        "longitude": -42.09365
    },
    {
        "cityId": 6321344,
        "name": "Dom Joaquim",
        "stateId": 3457153,
        "latitude": -18.92927,
        "longitude": -43.26602
    },
    {
        "cityId": 6321345,
        "name": "Dom Silv\u00e9rio",
        "stateId": 3457153,
        "latitude": -20.12728,
        "longitude": -42.94651
    },
    {
        "cityId": 6321346,
        "name": "Dom Vi\u00e7oso",
        "stateId": 3457153,
        "latitude": -22.23185,
        "longitude": -45.1488
    },
    {
        "cityId": 6321347,
        "name": "Dona Eus\u00e9bia",
        "stateId": 3457153,
        "latitude": -21.32337,
        "longitude": -42.80829
    },
    {
        "cityId": 6321348,
        "name": "Dores de Campos",
        "stateId": 3457153,
        "latitude": -21.11373,
        "longitude": -43.99358
    },
    {
        "cityId": 6321349,
        "name": "Dores de Guanh\u00e3es",
        "stateId": 3457153,
        "latitude": -19.04398,
        "longitude": -42.92816
    },
    {
        "cityId": 6321351,
        "name": "Dores do Turvo",
        "stateId": 3457153,
        "latitude": -21.02779,
        "longitude": -43.16365
    },
    {
        "cityId": 6321352,
        "name": "Dores\u00f3polis",
        "stateId": 3457153,
        "latitude": -20.29693,
        "longitude": -45.86864
    },
    {
        "cityId": 6321353,
        "name": "Douradoquara",
        "stateId": 3457153,
        "latitude": -18.44204,
        "longitude": -47.61478
    },
    {
        "cityId": 6321354,
        "name": "Durand\u00e9",
        "stateId": 3457153,
        "latitude": -20.15179,
        "longitude": -41.7824
    },
    {
        "cityId": 6321355,
        "name": "El\u00f3i Mendes",
        "stateId": 3457153,
        "latitude": -21.60067,
        "longitude": -45.59466
    },
    {
        "cityId": 6321356,
        "name": "Engenheiro Caldas",
        "stateId": 3457153,
        "latitude": -19.1135,
        "longitude": -42.01786
    },
    {
        "cityId": 6321357,
        "name": "Engenheiro Navarro",
        "stateId": 3457153,
        "latitude": -17.30933,
        "longitude": -44.03465
    },
    {
        "cityId": 6321358,
        "name": "Entre Folhas",
        "stateId": 3457153,
        "latitude": -19.65964,
        "longitude": -42.24102
    },
    {
        "cityId": 6321359,
        "name": "Entre Rios de Minas",
        "stateId": 3457153,
        "latitude": -20.70275,
        "longitude": -44.10687
    },
    {
        "cityId": 6321360,
        "name": "Erv\u00e1lia",
        "stateId": 3457153,
        "latitude": -20.84684,
        "longitude": -42.61968
    },
    {
        "cityId": 6321361,
        "name": "Esmeraldas",
        "stateId": 3457153,
        "latitude": -19.74136,
        "longitude": -44.32314
    },
    {
        "cityId": 6321362,
        "name": "Espera Feliz",
        "stateId": 3457153,
        "latitude": -20.59349,
        "longitude": -41.91981
    },
    {
        "cityId": 6321363,
        "name": "Espinosa",
        "stateId": 3457153,
        "latitude": -14.85978,
        "longitude": -42.99177
    },
    {
        "cityId": 6321364,
        "name": "Esp\u00edrito Santo do Dourado",
        "stateId": 3457153,
        "latitude": -22.006,
        "longitude": -45.99
    },
    {
        "cityId": 6321365,
        "name": "Estiva",
        "stateId": 3457153,
        "latitude": -22.45283,
        "longitude": -46.02238
    },
    {
        "cityId": 6321366,
        "name": "Estrela Dalva",
        "stateId": 3457153,
        "latitude": -21.69328,
        "longitude": -42.46834
    },
    {
        "cityId": 6321367,
        "name": "Estrela do Indai\u00e1",
        "stateId": 3457153,
        "latitude": -19.58083,
        "longitude": -45.81189
    },
    {
        "cityId": 6321368,
        "name": "Estrela do Sul",
        "stateId": 3457153,
        "latitude": -18.72229,
        "longitude": -47.69732
    },
    {
        "cityId": 6321369,
        "name": "Eugen\u00f3polis",
        "stateId": 3457153,
        "latitude": -20.99897,
        "longitude": -42.24618
    },
    {
        "cityId": 6321370,
        "name": "Ewbank da C\u00e2mara",
        "stateId": 3457153,
        "latitude": -21.57233,
        "longitude": -43.55342
    },
    {
        "cityId": 6321371,
        "name": "Extrema",
        "stateId": 3457153,
        "latitude": -22.8265,
        "longitude": -46.28351
    },
    {
        "cityId": 6321372,
        "name": "Fama",
        "stateId": 3457153,
        "latitude": -21.46845,
        "longitude": -45.82005
    },
    {
        "cityId": 6321373,
        "name": "Faria Lemos",
        "stateId": 3457153,
        "latitude": -20.78262,
        "longitude": -42.02787
    },
    {
        "cityId": 6321374,
        "name": "Fel\u00edcio dos Santos",
        "stateId": 3457153,
        "latitude": -18.15506,
        "longitude": -43.24046
    },
    {
        "cityId": 6321376,
        "name": "Felisburgo",
        "stateId": 3457153,
        "latitude": -16.66153,
        "longitude": -40.71814
    },
    {
        "cityId": 6321377,
        "name": "Felixl\u00e2ndia",
        "stateId": 3457153,
        "latitude": -18.69406,
        "longitude": -44.91938
    },
    {
        "cityId": 6321378,
        "name": "Fernandes Tourinho",
        "stateId": 3457153,
        "latitude": -19.10298,
        "longitude": -42.09459
    },
    {
        "cityId": 6321379,
        "name": "Ferros",
        "stateId": 3457153,
        "latitude": -19.23796,
        "longitude": -42.97023
    },
    {
        "cityId": 6321380,
        "name": "Fervedouro",
        "stateId": 3457153,
        "latitude": -20.68788,
        "longitude": -42.34214
    },
    {
        "cityId": 6321381,
        "name": "Florestal",
        "stateId": 3457153,
        "latitude": -19.86521,
        "longitude": -44.44251
    },
    {
        "cityId": 6321382,
        "name": "Formiga",
        "stateId": 3457153,
        "latitude": -20.5401,
        "longitude": -45.4776
    },
    {
        "cityId": 6321383,
        "name": "Formoso",
        "stateId": 3457153,
        "latitude": -15.14747,
        "longitude": -46.09371
    },
    {
        "cityId": 6321384,
        "name": "Fortaleza de Minas",
        "stateId": 3457153,
        "latitude": -20.88169,
        "longitude": -46.77437
    },
    {
        "cityId": 6321385,
        "name": "Fortuna de Minas",
        "stateId": 3457153,
        "latitude": -19.54845,
        "longitude": -44.5023
    },
    {
        "cityId": 6321386,
        "name": "Francisco Badar\u00f3",
        "stateId": 3457153,
        "latitude": -16.95297,
        "longitude": -42.28055
    },
    {
        "cityId": 6321387,
        "name": "Francisco Dumont",
        "stateId": 3457153,
        "latitude": -17.39766,
        "longitude": -44.21775
    },
    {
        "cityId": 6321388,
        "name": "Francisco S\u00e1",
        "stateId": 3457153,
        "latitude": -16.41022,
        "longitude": -43.49501
    },
    {
        "cityId": 6321389,
        "name": "Francisc\u00f3polis",
        "stateId": 3457153,
        "latitude": -18.00982,
        "longitude": -41.98437
    },
    {
        "cityId": 6321390,
        "name": "Frei Gaspar",
        "stateId": 3457153,
        "latitude": -18.14006,
        "longitude": -41.49292
    },
    {
        "cityId": 6321391,
        "name": "Frei Inoc\u00eancio",
        "stateId": 3457153,
        "latitude": -18.51403,
        "longitude": -41.87101
    },
    {
        "cityId": 6321392,
        "name": "Frei Lagonegro",
        "stateId": 3457153,
        "latitude": -18.14293,
        "longitude": -42.76064
    },
    {
        "cityId": 6321393,
        "name": "Fronteira",
        "stateId": 3457153,
        "latitude": -20.22276,
        "longitude": -49.1764
    },
    {
        "cityId": 6321394,
        "name": "Fronteira dos Vales",
        "stateId": 3457153,
        "latitude": -16.89172,
        "longitude": -40.83008
    },
    {
        "cityId": 6321395,
        "name": "Fruta de Leite",
        "stateId": 3457153,
        "latitude": -16.16212,
        "longitude": -42.52859
    },
    {
        "cityId": 6321396,
        "name": "Frutal",
        "stateId": 3457153,
        "latitude": -19.9781,
        "longitude": -48.9563
    },
    {
        "cityId": 6321397,
        "name": "Funil\u00e2ndia",
        "stateId": 3457153,
        "latitude": -19.35187,
        "longitude": -44.08205
    },
    {
        "cityId": 6321398,
        "name": "Galil\u00e9ia",
        "stateId": 3457153,
        "latitude": -18.86897,
        "longitude": -41.52503
    },
    {
        "cityId": 6321399,
        "name": "Gameleiras",
        "stateId": 3457153,
        "latitude": -14.97096,
        "longitude": -43.3061
    },
    {
        "cityId": 6321400,
        "name": "Glaucil\u00e2ndia",
        "stateId": 3457153,
        "latitude": -16.89532,
        "longitude": -43.66081
    },
    {
        "cityId": 6321401,
        "name": "Goiabeira",
        "stateId": 3457153,
        "latitude": -19.02964,
        "longitude": -41.22725
    },
    {
        "cityId": 6321402,
        "name": "Goian\u00e1",
        "stateId": 3457153,
        "latitude": -21.56063,
        "longitude": -43.18511
    },
    {
        "cityId": 6321403,
        "name": "Gon\u00e7alves",
        "stateId": 3457153,
        "latitude": -22.67479,
        "longitude": -45.8378
    },
    {
        "cityId": 6321404,
        "name": "Gonzaga",
        "stateId": 3457153,
        "latitude": -18.87874,
        "longitude": -42.49507
    },
    {
        "cityId": 6321405,
        "name": "Governador Valadares",
        "stateId": 3457153,
        "latitude": -18.79072,
        "longitude": -41.99025
    },
    {
        "cityId": 6321406,
        "name": "Gr\u00e3o Mogol",
        "stateId": 3457153,
        "latitude": -16.49009,
        "longitude": -42.96535
    },
    {
        "cityId": 6321407,
        "name": "Grupiara",
        "stateId": 3457153,
        "latitude": -18.47962,
        "longitude": -47.77141
    },
    {
        "cityId": 6321408,
        "name": "Guanh\u00e3es",
        "stateId": 3457153,
        "latitude": -18.85705,
        "longitude": -42.8052
    },
    {
        "cityId": 6321409,
        "name": "Guap\u00e9",
        "stateId": 3457153,
        "latitude": -20.77404,
        "longitude": -45.89935
    },
    {
        "cityId": 6321410,
        "name": "Guaraciaba",
        "stateId": 3457153,
        "latitude": -20.56919,
        "longitude": -43.01146
    },
    {
        "cityId": 6321411,
        "name": "Guaraciama",
        "stateId": 3457153,
        "latitude": -17.08074,
        "longitude": -43.60308
    },
    {
        "cityId": 6321412,
        "name": "Guaran\u00e9sia",
        "stateId": 3457153,
        "latitude": -21.2882,
        "longitude": -46.82229
    },
    {
        "cityId": 6321413,
        "name": "Guarani",
        "stateId": 3457153,
        "latitude": -21.35038,
        "longitude": -43.05888
    },
    {
        "cityId": 6321414,
        "name": "Guarar\u00e1",
        "stateId": 3457153,
        "latitude": -21.75802,
        "longitude": -43.02469
    },
    {
        "cityId": 6321415,
        "name": "Guarda-Mor",
        "stateId": 3457153,
        "latitude": -17.76393,
        "longitude": -47.14784
    },
    {
        "cityId": 6321416,
        "name": "Guaxup\u00e9",
        "stateId": 3457153,
        "latitude": -21.29181,
        "longitude": -46.6811
    },
    {
        "cityId": 6321417,
        "name": "Guiricema",
        "stateId": 3457153,
        "latitude": -21.01294,
        "longitude": -42.69893
    },
    {
        "cityId": 6321418,
        "name": "Gurinhat\u00e3",
        "stateId": 3457153,
        "latitude": -19.06643,
        "longitude": -49.86875
    },
    {
        "cityId": 6321419,
        "name": "Heliodora",
        "stateId": 3457153,
        "latitude": -22.04159,
        "longitude": -45.5443
    },
    {
        "cityId": 6321420,
        "name": "Iapu",
        "stateId": 3457153,
        "latitude": -19.3509,
        "longitude": -42.23727
    },
    {
        "cityId": 6321421,
        "name": "Ibertioga",
        "stateId": 3457153,
        "latitude": -21.4514,
        "longitude": -43.94316
    },
    {
        "cityId": 6321422,
        "name": "Ibi\u00e1",
        "stateId": 3457153,
        "latitude": -19.54368,
        "longitude": -46.61732
    },
    {
        "cityId": 6321423,
        "name": "Ibia\u00ed",
        "stateId": 3457153,
        "latitude": -16.81004,
        "longitude": -44.79235
    },
    {
        "cityId": 6321424,
        "name": "Ibiracatu",
        "stateId": 3457153,
        "latitude": -15.66695,
        "longitude": -44.13281
    },
    {
        "cityId": 6321425,
        "name": "Ibiraci",
        "stateId": 3457153,
        "latitude": -20.40137,
        "longitude": -47.14267
    },
    {
        "cityId": 6321426,
        "name": "Ibirit\u00e9",
        "stateId": 3457153,
        "latitude": -20.01498,
        "longitude": -44.0769
    },
    {
        "cityId": 6321427,
        "name": "Ibiti\u00fara de Minas",
        "stateId": 3457153,
        "latitude": -22.06721,
        "longitude": -46.40735
    },
    {
        "cityId": 6321428,
        "name": "Ibituruna",
        "stateId": 3457153,
        "latitude": -21.16363,
        "longitude": -44.77552
    },
    {
        "cityId": 6321429,
        "name": "Icara\u00ed de Minas",
        "stateId": 3457153,
        "latitude": -16.22108,
        "longitude": -44.85922
    },
    {
        "cityId": 6321430,
        "name": "Igarap\u00e9",
        "stateId": 3457153,
        "latitude": -20.05423,
        "longitude": -44.31636
    },
    {
        "cityId": 6321431,
        "name": "Igaratinga",
        "stateId": 3457153,
        "latitude": -19.96011,
        "longitude": -44.72106
    },
    {
        "cityId": 6321432,
        "name": "Iguatama",
        "stateId": 3457153,
        "latitude": -20.14528,
        "longitude": -45.74194
    },
    {
        "cityId": 6321433,
        "name": "Ijaci",
        "stateId": 3457153,
        "latitude": -21.18351,
        "longitude": -44.9224
    },
    {
        "cityId": 6321435,
        "name": "Imb\u00e9 de Minas",
        "stateId": 3457153,
        "latitude": -19.61863,
        "longitude": -41.96773
    },
    {
        "cityId": 6321436,
        "name": "Inconfidentes",
        "stateId": 3457153,
        "latitude": -22.34042,
        "longitude": -46.28495
    },
    {
        "cityId": 6321437,
        "name": "Indaiabira",
        "stateId": 3457153,
        "latitude": -15.57633,
        "longitude": -42.15728
    },
    {
        "cityId": 6321438,
        "name": "Indian\u00f3polis",
        "stateId": 3457153,
        "latitude": -18.97216,
        "longitude": -47.88555
    },
    {
        "cityId": 6321439,
        "name": "Inga\u00ed",
        "stateId": 3457153,
        "latitude": -21.41317,
        "longitude": -44.93685
    },
    {
        "cityId": 6321440,
        "name": "Inhapim",
        "stateId": 3457153,
        "latitude": -19.48349,
        "longitude": -42.10953
    },
    {
        "cityId": 6321441,
        "name": "Inha\u00fama",
        "stateId": 3457153,
        "latitude": -19.49972,
        "longitude": -44.42415
    },
    {
        "cityId": 6321442,
        "name": "Inimutaba",
        "stateId": 3457153,
        "latitude": -18.71149,
        "longitude": -44.27571
    },
    {
        "cityId": 6321443,
        "name": "Ipaba",
        "stateId": 3457153,
        "latitude": -19.4056,
        "longitude": -42.36072
    },
    {
        "cityId": 6321444,
        "name": "Ipatinga",
        "stateId": 3457153,
        "latitude": -19.43865,
        "longitude": -42.60603
    },
    {
        "cityId": 6321445,
        "name": "Ipia\u00e7u",
        "stateId": 3457153,
        "latitude": -18.70679,
        "longitude": -49.91749
    },
    {
        "cityId": 6321446,
        "name": "Ipui\u00fana",
        "stateId": 3457153,
        "latitude": -22.00732,
        "longitude": -46.12468
    },
    {
        "cityId": 6321448,
        "name": "Itabira",
        "stateId": 3457153,
        "latitude": -19.5757,
        "longitude": -43.28496
    },
    {
        "cityId": 6321449,
        "name": "Itabirinha",
        "stateId": 3457153,
        "latitude": -18.52982,
        "longitude": -41.2537
    },
    {
        "cityId": 6321450,
        "name": "Itabirito",
        "stateId": 3457153,
        "latitude": -20.23843,
        "longitude": -43.78016
    },
    {
        "cityId": 6321451,
        "name": "Itacambira",
        "stateId": 3457153,
        "latitude": -16.88654,
        "longitude": -43.30766
    },
    {
        "cityId": 6321452,
        "name": "Itacarambi",
        "stateId": 3457153,
        "latitude": -15.19482,
        "longitude": -44.12672
    },
    {
        "cityId": 6321453,
        "name": "Itaguara",
        "stateId": 3457153,
        "latitude": -20.37868,
        "longitude": -44.54609
    },
    {
        "cityId": 6321454,
        "name": "Itaip\u00e9",
        "stateId": 3457153,
        "latitude": -17.42738,
        "longitude": -41.65509
    },
    {
        "cityId": 6321455,
        "name": "Itajub\u00e1",
        "stateId": 3457153,
        "latitude": -22.42051,
        "longitude": -45.42137
    },
    {
        "cityId": 6321456,
        "name": "Itamarandiba",
        "stateId": 3457153,
        "latitude": -17.85429,
        "longitude": -42.89409
    },
    {
        "cityId": 6321460,
        "name": "Itamogi",
        "stateId": 3457153,
        "latitude": -21.08608,
        "longitude": -47.05061
    },
    {
        "cityId": 6321462,
        "name": "Itanhandu",
        "stateId": 3457153,
        "latitude": -22.32469,
        "longitude": -44.91314
    },
    {
        "cityId": 6321463,
        "name": "Itanhomi",
        "stateId": 3457153,
        "latitude": -19.15484,
        "longitude": -41.83333
    },
    {
        "cityId": 6321465,
        "name": "Itapagipe",
        "stateId": 3457153,
        "latitude": -19.75086,
        "longitude": -49.42853
    },
    {
        "cityId": 6321466,
        "name": "Itapecerica",
        "stateId": 3457153,
        "latitude": -20.45398,
        "longitude": -45.08814
    },
    {
        "cityId": 6321467,
        "name": "Itapeva",
        "stateId": 3457153,
        "latitude": -22.69829,
        "longitude": -46.21291
    },
    {
        "cityId": 6321471,
        "name": "Itaverava",
        "stateId": 3457153,
        "latitude": -20.70813,
        "longitude": -43.59276
    },
    {
        "cityId": 6321472,
        "name": "Itinga",
        "stateId": 3457153,
        "latitude": -16.60721,
        "longitude": -41.83181
    },
    {
        "cityId": 6321477,
        "name": "Itutinga",
        "stateId": 3457153,
        "latitude": -21.34817,
        "longitude": -44.72387
    },
    {
        "cityId": 6321478,
        "name": "Jaboticatubas",
        "stateId": 3457153,
        "latitude": -19.41909,
        "longitude": -43.74554
    },
    {
        "cityId": 6321479,
        "name": "Jacinto",
        "stateId": 3457153,
        "latitude": -16.19209,
        "longitude": -40.33175
    },
    {
        "cityId": 6321480,
        "name": "Jacu\u00ed",
        "stateId": 3457153,
        "latitude": -21.01103,
        "longitude": -46.71842
    },
    {
        "cityId": 6321481,
        "name": "Jacutinga",
        "stateId": 3457153,
        "latitude": -22.29632,
        "longitude": -46.61044
    },
    {
        "cityId": 6321482,
        "name": "Jaguara\u00e7u",
        "stateId": 3457153,
        "latitude": -19.63591,
        "longitude": -42.71705
    },
    {
        "cityId": 6321483,
        "name": "Ja\u00edba",
        "stateId": 3457153,
        "latitude": -15.21645,
        "longitude": -43.67032
    },
    {
        "cityId": 6321484,
        "name": "Jampruca",
        "stateId": 3457153,
        "latitude": -18.47226,
        "longitude": -41.75735
    },
    {
        "cityId": 6321485,
        "name": "Jana\u00faba",
        "stateId": 3457153,
        "latitude": -15.77877,
        "longitude": -43.36757
    },
    {
        "cityId": 6321486,
        "name": "Janu\u00e1ria",
        "stateId": 3457153,
        "latitude": -15.32133,
        "longitude": -45.20135
    },
    {
        "cityId": 6321487,
        "name": "Japara\u00edba",
        "stateId": 3457153,
        "latitude": -20.12931,
        "longitude": -45.53733
    },
    {
        "cityId": 6321488,
        "name": "Japonvar",
        "stateId": 3457153,
        "latitude": -15.9472,
        "longitude": -44.34835
    },
    {
        "cityId": 6321489,
        "name": "Jeceaba",
        "stateId": 3457153,
        "latitude": -20.55578,
        "longitude": -44.03107
    },
    {
        "cityId": 6321490,
        "name": "Jenipapo de Minas",
        "stateId": 3457153,
        "latitude": -17.18727,
        "longitude": -42.21222
    },
    {
        "cityId": 6321491,
        "name": "Jequeri",
        "stateId": 3457153,
        "latitude": -20.48079,
        "longitude": -42.61567
    },
    {
        "cityId": 6321492,
        "name": "Jequita\u00ed",
        "stateId": 3457153,
        "latitude": -17.16894,
        "longitude": -44.46191
    },
    {
        "cityId": 6321493,
        "name": "Jequitib\u00e1",
        "stateId": 3457153,
        "latitude": -19.21472,
        "longitude": -44.03049
    },
    {
        "cityId": 6321494,
        "name": "Jequitinhonha",
        "stateId": 3457153,
        "latitude": -16.40683,
        "longitude": -41.05778
    },
    {
        "cityId": 6321495,
        "name": "Jesu\u00e2nia",
        "stateId": 3457153,
        "latitude": -22.00846,
        "longitude": -45.28235
    },
    {
        "cityId": 6321496,
        "name": "Joa\u00edma",
        "stateId": 3457153,
        "latitude": -16.80375,
        "longitude": -41.01105
    },
    {
        "cityId": 6321497,
        "name": "Joan\u00e9sia",
        "stateId": 3457153,
        "latitude": -19.20319,
        "longitude": -42.70665
    },
    {
        "cityId": 6321498,
        "name": "Jo\u00e3o Monlevade",
        "stateId": 3457153,
        "latitude": -19.83861,
        "longitude": -43.15561
    },
    {
        "cityId": 6321499,
        "name": "Jo\u00e3o Pinheiro",
        "stateId": 3457153,
        "latitude": -17.55732,
        "longitude": -45.97307
    },
    {
        "cityId": 6321500,
        "name": "Joaquim Fel\u00edcio",
        "stateId": 3457153,
        "latitude": -17.62324,
        "longitude": -44.09366
    },
    {
        "cityId": 6321501,
        "name": "Jord\u00e2nia",
        "stateId": 3457153,
        "latitude": -15.87487,
        "longitude": -40.30532
    },
    {
        "cityId": 6321502,
        "name": "Jos\u00e9 Gon\u00e7alves de Minas",
        "stateId": 3457153,
        "latitude": -16.90496,
        "longitude": -42.66905
    },
    {
        "cityId": 6321503,
        "name": "Jos\u00e9 Raydan",
        "stateId": 3457153,
        "latitude": -18.26371,
        "longitude": -42.46528
    },
    {
        "cityId": 6321504,
        "name": "Josen\u00f3polis",
        "stateId": 3457153,
        "latitude": -16.55307,
        "longitude": -42.51701
    },
    {
        "cityId": 6321505,
        "name": "Nova Uni\u00e3o",
        "stateId": 3457153,
        "latitude": -19.64356,
        "longitude": -43.57796
    },
    {
        "cityId": 6321506,
        "name": "Juatuba",
        "stateId": 3457153,
        "latitude": -19.95979,
        "longitude": -44.35295
    },
    {
        "cityId": 6321507,
        "name": "Juramento",
        "stateId": 3457153,
        "latitude": -16.83343,
        "longitude": -43.58833
    },
    {
        "cityId": 6321508,
        "name": "Juruaia",
        "stateId": 3457153,
        "latitude": -21.22649,
        "longitude": -46.51449
    },
    {
        "cityId": 6321509,
        "name": "Juven\u00edlia",
        "stateId": 3457153,
        "latitude": -14.3993,
        "longitude": -43.95055
    },
    {
        "cityId": 6321510,
        "name": "Ladainha",
        "stateId": 3457153,
        "latitude": -17.64365,
        "longitude": -41.83262
    },
    {
        "cityId": 6321511,
        "name": "Lagamar",
        "stateId": 3457153,
        "latitude": -17.97706,
        "longitude": -46.70095
    },
    {
        "cityId": 6321512,
        "name": "Lagoa da Prata",
        "stateId": 3457153,
        "latitude": -19.99802,
        "longitude": -45.49952
    },
    {
        "cityId": 6321513,
        "name": "Lagoa dos Patos",
        "stateId": 3457153,
        "latitude": -17.01433,
        "longitude": -44.66633
    },
    {
        "cityId": 6321514,
        "name": "Lagoa Dourada",
        "stateId": 3457153,
        "latitude": -20.91034,
        "longitude": -44.06512
    },
    {
        "cityId": 6321515,
        "name": "Lagoa Formosa",
        "stateId": 3457153,
        "latitude": -18.76494,
        "longitude": -46.29006
    },
    {
        "cityId": 6321516,
        "name": "Lagoa Grande",
        "stateId": 3457153,
        "latitude": -17.74523,
        "longitude": -46.53558
    },
    {
        "cityId": 6321517,
        "name": "Lagoa Santa",
        "stateId": 3457153,
        "latitude": -19.62683,
        "longitude": -43.87993
    },
    {
        "cityId": 6321518,
        "name": "Lajinha",
        "stateId": 3457153,
        "latitude": -20.12411,
        "longitude": -41.61531
    },
    {
        "cityId": 6321521,
        "name": "Laranjal",
        "stateId": 3457153,
        "latitude": -21.3592,
        "longitude": -42.45663
    },
    {
        "cityId": 6321523,
        "name": "Lavras",
        "stateId": 3457153,
        "latitude": -21.26738,
        "longitude": -45.0419
    },
    {
        "cityId": 6321524,
        "name": "Leandro Ferreira",
        "stateId": 3457153,
        "latitude": -19.67492,
        "longitude": -45.06134
    },
    {
        "cityId": 6321525,
        "name": "Leme do Prado",
        "stateId": 3457153,
        "latitude": -17.05253,
        "longitude": -42.74591
    },
    {
        "cityId": 6321526,
        "name": "Leopoldina",
        "stateId": 3457153,
        "latitude": -21.53489,
        "longitude": -42.64473
    },
    {
        "cityId": 6321531,
        "name": "Luisburgo",
        "stateId": 3457153,
        "latitude": -20.44641,
        "longitude": -42.07286
    },
    {
        "cityId": 6321534,
        "name": "Luz",
        "stateId": 3457153,
        "latitude": -19.8419,
        "longitude": -45.67539
    },
    {
        "cityId": 6321535,
        "name": "Machacalis",
        "stateId": 3457153,
        "latitude": -17.0881,
        "longitude": -40.71826
    },
    {
        "cityId": 6321537,
        "name": "Malacacheta",
        "stateId": 3457153,
        "latitude": -17.838,
        "longitude": -42.08895
    },
    {
        "cityId": 6321539,
        "name": "Manga",
        "stateId": 3457153,
        "latitude": -14.65871,
        "longitude": -44.12621
    },
    {
        "cityId": 6321540,
        "name": "Manhua\u00e7u",
        "stateId": 3457153,
        "latitude": -20.18647,
        "longitude": -42.08653
    },
    {
        "cityId": 6321541,
        "name": "Manhumirim",
        "stateId": 3457153,
        "latitude": -20.34755,
        "longitude": -41.93559
    },
    {
        "cityId": 6321543,
        "name": "Maravilhas",
        "stateId": 3457153,
        "latitude": -19.51232,
        "longitude": -44.67995
    },
    {
        "cityId": 6321544,
        "name": "Maria da F\u00e9",
        "stateId": 3457153,
        "latitude": -22.32718,
        "longitude": -45.3172
    },
    {
        "cityId": 6321548,
        "name": "Marip\u00e1 de Minas",
        "stateId": 3457153,
        "latitude": -21.70096,
        "longitude": -42.95929
    },
    {
        "cityId": 6321550,
        "name": "Marmel\u00f3polis",
        "stateId": 3457153,
        "latitude": -22.4597,
        "longitude": -45.16973
    },
    {
        "cityId": 6321551,
        "name": "Martinho Campos",
        "stateId": 3457153,
        "latitude": -19.42013,
        "longitude": -45.17974
    },
    {
        "cityId": 6321553,
        "name": "Mata Verde",
        "stateId": 3457153,
        "latitude": -15.76794,
        "longitude": -40.69882
    },
    {
        "cityId": 6321558,
        "name": "Mato Verde",
        "stateId": 3457153,
        "latitude": -15.42884,
        "longitude": -42.87463
    },
    {
        "cityId": 6321559,
        "name": "Matozinhos",
        "stateId": 3457153,
        "latitude": -19.5207,
        "longitude": -44.05031
    },
    {
        "cityId": 6321565,
        "name": "Mesquita",
        "stateId": 3457153,
        "latitude": -19.24964,
        "longitude": -42.61603
    },
    {
        "cityId": 6321566,
        "name": "Minas Novas",
        "stateId": 3457153,
        "latitude": -17.355,
        "longitude": -42.40892
    },
    {
        "cityId": 6321571,
        "name": "Mirav\u00e2nia",
        "stateId": 3457153,
        "latitude": -14.75285,
        "longitude": -44.42057
    },
    {
        "cityId": 6321574,
        "name": "Monjolos",
        "stateId": 3457153,
        "latitude": -18.37562,
        "longitude": -44.02596
    },
    {
        "cityId": 6321575,
        "name": "Monsenhor Paulo",
        "stateId": 3457153,
        "latitude": -21.72267,
        "longitude": -45.46795
    },
    {
        "cityId": 6321576,
        "name": "Montalv\u00e2nia",
        "stateId": 3457153,
        "latitude": -14.41086,
        "longitude": -44.44214
    },
    {
        "cityId": 6321577,
        "name": "Monte Alegre de Minas",
        "stateId": 3457153,
        "latitude": -18.81882,
        "longitude": -48.91823
    },
    {
        "cityId": 6321578,
        "name": "Monte Azul",
        "stateId": 3457153,
        "latitude": -15.21266,
        "longitude": -43.02334
    },
    {
        "cityId": 6321581,
        "name": "Monte Formoso",
        "stateId": 3457153,
        "latitude": -16.87599,
        "longitude": -41.27134
    },
    {
        "cityId": 6321584,
        "name": "Montezuma",
        "stateId": 3457153,
        "latitude": -15.19248,
        "longitude": -42.48132
    },
    {
        "cityId": 6321585,
        "name": "Morada Nova de Minas",
        "stateId": 3457153,
        "latitude": -18.56612,
        "longitude": -45.47222
    },
    {
        "cityId": 6321586,
        "name": "Morro da Gar\u00e7a",
        "stateId": 3457153,
        "latitude": -18.61746,
        "longitude": -44.63238
    },
    {
        "cityId": 6321588,
        "name": "Munhoz",
        "stateId": 3457153,
        "latitude": -22.62898,
        "longitude": -46.30889
    },
    {
        "cityId": 6321591,
        "name": "Muzambinho",
        "stateId": 3457153,
        "latitude": -21.3524,
        "longitude": -46.51842
    },
    {
        "cityId": 6321592,
        "name": "Nacip Raydan",
        "stateId": 3457153,
        "latitude": -18.47447,
        "longitude": -42.17506
    },
    {
        "cityId": 6321593,
        "name": "Nanuque",
        "stateId": 3457153,
        "latitude": -17.73565,
        "longitude": -40.44441
    },
    {
        "cityId": 6321594,
        "name": "Naque",
        "stateId": 3457153,
        "latitude": -19.18321,
        "longitude": -42.33843
    },
    {
        "cityId": 6321597,
        "name": "Nazareno",
        "stateId": 3457153,
        "latitude": -21.20793,
        "longitude": -44.60851
    },
    {
        "cityId": 6321599,
        "name": "Ninheira",
        "stateId": 3457153,
        "latitude": -15.42231,
        "longitude": -41.65775
    },
    {
        "cityId": 6321600,
        "name": "Nova Bel\u00e9m",
        "stateId": 3457153,
        "latitude": -18.49977,
        "longitude": -41.11879
    },
    {
        "cityId": 6321601,
        "name": "Nova Era",
        "stateId": 3457153,
        "latitude": -19.7097,
        "longitude": -43.01401
    },
    {
        "cityId": 6321602,
        "name": "Nova Lima",
        "stateId": 3457153,
        "latitude": -20.06957,
        "longitude": -43.89094
    },
    {
        "cityId": 6321603,
        "name": "Nova M\u00f3dica",
        "stateId": 3457153,
        "latitude": -18.45009,
        "longitude": -41.51304
    },
    {
        "cityId": 6321604,
        "name": "Nova Ponte",
        "stateId": 3457153,
        "latitude": -19.28646,
        "longitude": -47.71367
    },
    {
        "cityId": 6321605,
        "name": "Nova Porteirinha",
        "stateId": 3457153,
        "latitude": -15.71578,
        "longitude": -43.28155
    },
    {
        "cityId": 6321606,
        "name": "Nova Resende",
        "stateId": 3457153,
        "latitude": -21.09898,
        "longitude": -46.41684
    },
    {
        "cityId": 6321607,
        "name": "Nova Serrana",
        "stateId": 3457153,
        "latitude": -19.84529,
        "longitude": -44.97669
    },
    {
        "cityId": 6321608,
        "name": "Novo Cruzeiro",
        "stateId": 3457153,
        "latitude": -17.39233,
        "longitude": -41.96978
    },
    {
        "cityId": 6321609,
        "name": "Novo Oriente de Minas",
        "stateId": 3457153,
        "latitude": -17.25169,
        "longitude": -41.22927
    },
    {
        "cityId": 6321610,
        "name": "Novorizonte",
        "stateId": 3457153,
        "latitude": -16.01733,
        "longitude": -42.38889
    },
    {
        "cityId": 6321612,
        "name": "Olhos-d'\u00c1gua",
        "stateId": 3457153,
        "latitude": -17.48888,
        "longitude": -43.54347
    },
    {
        "cityId": 6321613,
        "name": "Ol\u00edmpio Noronha",
        "stateId": 3457153,
        "latitude": -22.08551,
        "longitude": -45.2873
    },
    {
        "cityId": 6321614,
        "name": "Oliveira",
        "stateId": 3457153,
        "latitude": -20.7382,
        "longitude": -44.71612
    },
    {
        "cityId": 6321615,
        "name": "Oliveira Fortes",
        "stateId": 3457153,
        "latitude": -21.33869,
        "longitude": -43.51985
    },
    {
        "cityId": 6321616,
        "name": "On\u00e7a de Pitangui",
        "stateId": 3457153,
        "latitude": -19.71041,
        "longitude": -44.74654
    },
    {
        "cityId": 6321618,
        "name": "Oriz\u00e2nia",
        "stateId": 3457153,
        "latitude": -20.50549,
        "longitude": -42.21156
    },
    {
        "cityId": 6321621,
        "name": "Ouro Verde de Minas",
        "stateId": 3457153,
        "latitude": -18.03431,
        "longitude": -41.29473
    },
    {
        "cityId": 6321622,
        "name": "Padre Carvalho",
        "stateId": 3457153,
        "latitude": -16.26316,
        "longitude": -42.60251
    },
    {
        "cityId": 6321627,
        "name": "Paiva",
        "stateId": 3457153,
        "latitude": -21.28809,
        "longitude": -43.41715
    },
    {
        "cityId": 6321630,
        "name": "Papagaios",
        "stateId": 3457153,
        "latitude": -19.39686,
        "longitude": -44.69502
    },
    {
        "cityId": 6321633,
        "name": "Paragua\u00e7u",
        "stateId": 3457153,
        "latitude": -21.58081,
        "longitude": -45.74296
    },
    {
        "cityId": 6321637,
        "name": "Passa Quatro",
        "stateId": 3457153,
        "latitude": -22.40871,
        "longitude": -44.95994
    },
    {
        "cityId": 6321639,
        "name": "Passa-Vinte",
        "stateId": 3457153,
        "latitude": -22.17877,
        "longitude": -44.26002
    },
    {
        "cityId": 6321646,
        "name": "Pav\u00e3o",
        "stateId": 3457153,
        "latitude": -17.4678,
        "longitude": -41.07743
    },
    {
        "cityId": 6321647,
        "name": "Pe\u00e7anha",
        "stateId": 3457153,
        "latitude": -18.5454,
        "longitude": -42.49385
    },
    {
        "cityId": 6321648,
        "name": "Pedra Azul",
        "stateId": 3457153,
        "latitude": -15.96404,
        "longitude": -41.22145
    },
    {
        "cityId": 6321653,
        "name": "Pedralva",
        "stateId": 3457153,
        "latitude": -22.25067,
        "longitude": -45.45324
    },
    {
        "cityId": 6321654,
        "name": "Pedras de Maria da Cruz",
        "stateId": 3457153,
        "latitude": -15.63347,
        "longitude": -44.30841
    },
    {
        "cityId": 6321657,
        "name": "Pedro Teixeira",
        "stateId": 3457153,
        "latitude": -21.728,
        "longitude": -43.72046
    },
    {
        "cityId": 6321658,
        "name": "Pequeri",
        "stateId": 3457153,
        "latitude": -21.81623,
        "longitude": -43.14007
    },
    {
        "cityId": 6321659,
        "name": "Pequi",
        "stateId": 3457153,
        "latitude": -19.61044,
        "longitude": -44.63355
    },
    {
        "cityId": 6321661,
        "name": "Perdizes",
        "stateId": 3457153,
        "latitude": -19.36522,
        "longitude": -47.15986
    },
    {
        "cityId": 6321663,
        "name": "Periquito",
        "stateId": 3457153,
        "latitude": -19.04695,
        "longitude": -42.21606
    },
    {
        "cityId": 6321667,
        "name": "Piedade de Ponte Nova",
        "stateId": 3457153,
        "latitude": -20.2441,
        "longitude": -42.71587
    },
    {
        "cityId": 6321674,
        "name": "Pirajuba",
        "stateId": 3457153,
        "latitude": -19.94073,
        "longitude": -48.70306
    },
    {
        "cityId": 6321677,
        "name": "Piranguinho",
        "stateId": 3457153,
        "latitude": -22.34876,
        "longitude": -45.59462
    },
    {
        "cityId": 6321682,
        "name": "Piumhi",
        "stateId": 3457153,
        "latitude": -20.43261,
        "longitude": -46.06077
    },
    {
        "cityId": 6321684,
        "name": "Po\u00e7o Fundo",
        "stateId": 3457153,
        "latitude": -21.82067,
        "longitude": -45.98826
    },
    {
        "cityId": 6321688,
        "name": "Ponte Nova",
        "stateId": 3457153,
        "latitude": -20.40703,
        "longitude": -42.92058
    },
    {
        "cityId": 6321689,
        "name": "Ponto Chique",
        "stateId": 3457153,
        "latitude": -16.63769,
        "longitude": -44.93803
    },
    {
        "cityId": 6321690,
        "name": "Ponto dos Volantes",
        "stateId": 3457153,
        "latitude": -16.8544,
        "longitude": -41.46344
    },
    {
        "cityId": 6321691,
        "name": "Porteirinha",
        "stateId": 3457153,
        "latitude": -15.6869,
        "longitude": -43.14041
    },
    {
        "cityId": 6321692,
        "name": "Porto Firme",
        "stateId": 3457153,
        "latitude": -20.66732,
        "longitude": -43.06871
    },
    {
        "cityId": 6321698,
        "name": "Pratinha",
        "stateId": 3457153,
        "latitude": -19.74704,
        "longitude": -46.42881
    },
    {
        "cityId": 6321700,
        "name": "Presidente Juscelino",
        "stateId": 3457153,
        "latitude": -18.73883,
        "longitude": -44.07767
    },
    {
        "cityId": 6321701,
        "name": "Presidente Kubitschek",
        "stateId": 3457153,
        "latitude": -18.64982,
        "longitude": -43.57979
    },
    {
        "cityId": 6321703,
        "name": "Alto Jequitib\u00e1",
        "stateId": 3457153,
        "latitude": -20.43703,
        "longitude": -41.95113
    },
    {
        "cityId": 6321705,
        "name": "Quartel Geral",
        "stateId": 3457153,
        "latitude": -19.28715,
        "longitude": -45.58434
    },
    {
        "cityId": 6321706,
        "name": "Queluzito",
        "stateId": 3457153,
        "latitude": -20.73147,
        "longitude": -43.89355
    },
    {
        "cityId": 6321713,
        "name": "Ressaquinha",
        "stateId": 3457153,
        "latitude": -21.09458,
        "longitude": -43.78435
    },
    {
        "cityId": 6321714,
        "name": "Riachinho",
        "stateId": 3457153,
        "latitude": -16.24455,
        "longitude": -45.89421
    },
    {
        "cityId": 6321715,
        "name": "Riacho dos Machados",
        "stateId": 3457153,
        "latitude": -16.06608,
        "longitude": -42.97549
    },
    {
        "cityId": 6321716,
        "name": "Ribeir\u00e3o das Neves",
        "stateId": 3457153,
        "latitude": -19.77148,
        "longitude": -44.06963
    },
    {
        "cityId": 6321717,
        "name": "Ribeir\u00e3o Vermelho",
        "stateId": 3457153,
        "latitude": -21.15385,
        "longitude": -45.07881
    },
    {
        "cityId": 6321724,
        "name": "Rio Novo",
        "stateId": 3457153,
        "latitude": -21.47241,
        "longitude": -43.15069
    },
    {
        "cityId": 6321730,
        "name": "Rio Vermelho",
        "stateId": 3457153,
        "latitude": -18.26867,
        "longitude": -43.07424
    },
    {
        "cityId": 6321732,
        "name": "Rochedo de Minas",
        "stateId": 3457153,
        "latitude": -21.64268,
        "longitude": -43.03311
    },
    {
        "cityId": 6321742,
        "name": "Salto da Divisa",
        "stateId": 3457153,
        "latitude": -16.08589,
        "longitude": -40.04463
    },
    {
        "cityId": 6321745,
        "name": "Santa B\u00e1rbara do Monte Verde",
        "stateId": 3457153,
        "latitude": -21.9769,
        "longitude": -43.69324
    },
    {
        "cityId": 6321746,
        "name": "Santa Cruz de Minas",
        "stateId": 3457153,
        "latitude": -21.12001,
        "longitude": -44.21369
    },
    {
        "cityId": 6321747,
        "name": "Santa Cruz de Salinas",
        "stateId": 3457153,
        "latitude": -16.06175,
        "longitude": -41.79919
    },
    {
        "cityId": 6321748,
        "name": "Santa Cruz do Escalvado",
        "stateId": 3457153,
        "latitude": -20.23339,
        "longitude": -42.8211
    },
    {
        "cityId": 6321749,
        "name": "Santa Efig\u00eania de Minas",
        "stateId": 3457153,
        "latitude": -18.86234,
        "longitude": -42.40032
    },
    {
        "cityId": 6321750,
        "name": "Santa F\u00e9 de Minas",
        "stateId": 3457153,
        "latitude": -16.68124,
        "longitude": -45.59725
    },
    {
        "cityId": 6321751,
        "name": "Santa Helena de Minas",
        "stateId": 3457153,
        "latitude": -16.90289,
        "longitude": -40.66215
    },
    {
        "cityId": 6321752,
        "name": "Santa Juliana",
        "stateId": 3457153,
        "latitude": -19.35572,
        "longitude": -47.53705
    },
    {
        "cityId": 6321753,
        "name": "Santa Luzia",
        "stateId": 3457153,
        "latitude": -19.73544,
        "longitude": -43.82647
    },
    {
        "cityId": 6321758,
        "name": "Santana da Vargem",
        "stateId": 3457153,
        "latitude": -21.26761,
        "longitude": -45.48969
    },
    {
        "cityId": 6321763,
        "name": "Santana do Jacar\u00e9",
        "stateId": 3457153,
        "latitude": -20.88867,
        "longitude": -45.07914
    },
    {
        "cityId": 6321764,
        "name": "Santana do Manhua\u00e7u",
        "stateId": 3457153,
        "latitude": -20.05562,
        "longitude": -41.8977
    },
    {
        "cityId": 6321766,
        "name": "Santana do Riacho",
        "stateId": 3457153,
        "latitude": -19.1842,
        "longitude": -43.6838
    },
    {
        "cityId": 6321769,
        "name": "Santa Rita de Jacutinga",
        "stateId": 3457153,
        "latitude": -22.10905,
        "longitude": -44.10325
    },
    {
        "cityId": 6321775,
        "name": "Santa Vit\u00f3ria",
        "stateId": 3457153,
        "latitude": -19.09193,
        "longitude": -50.29906
    },
    {
        "cityId": 6321777,
        "name": "Santo Ant\u00f4nio do Aventureiro",
        "stateId": 3457153,
        "latitude": -21.74424,
        "longitude": -42.811
    },
    {
        "cityId": 6321780,
        "name": "Santo Ant\u00f4nio do Jacinto",
        "stateId": 3457153,
        "latitude": -16.50934,
        "longitude": -40.27997
    },
    {
        "cityId": 6321783,
        "name": "Santo Ant\u00f4nio do Rio Abaixo",
        "stateId": 3457153,
        "latitude": -19.25051,
        "longitude": -43.253
    },
    {
        "cityId": 6321784,
        "name": "Santo Hip\u00f3lito",
        "stateId": 3457153,
        "latitude": -18.38378,
        "longitude": -44.17728
    },
    {
        "cityId": 6321789,
        "name": "S\u00e3o F\u00e9lix de Minas",
        "stateId": 3457153,
        "latitude": -18.55894,
        "longitude": -41.44459
    },
    {
        "cityId": 6321790,
        "name": "S\u00e3o Francisco de Sales",
        "stateId": 3457153,
        "latitude": -19.77179,
        "longitude": -49.8104
    },
    {
        "cityId": 6321791,
        "name": "S\u00e3o Francisco do Gl\u00f3ria",
        "stateId": 3457153,
        "latitude": -20.78528,
        "longitude": -42.28488
    },
    {
        "cityId": 6321794,
        "name": "S\u00e3o Geraldo do Baixio",
        "stateId": 3457153,
        "latitude": -18.91798,
        "longitude": -41.36253
    },
    {
        "cityId": 6321797,
        "name": "S\u00e3o Gon\u00e7alo do Rio Abaixo",
        "stateId": 3457153,
        "latitude": -19.81182,
        "longitude": -43.32838
    },
    {
        "cityId": 6321800,
        "name": "S\u00e3o Jo\u00e3o Batista do Gl\u00f3ria",
        "stateId": 3457153,
        "latitude": -20.53122,
        "longitude": -46.4458
    },
    {
        "cityId": 6321801,
        "name": "S\u00e3o Jo\u00e3o da Lagoa",
        "stateId": 3457153,
        "latitude": -16.87872,
        "longitude": -44.34205
    },
    {
        "cityId": 6321802,
        "name": "S\u00e3o Jo\u00e3o da Mata",
        "stateId": 3457153,
        "latitude": -21.93521,
        "longitude": -45.933
    },
    {
        "cityId": 6321803,
        "name": "S\u00e3o Jo\u00e3o da Ponte",
        "stateId": 3457153,
        "latitude": -15.90314,
        "longitude": -43.83053
    },
    {
        "cityId": 6321804,
        "name": "S\u00e3o Jo\u00e3o das Miss\u00f5es",
        "stateId": 3457153,
        "latitude": -14.88665,
        "longitude": -44.21265
    },
    {
        "cityId": 6321805,
        "name": "S\u00e3o Jo\u00e3o del Rei",
        "stateId": 3457153,
        "latitude": -21.25033,
        "longitude": -44.24481
    },
    {
        "cityId": 6321806,
        "name": "S\u00e3o Jo\u00e3o do Manhua\u00e7u",
        "stateId": 3457153,
        "latitude": -20.38351,
        "longitude": -42.15632
    },
    {
        "cityId": 6321807,
        "name": "S\u00e3o Jo\u00e3o do Manteninha",
        "stateId": 3457153,
        "latitude": -18.7395,
        "longitude": -41.15749
    },
    {
        "cityId": 6321808,
        "name": "S\u00e3o Jo\u00e3o do Oriente",
        "stateId": 3457153,
        "latitude": -19.34848,
        "longitude": -42.17407
    },
    {
        "cityId": 6321809,
        "name": "S\u00e3o Jo\u00e3o do Pacu\u00ed",
        "stateId": 3457153,
        "latitude": -16.53392,
        "longitude": -44.54062
    },
    {
        "cityId": 6321810,
        "name": "S\u00e3o Jo\u00e3o do Para\u00edso",
        "stateId": 3457153,
        "latitude": -15.37652,
        "longitude": -41.95693
    },
    {
        "cityId": 6321811,
        "name": "S\u00e3o Jo\u00e3o Evangelista",
        "stateId": 3457153,
        "latitude": -18.50849,
        "longitude": -42.78221
    },
    {
        "cityId": 6321812,
        "name": "S\u00e3o Jo\u00e3o Nepomuceno",
        "stateId": 3457153,
        "latitude": -21.58615,
        "longitude": -43.01503
    },
    {
        "cityId": 6321813,
        "name": "S\u00e3o Joaquim de Bicas",
        "stateId": 3457153,
        "latitude": -20.05781,
        "longitude": -44.24979
    },
    {
        "cityId": 6321814,
        "name": "S\u00e3o Jos\u00e9 da Barra",
        "stateId": 3457153,
        "latitude": -20.7505,
        "longitude": -46.28526
    },
    {
        "cityId": 6321815,
        "name": "S\u00e3o Jos\u00e9 da Lapa",
        "stateId": 3457153,
        "latitude": -19.69017,
        "longitude": -43.99106
    },
    {
        "cityId": 6321816,
        "name": "S\u00e3o Jos\u00e9 da Safira",
        "stateId": 3457153,
        "latitude": -18.33059,
        "longitude": -42.10391
    },
    {
        "cityId": 6321817,
        "name": "S\u00e3o Jos\u00e9 da Varginha",
        "stateId": 3457153,
        "latitude": -19.6891,
        "longitude": -44.55308
    },
    {
        "cityId": 6321818,
        "name": "S\u00e3o Jos\u00e9 do Alegre",
        "stateId": 3457153,
        "latitude": -22.34058,
        "longitude": -45.52023
    },
    {
        "cityId": 6321819,
        "name": "S\u00e3o Jos\u00e9 do Divino",
        "stateId": 3457153,
        "latitude": -18.40103,
        "longitude": -41.37248
    },
    {
        "cityId": 6321820,
        "name": "S\u00e3o Jos\u00e9 do Goiabal",
        "stateId": 3457153,
        "latitude": -19.9236,
        "longitude": -42.69184
    },
    {
        "cityId": 6321821,
        "name": "S\u00e3o Jos\u00e9 do Jacuri",
        "stateId": 3457153,
        "latitude": -18.2516,
        "longitude": -42.67396
    },
    {
        "cityId": 6321822,
        "name": "S\u00e3o Jos\u00e9 do Mantimento",
        "stateId": 3457153,
        "latitude": -20.02453,
        "longitude": -41.76334
    },
    {
        "cityId": 6321826,
        "name": "S\u00e3o Pedro dos Ferros",
        "stateId": 3457153,
        "latitude": -20.06522,
        "longitude": -42.56304
    },
    {
        "cityId": 6321829,
        "name": "S\u00e3o Roque de Minas",
        "stateId": 3457153,
        "latitude": -20.16741,
        "longitude": -46.47292
    },
    {
        "cityId": 6321830,
        "name": "S\u00e3o Sebasti\u00e3o da Bela Vista",
        "stateId": 3457153,
        "latitude": -22.16425,
        "longitude": -45.78515
    },
    {
        "cityId": 6321831,
        "name": "S\u00e3o Sebasti\u00e3o da Vargem Alegre",
        "stateId": 3457153,
        "latitude": -21.02882,
        "longitude": -42.59877
    },
    {
        "cityId": 6321833,
        "name": "S\u00e3o Sebasti\u00e3o do Maranh\u00e3o",
        "stateId": 3457153,
        "latitude": -18.06833,
        "longitude": -42.5373
    },
    {
        "cityId": 6321837,
        "name": "S\u00e3o Sebasti\u00e3o do Rio Verde",
        "stateId": 3457153,
        "latitude": -22.21276,
        "longitude": -45.02049
    },
    {
        "cityId": 6321839,
        "name": "S\u00e3o Tom\u00e1s de Aquino",
        "stateId": 3457153,
        "latitude": -20.80317,
        "longitude": -47.13081
    },
    {
        "cityId": 6321840,
        "name": "S\u00e3o Thom\u00e9 das Letras",
        "stateId": 3457153,
        "latitude": -21.73939,
        "longitude": -44.96812
    },
    {
        "cityId": 6321841,
        "name": "S\u00e3o Vicente de Minas",
        "stateId": 3457153,
        "latitude": -21.67023,
        "longitude": -44.4665
    },
    {
        "cityId": 6321844,
        "name": "Sarzedo",
        "stateId": 3457153,
        "latitude": -20.04463,
        "longitude": -44.13442
    },
    {
        "cityId": 6321845,
        "name": "Setubinha",
        "stateId": 3457153,
        "latitude": -17.66692,
        "longitude": -42.19505
    },
    {
        "cityId": 6321846,
        "name": "Sem-Peixe",
        "stateId": 3457153,
        "latitude": -20.07337,
        "longitude": -42.81556
    },
    {
        "cityId": 6321849,
        "name": "Senador Firmino",
        "stateId": 3457153,
        "latitude": -20.8968,
        "longitude": -43.11033
    },
    {
        "cityId": 6321850,
        "name": "Senador Jos\u00e9 Bento",
        "stateId": 3457153,
        "latitude": -22.15837,
        "longitude": -46.14282
    },
    {
        "cityId": 6321851,
        "name": "Senador Modestino Gon\u00e7alves",
        "stateId": 3457153,
        "latitude": -17.91341,
        "longitude": -43.21328
    },
    {
        "cityId": 6321852,
        "name": "Senhora de Oliveira",
        "stateId": 3457153,
        "latitude": -20.8018,
        "longitude": -43.34536
    },
    {
        "cityId": 6321853,
        "name": "Senhora do Porto",
        "stateId": 3457153,
        "latitude": -18.90274,
        "longitude": -43.08578
    },
    {
        "cityId": 6321854,
        "name": "Senhora dos Rem\u00e9dios",
        "stateId": 3457153,
        "latitude": -21.02878,
        "longitude": -43.5968
    },
    {
        "cityId": 6321857,
        "name": "Serra Azul de Minas",
        "stateId": 3457153,
        "latitude": -18.38225,
        "longitude": -43.20251
    },
    {
        "cityId": 6321866,
        "name": "Silveir\u00e2nia",
        "stateId": 3457153,
        "latitude": -21.14447,
        "longitude": -43.19826
    },
    {
        "cityId": 6321867,
        "name": "Silvian\u00f3polis",
        "stateId": 3457153,
        "latitude": -22.05297,
        "longitude": -45.81579
    },
    {
        "cityId": 6321877,
        "name": "Taquara\u00e7u de Minas",
        "stateId": 3457153,
        "latitude": -19.63354,
        "longitude": -43.69161
    },
    {
        "cityId": 6321879,
        "name": "Teixeiras",
        "stateId": 3457153,
        "latitude": -20.63003,
        "longitude": -42.85443
    },
    {
        "cityId": 6321880,
        "name": "Te\u00f3filo Otoni",
        "stateId": 3457153,
        "latitude": -17.6791,
        "longitude": -41.33738
    },
    {
        "cityId": 6321885,
        "name": "Tocos do Moji",
        "stateId": 3457153,
        "latitude": -22.35665,
        "longitude": -46.14951
    },
    {
        "cityId": 6321909,
        "name": "Varginha",
        "stateId": 3457153,
        "latitude": -21.56577,
        "longitude": -45.41185
    },
    {
        "cityId": 6321910,
        "name": "Varj\u00e3o de MInas",
        "stateId": 3457153,
        "latitude": -18.45617,
        "longitude": -45.89854
    },
    {
        "cityId": 6321911,
        "name": "V\u00e1rzea da Palma",
        "stateId": 3457153,
        "latitude": -17.46025,
        "longitude": -44.74043
    },
    {
        "cityId": 6321912,
        "name": "Varzel\u00e2ndia",
        "stateId": 3457153,
        "latitude": -15.65541,
        "longitude": -43.92043
    },
    {
        "cityId": 6321913,
        "name": "Vazante",
        "stateId": 3457153,
        "latitude": -17.78783,
        "longitude": -46.79546
    },
    {
        "cityId": 6321915,
        "name": "Veredinha",
        "stateId": 3457153,
        "latitude": -17.50571,
        "longitude": -42.74858
    },
    {
        "cityId": 6321917,
        "name": "Vermelho Novo",
        "stateId": 3457153,
        "latitude": -20.03087,
        "longitude": -42.27068
    },
    {
        "cityId": 6321921,
        "name": "Mathias Lobato",
        "stateId": 3457153,
        "latitude": -18.60479,
        "longitude": -41.96192
    },
    {
        "cityId": 6321928,
        "name": "Wenceslau Braz",
        "stateId": 3457153,
        "latitude": -22.53974,
        "longitude": -45.40214
    },
    {
        "cityId": 6324170,
        "name": "Buen\u00f3polis",
        "stateId": 3457153,
        "latitude": -17.87455,
        "longitude": -44.02374
    },
    {
        "cityId": 6324200,
        "name": "Augusto de Lima",
        "stateId": 3457153,
        "latitude": -18.1072,
        "longitude": -44.16792
    },
    {
        "cityId": 6324201,
        "name": "Diamantina",
        "stateId": 3457153,
        "latitude": -17.97795,
        "longitude": -43.60415
    },
    {
        "cityId": 6324231,
        "name": "Gouveia",
        "stateId": 3457153,
        "latitude": -18.5358,
        "longitude": -43.85363
    },
    {
        "cityId": 6324232,
        "name": "Ipanema",
        "stateId": 3457153,
        "latitude": -19.75724,
        "longitude": -41.76801
    },
    {
        "cityId": 6324233,
        "name": "Machado",
        "stateId": 3457153,
        "latitude": -21.69549,
        "longitude": -45.88809
    },
    {
        "cityId": 6324235,
        "name": "S\u00e3o Francisco",
        "stateId": 3457153,
        "latitude": -15.88365,
        "longitude": -44.84306
    },
    {
        "cityId": 6324241,
        "name": "S\u00e3o Francisco de Paula",
        "stateId": 3457153,
        "latitude": -20.71868,
        "longitude": -44.99234
    },
    {
        "cityId": 6324260,
        "name": "Candeias",
        "stateId": 3457153,
        "latitude": -20.73894,
        "longitude": -45.28719
    },
    {
        "cityId": 6324328,
        "name": "Belmiro Braga",
        "stateId": 3457153,
        "latitude": -21.9644,
        "longitude": -43.45933
    }
]