[
    {
        "cityId": "6319148",
        "name": "\u00c1gua Fria de Goi\u00e1s",
        "stateId": "3462372",
        "latitude": -14.96056,
        "longitude": -47.84963
    },
    {
        "cityId": "6319149",
        "name": "Alto Para\u00edso de Goi\u00e1s",
        "stateId": "3462372",
        "latitude": -14.18198,
        "longitude": -47.45902
    },
    {
        "cityId": "6319150",
        "name": "Auril\u00e2ndia",
        "stateId": "3462372",
        "latitude": -16.67681,
        "longitude": -50.52582
    },
    {
        "cityId": "6319151",
        "name": "Baliza",
        "stateId": "3462372",
        "latitude": -16.36672,
        "longitude": -52.43611
    },
    {
        "cityId": "6319152",
        "name": "Chapad\u00e3o do C\u00e9u",
        "stateId": "3462372",
        "latitude": -18.37043,
        "longitude": -52.5656
    },
    {
        "cityId": "6319153",
        "name": "Divin\u00f3polis de Goi\u00e1s",
        "stateId": "3462372",
        "latitude": -13.22378,
        "longitude": -46.52704
    },
    {
        "cityId": "6319154",
        "name": "Santa B\u00e1rbara de Goi\u00e1s",
        "stateId": "3462372",
        "latitude": -16.60228,
        "longitude": -49.68624
    },
    {
        "cityId": "6319155",
        "name": "Santo Ant\u00f4nio do Descoberto",
        "stateId": "3462372",
        "latitude": -16.08073,
        "longitude": -48.29596
    },
    {
        "cityId": "6319156",
        "name": "S\u00e3o Domingos",
        "stateId": "3462372",
        "latitude": -13.53444,
        "longitude": -46.51094
    },
    {
        "cityId": "6319157",
        "name": "S\u00e3o Francisco de Goi\u00e1s",
        "stateId": "3462372",
        "latitude": -15.95223,
        "longitude": -49.24888
    },
    {
        "cityId": "6319158",
        "name": "Senador Canedo",
        "stateId": "3462372",
        "latitude": -16.72322,
        "longitude": -49.10745
    },
    {
        "cityId": "6319159",
        "name": "Serran\u00f3polis",
        "stateId": "3462372",
        "latitude": -18.27044,
        "longitude": -52.24749
    },
    {
        "cityId": "6319160",
        "name": "Simol\u00e2ndia",
        "stateId": "3462372",
        "latitude": -14.43819,
        "longitude": -46.59232
    },
    {
        "cityId": "6319162",
        "name": "Gameleira de Goi\u00e1s",
        "stateId": "3462372",
        "latitude": -16.43131,
        "longitude": -48.67456
    },
    {
        "cityId": "6323890",
        "name": "Abadia de Goi\u00e1s",
        "stateId": "3462372",
        "latitude": -16.77762,
        "longitude": -49.46841
    },
    {
        "cityId": "6323891",
        "name": "Abadi\u00e2nia",
        "stateId": "3462372",
        "latitude": -16.22632,
        "longitude": -48.62681
    },
    {
        "cityId": "6323892",
        "name": "Acre\u00fana",
        "stateId": "3462372",
        "latitude": -17.43605,
        "longitude": -50.26696
    },
    {
        "cityId": "6323893",
        "name": "Adel\u00e2ndia",
        "stateId": "3462372",
        "latitude": -16.38577,
        "longitude": -50.18846
    },
    {
        "cityId": "6323894",
        "name": "\u00c1gua Limpa",
        "stateId": "3462372",
        "latitude": -18.07999,
        "longitude": -48.79951
    },
    {
        "cityId": "6323895",
        "name": "\u00c1guas Lindas de Goi\u00e1s",
        "stateId": "3462372",
        "latitude": -15.76613,
        "longitude": -48.28611
    },
    {
        "cityId": "6323896",
        "name": "Alex\u00e2nia",
        "stateId": "3462372",
        "latitude": -16.14926,
        "longitude": -48.45973
    },
    {
        "cityId": "6323897",
        "name": "Alo\u00e2ndia",
        "stateId": "3462372",
        "latitude": -17.69411,
        "longitude": -49.44985
    },
    {
        "cityId": "6323898",
        "name": "Alto Horizonte",
        "stateId": "3462372",
        "latitude": -14.20236,
        "longitude": -49.435
    },
    {
        "cityId": "6323899",
        "name": "Alvorada do Norte",
        "stateId": "3462372",
        "latitude": -14.52424,
        "longitude": -46.64133
    },
    {
        "cityId": "6323900",
        "name": "Amaralina",
        "stateId": "3462372",
        "latitude": -13.8139,
        "longitude": -49.63205
    },
    {
        "cityId": "6323901",
        "name": "Americano do Brasil",
        "stateId": "3462372",
        "latitude": -16.26498,
        "longitude": -49.99408
    },
    {
        "cityId": "6323902",
        "name": "Amorin\u00f3polis",
        "stateId": "3462372",
        "latitude": -16.6342,
        "longitude": -51.09852
    },
    {
        "cityId": "6323903",
        "name": "Anhanguera",
        "stateId": "3462372",
        "latitude": -18.31505,
        "longitude": -48.2219
    },
    {
        "cityId": "6323904",
        "name": "Anicuns",
        "stateId": "3462372",
        "latitude": -16.38582,
        "longitude": -49.97942
    },
    {
        "cityId": "6323905",
        "name": "Aparecida de Goi\u00e2nia",
        "stateId": "3462372",
        "latitude": -16.83994,
        "longitude": -49.24836
    },
    {
        "cityId": "6323906",
        "name": "Aparecida do Rio Doce",
        "stateId": "3462372",
        "latitude": -18.22963,
        "longitude": -51.2414
    },
    {
        "cityId": "6323907",
        "name": "Apor\u00e9",
        "stateId": "3462372",
        "latitude": -18.74325,
        "longitude": -52.06942
    },
    {
        "cityId": "6323908",
        "name": "Ara\u00e7u",
        "stateId": "3462372",
        "latitude": -16.38304,
        "longitude": -49.70782
    },
    {
        "cityId": "6323909",
        "name": "Aragar\u00e7as",
        "stateId": "3462372",
        "latitude": -15.94743,
        "longitude": -52.08069
    },
    {
        "cityId": "6323910",
        "name": "Aragoi\u00e2nia",
        "stateId": "3462372",
        "latitude": -16.95418,
        "longitude": -49.40598
    },
    {
        "cityId": "6323911",
        "name": "Araguapaz",
        "stateId": "3462372",
        "latitude": -15.12986,
        "longitude": -50.4984
    },
    {
        "cityId": "6323912",
        "name": "Aren\u00f3polis",
        "stateId": "3462372",
        "latitude": -16.36096,
        "longitude": -51.60464
    },
    {
        "cityId": "6323913",
        "name": "Aruan\u00e3",
        "stateId": "3462372",
        "latitude": -14.8102,
        "longitude": -50.94501
    },
    {
        "cityId": "6323914",
        "name": "Avelin\u00f3polis",
        "stateId": "3462372",
        "latitude": -16.49121,
        "longitude": -49.76368
    },
    {
        "cityId": "6323915",
        "name": "Barro Alto",
        "stateId": "3462372",
        "latitude": -14.91276,
        "longitude": -48.87739
    },
    {
        "cityId": "6323916",
        "name": "Bela Vista de Goi\u00e1s",
        "stateId": "3462372",
        "latitude": -16.97413,
        "longitude": -48.91556
    },
    {
        "cityId": "6323917",
        "name": "Bom Jardim de Goi\u00e1s",
        "stateId": "3462372",
        "latitude": -16.27033,
        "longitude": -52.05682
    },
    {
        "cityId": "6323918",
        "name": "Bom Jesus de Goi\u00e1s",
        "stateId": "3462372",
        "latitude": -18.19213,
        "longitude": -49.89536
    },
    {
        "cityId": "6323919",
        "name": "Bonfin\u00f3polis",
        "stateId": "3462372",
        "latitude": -16.59726,
        "longitude": -49.01486
    },
    {
        "cityId": "6323920",
        "name": "Bon\u00f3polis",
        "stateId": "3462372",
        "latitude": -13.57725,
        "longitude": -49.89702
    },
    {
        "cityId": "6323921",
        "name": "Brazabrantes",
        "stateId": "3462372",
        "latitude": -16.37909,
        "longitude": -49.38445
    },
    {
        "cityId": "6323922",
        "name": "Brit\u00e2nia",
        "stateId": "3462372",
        "latitude": -15.21115,
        "longitude": -51.14785
    },
    {
        "cityId": "6323923",
        "name": "Buriti Alegre",
        "stateId": "3462372",
        "latitude": -18.13106,
        "longitude": -49.01342
    },
    {
        "cityId": "6323924",
        "name": "Buriti de Goi\u00e1s",
        "stateId": "3462372",
        "latitude": -16.16439,
        "longitude": -50.42918
    },
    {
        "cityId": "6323925",
        "name": "Buritin\u00f3polis",
        "stateId": "3462372",
        "latitude": -14.40974,
        "longitude": -46.31759
    },
    {
        "cityId": "6323926",
        "name": "Cabeceiras",
        "stateId": "3462372",
        "latitude": -15.73747,
        "longitude": -47.03428
    },
    {
        "cityId": "6323927",
        "name": "Cachoeira Alta",
        "stateId": "3462372",
        "latitude": -18.54284,
        "longitude": -50.98208
    },
    {
        "cityId": "6323928",
        "name": "Cachoeira de Goi\u00e1s",
        "stateId": "3462372",
        "latitude": -16.72507,
        "longitude": -50.68613
    },
    {
        "cityId": "6323929",
        "name": "Cachoeira Dourada",
        "stateId": "3462372",
        "latitude": -18.49516,
        "longitude": -49.65104
    },
    {
        "cityId": "6323930",
        "name": "Ca\u00e7u",
        "stateId": "3462372",
        "latitude": -18.55774,
        "longitude": -51.13037
    },
    {
        "cityId": "6323931",
        "name": "Caiap\u00f4nia",
        "stateId": "3462372",
        "latitude": -16.95987,
        "longitude": -51.79148
    },
    {
        "cityId": "6323932",
        "name": "Caldas Novas",
        "stateId": "3462372",
        "latitude": -17.73126,
        "longitude": -48.65479
    },
    {
        "cityId": "6323933",
        "name": "Caldazinha",
        "stateId": "3462372",
        "latitude": -16.74858,
        "longitude": -49.00064
    },
    {
        "cityId": "6323934",
        "name": "Campestre de Goi\u00e1s",
        "stateId": "3462372",
        "latitude": -16.78337,
        "longitude": -49.70958
    },
    {
        "cityId": "6323935",
        "name": "Campina\u00e7u",
        "stateId": "3462372",
        "latitude": -13.86371,
        "longitude": -48.56754
    },
    {
        "cityId": "6323936",
        "name": "Campinorte",
        "stateId": "3462372",
        "latitude": -14.045,
        "longitude": -48.97524
    },
    {
        "cityId": "6323937",
        "name": "Campo Alegre de Goi\u00e1s",
        "stateId": "3462372",
        "latitude": -17.67336,
        "longitude": -47.77801
    },
    {
        "cityId": "6323938",
        "name": "Campos Belos",
        "stateId": "3462372",
        "latitude": -12.9964,
        "longitude": -46.48779
    },
    {
        "cityId": "6323939",
        "name": "Campos Verdes",
        "stateId": "3462372",
        "latitude": -14.19022,
        "longitude": -49.65835
    },
    {
        "cityId": "6323940",
        "name": "Carmo do Rio Verde",
        "stateId": "3462372",
        "latitude": -15.41646,
        "longitude": -49.72371
    },
    {
        "cityId": "6323941",
        "name": "Castel\u00e2ndia",
        "stateId": "3462372",
        "latitude": -18.15581,
        "longitude": -50.34
    },
    {
        "cityId": "6323942",
        "name": "Catal\u00e3o",
        "stateId": "3462372",
        "latitude": -17.97715,
        "longitude": -47.70192
    },
    {
        "cityId": "6323943",
        "name": "Catura\u00ed",
        "stateId": "3462372",
        "latitude": -16.46981,
        "longitude": -49.59556
    },
    {
        "cityId": "6323944",
        "name": "Cavalcante",
        "stateId": "3462372",
        "latitude": -13.59533,
        "longitude": -47.76062
    },
    {
        "cityId": "6323945",
        "name": "Cezarina",
        "stateId": "3462372",
        "latitude": -17.11818,
        "longitude": -49.72995
    },
    {
        "cityId": "6323946",
        "name": "Cidade Ocidental",
        "stateId": "3462372",
        "latitude": -16.16178,
        "longitude": -47.79998
    },
    {
        "cityId": "6323947",
        "name": "Cocalzinho de Goi\u00e1s",
        "stateId": "3462372",
        "latitude": -15.659,
        "longitude": -48.57595
    },
    {
        "cityId": "6323948",
        "name": "Colinas do Sul",
        "stateId": "3462372",
        "latitude": -14.01221,
        "longitude": -48.05124
    },
    {
        "cityId": "6323949",
        "name": "C\u00f3rrego do Ouro",
        "stateId": "3462372",
        "latitude": -16.39566,
        "longitude": -50.5732
    },
    {
        "cityId": "6323950",
        "name": "Corumb\u00e1 de Goi\u00e1s",
        "stateId": "3462372",
        "latitude": -15.9219,
        "longitude": -48.62979
    },
    {
        "cityId": "6323951",
        "name": "Corumba\u00edba",
        "stateId": "3462372",
        "latitude": -18.16664,
        "longitude": -48.53205
    },
    {
        "cityId": "6323952",
        "name": "Cristalina",
        "stateId": "3462372",
        "latitude": -16.75371,
        "longitude": -47.49756
    },
    {
        "cityId": "6323953",
        "name": "Cristian\u00f3polis",
        "stateId": "3462372",
        "latitude": -17.19669,
        "longitude": -48.68114
    },
    {
        "cityId": "6323954",
        "name": "Crix\u00e1s",
        "stateId": "3462372",
        "latitude": -14.66163,
        "longitude": -50.04241
    },
    {
        "cityId": "6323955",
        "name": "Crom\u00ednia",
        "stateId": "3462372",
        "latitude": -17.24762,
        "longitude": -49.32979
    },
    {
        "cityId": "6323956",
        "name": "Cumari",
        "stateId": "3462372",
        "latitude": -18.31597,
        "longitude": -48.16375
    },
    {
        "cityId": "6323957",
        "name": "Damian\u00f3polis",
        "stateId": "3462372",
        "latitude": -14.54949,
        "longitude": -46.19367
    },
    {
        "cityId": "6323958",
        "name": "Damol\u00e2ndia",
        "stateId": "3462372",
        "latitude": -16.25109,
        "longitude": -49.34505
    },
    {
        "cityId": "6323959",
        "name": "Davin\u00f3polis",
        "stateId": "3462372",
        "latitude": -18.13603,
        "longitude": -47.5775
    },
    {
        "cityId": "6323960",
        "name": "Diorama",
        "stateId": "3462372",
        "latitude": -16.22318,
        "longitude": -51.34971
    },
    {
        "cityId": "6323961",
        "name": "Doverl\u00e2ndia",
        "stateId": "3462372",
        "latitude": -16.87767,
        "longitude": -52.49917
    },
    {
        "cityId": "6323962",
        "name": "Edealina",
        "stateId": "3462372",
        "latitude": -17.4399,
        "longitude": -49.73319
    },
    {
        "cityId": "6323963",
        "name": "Ed\u00e9ia",
        "stateId": "3462372",
        "latitude": -17.55112,
        "longitude": -50.00955
    },
    {
        "cityId": "6323964",
        "name": "Estrela do Norte",
        "stateId": "3462372",
        "latitude": -13.78262,
        "longitude": -49.10026
    },
    {
        "cityId": "6323965",
        "name": "Faina",
        "stateId": "3462372",
        "latitude": -15.43697,
        "longitude": -50.39151
    },
    {
        "cityId": "6323966",
        "name": "Fazenda Nova",
        "stateId": "3462372",
        "latitude": -16.12866,
        "longitude": -50.92604
    },
    {
        "cityId": "6323967",
        "name": "Firmin\u00f3polis",
        "stateId": "3462372",
        "latitude": -16.63738,
        "longitude": -50.32144
    },
    {
        "cityId": "6323968",
        "name": "Flores de Goi\u00e1s",
        "stateId": "3462372",
        "latitude": -14.59003,
        "longitude": -46.87853
    },
    {
        "cityId": "6323969",
        "name": "Formosa",
        "stateId": "3462372",
        "latitude": -15.34529,
        "longitude": -47.19067
    },
    {
        "cityId": "6323970",
        "name": "Formoso",
        "stateId": "3462372",
        "latitude": -13.70339,
        "longitude": -48.87538
    },
    {
        "cityId": "6323971",
        "name": "Goian\u00e1polis",
        "stateId": "3462372",
        "latitude": -16.53041,
        "longitude": -49.08769
    },
    {
        "cityId": "6323972",
        "name": "Goiandira",
        "stateId": "3462372",
        "latitude": -18.10979,
        "longitude": -48.14934
    },
    {
        "cityId": "6323973",
        "name": "Goian\u00e9sia",
        "stateId": "3462372",
        "latitude": -15.31104,
        "longitude": -49.17408
    },
    {
        "cityId": "6323974",
        "name": "Goi\u00e2nia",
        "stateId": "3462372",
        "latitude": -16.64019,
        "longitude": -49.25993
    },
    {
        "cityId": "6323975",
        "name": "Goianira",
        "stateId": "3462372",
        "latitude": -16.5023,
        "longitude": -49.43602
    },
    {
        "cityId": "6323976",
        "name": "Goi\u00e1s",
        "stateId": "3462372",
        "latitude": -15.80277,
        "longitude": -50.24132
    },
    {
        "cityId": "6323977",
        "name": "Goiatuba",
        "stateId": "3462372",
        "latitude": -18.03201,
        "longitude": -49.70718
    },
    {
        "cityId": "6323978",
        "name": "Gouvel\u00e2ndia",
        "stateId": "3462372",
        "latitude": -18.50777,
        "longitude": -50.17554
    },
    {
        "cityId": "6323979",
        "name": "Guap\u00f3",
        "stateId": "3462372",
        "latitude": -16.91168,
        "longitude": -49.60593
    },
    {
        "cityId": "6323980",
        "name": "Guara\u00edta",
        "stateId": "3462372",
        "latitude": -15.65961,
        "longitude": -50.06663
    },
    {
        "cityId": "6323981",
        "name": "Guarani de Goi\u00e1s",
        "stateId": "3462372",
        "latitude": -13.88485,
        "longitude": -46.50711
    },
    {
        "cityId": "6323982",
        "name": "Guarinos",
        "stateId": "3462372",
        "latitude": -14.69976,
        "longitude": -49.731
    },
    {
        "cityId": "6323983",
        "name": "Heitora\u00ed",
        "stateId": "3462372",
        "latitude": -15.73416,
        "longitude": -49.83108
    },
    {
        "cityId": "6323984",
        "name": "Hidrol\u00e2ndia",
        "stateId": "3462372",
        "latitude": -17.01618,
        "longitude": -49.25465
    },
    {
        "cityId": "6323985",
        "name": "Hidrolina",
        "stateId": "3462372",
        "latitude": -14.75739,
        "longitude": -49.35965
    },
    {
        "cityId": "6323986",
        "name": "Iaciara",
        "stateId": "3462372",
        "latitude": -14.08186,
        "longitude": -46.72107
    },
    {
        "cityId": "6323987",
        "name": "Inaciol\u00e2ndia",
        "stateId": "3462372",
        "latitude": -18.49889,
        "longitude": -49.90164
    },
    {
        "cityId": "6323988",
        "name": "Indiara",
        "stateId": "3462372",
        "latitude": -17.18504,
        "longitude": -49.96826
    },
    {
        "cityId": "6323989",
        "name": "Inhumas",
        "stateId": "3462372",
        "latitude": -16.33026,
        "longitude": -49.51302
    },
    {
        "cityId": "6323990",
        "name": "Ipameri",
        "stateId": "3462372",
        "latitude": -17.46974,
        "longitude": -47.97755
    },
    {
        "cityId": "6323991",
        "name": "Ipor\u00e1",
        "stateId": "3462372",
        "latitude": -16.45543,
        "longitude": -51.15977
    },
    {
        "cityId": "6323992",
        "name": "Israel\u00e2ndia",
        "stateId": "3462372",
        "latitude": -16.35776,
        "longitude": -50.89499
    },
    {
        "cityId": "6323993",
        "name": "Itabera\u00ed",
        "stateId": "3462372",
        "latitude": -16.11222,
        "longitude": -49.83864
    },
    {
        "cityId": "6323994",
        "name": "Itaguari",
        "stateId": "3462372",
        "latitude": -15.91179,
        "longitude": -49.61834
    },
    {
        "cityId": "6323995",
        "name": "Itaguaru",
        "stateId": "3462372",
        "latitude": -15.76944,
        "longitude": -49.60042
    },
    {
        "cityId": "6323996",
        "name": "Itapaci",
        "stateId": "3462372",
        "latitude": -14.92091,
        "longitude": -49.70234
    },
    {
        "cityId": "6323997",
        "name": "Itapirapu\u00e3",
        "stateId": "3462372",
        "latitude": -15.67388,
        "longitude": -50.80021
    },
    {
        "cityId": "6323998",
        "name": "Itapuranga",
        "stateId": "3462372",
        "latitude": -15.56944,
        "longitude": -49.93481
    },
    {
        "cityId": "6323999",
        "name": "Itarum\u00e3",
        "stateId": "3462372",
        "latitude": -18.87992,
        "longitude": -51.32023
    },
    {
        "cityId": "6324000",
        "name": "Itau\u00e7u",
        "stateId": "3462372",
        "latitude": -16.21434,
        "longitude": -49.60066
    },
    {
        "cityId": "6324001",
        "name": "Itumbiara",
        "stateId": "3462372",
        "latitude": -18.32952,
        "longitude": -49.44178
    },
    {
        "cityId": "6324002",
        "name": "Ivol\u00e2ndia",
        "stateId": "3462372",
        "latitude": -16.6883,
        "longitude": -50.9266
    },
    {
        "cityId": "6324003",
        "name": "Jandaia",
        "stateId": "3462372",
        "latitude": -17.129,
        "longitude": -50.19476
    },
    {
        "cityId": "6324004",
        "name": "Jaragu\u00e1",
        "stateId": "3462372",
        "latitude": -15.65294,
        "longitude": -49.43169
    },
    {
        "cityId": "6324005",
        "name": "Jata\u00ed",
        "stateId": "3462372",
        "latitude": -17.85829,
        "longitude": -51.70531
    },
    {
        "cityId": "6324006",
        "name": "Jaupaci",
        "stateId": "3462372",
        "latitude": -16.16749,
        "longitude": -51.10168
    },
    {
        "cityId": "6324007",
        "name": "Jes\u00fapolis",
        "stateId": "3462372",
        "latitude": -15.96458,
        "longitude": -49.39461
    },
    {
        "cityId": "6324008",
        "name": "Jovi\u00e2nia",
        "stateId": "3462372",
        "latitude": -17.78422,
        "longitude": -49.5844
    },
    {
        "cityId": "6324009",
        "name": "Jussara",
        "stateId": "3462372",
        "latitude": -15.58295,
        "longitude": -51.3297
    },
    {
        "cityId": "6324010",
        "name": "Leopoldo de Bulh\u00f5es",
        "stateId": "3462372",
        "latitude": -16.58142,
        "longitude": -48.90604
    },
    {
        "cityId": "6324011",
        "name": "Luzi\u00e2nia",
        "stateId": "3462372",
        "latitude": -16.49511,
        "longitude": -47.93548
    },
    {
        "cityId": "6324012",
        "name": "Mairipotaba",
        "stateId": "3462372",
        "latitude": -17.32688,
        "longitude": -49.50788
    },
    {
        "cityId": "6324013",
        "name": "Mamba\u00ed",
        "stateId": "3462372",
        "latitude": -14.4422,
        "longitude": -46.05807
    },
    {
        "cityId": "6324014",
        "name": "Mara Rosa",
        "stateId": "3462372",
        "latitude": -14.01285,
        "longitude": -49.39507
    },
    {
        "cityId": "6324015",
        "name": "Marzag\u00e3o",
        "stateId": "3462372",
        "latitude": -17.99103,
        "longitude": -48.68316
    },
    {
        "cityId": "6324016",
        "name": "Matrinch\u00e3",
        "stateId": "3462372",
        "latitude": -15.33819,
        "longitude": -50.82655
    },
    {
        "cityId": "6324017",
        "name": "Mauril\u00e2ndia",
        "stateId": "3462372",
        "latitude": -18.05037,
        "longitude": -50.32935
    },
    {
        "cityId": "6324018",
        "name": "Mimoso de Goi\u00e1s",
        "stateId": "3462372",
        "latitude": -15.04832,
        "longitude": -48.34448
    },
    {
        "cityId": "6324019",
        "name": "Mina\u00e7u",
        "stateId": "3462372",
        "latitude": -13.42682,
        "longitude": -48.3878
    },
    {
        "cityId": "6324020",
        "name": "Mineiros",
        "stateId": "3462372",
        "latitude": -17.56944,
        "longitude": -52.55111
    },
    {
        "cityId": "6324021",
        "name": "Moipor\u00e1",
        "stateId": "3462372",
        "latitude": -16.50172,
        "longitude": -50.76811
    },
    {
        "cityId": "6324022",
        "name": "Monte Alegre de Goi\u00e1s",
        "stateId": "3462372",
        "latitude": -13.2615,
        "longitude": -46.84266
    },
    {
        "cityId": "6324023",
        "name": "Montes Claros de Goi\u00e1s",
        "stateId": "3462372",
        "latitude": -15.96248,
        "longitude": -51.50601
    },
    {
        "cityId": "6324024",
        "name": "Montividiu",
        "stateId": "3462372",
        "latitude": -17.25815,
        "longitude": -51.15739
    },
    {
        "cityId": "6324025",
        "name": "Montividiu do Norte",
        "stateId": "3462372",
        "latitude": -13.09232,
        "longitude": -48.74161
    },
    {
        "cityId": "6324026",
        "name": "Morrinhos",
        "stateId": "3462372",
        "latitude": -17.79922,
        "longitude": -49.09225
    },
    {
        "cityId": "6324027",
        "name": "Morro Agudo de Goi\u00e1s",
        "stateId": "3462372",
        "latitude": -15.3231,
        "longitude": -50.01578
    },
    {
        "cityId": "6324028",
        "name": "Moss\u00e2medes",
        "stateId": "3462372",
        "latitude": -16.16495,
        "longitude": -50.17004
    },
    {
        "cityId": "6324029",
        "name": "Mozarl\u00e2ndia",
        "stateId": "3462372",
        "latitude": -14.76495,
        "longitude": -50.62962
    },
    {
        "cityId": "6324030",
        "name": "Mundo Novo",
        "stateId": "3462372",
        "latitude": -13.71649,
        "longitude": -50.23715
    },
    {
        "cityId": "6324031",
        "name": "Mutun\u00f3polis",
        "stateId": "3462372",
        "latitude": -13.70257,
        "longitude": -49.29995
    },
    {
        "cityId": "6324032",
        "name": "Naz\u00e1rio",
        "stateId": "3462372",
        "latitude": -16.5801,
        "longitude": -49.86543
    },
    {
        "cityId": "6324033",
        "name": "Ner\u00f3polis",
        "stateId": "3462372",
        "latitude": -16.43883,
        "longitude": -49.18117
    },
    {
        "cityId": "6324034",
        "name": "Niquel\u00e2ndia",
        "stateId": "3462372",
        "latitude": -14.50367,
        "longitude": -48.39199
    },
    {
        "cityId": "6324035",
        "name": "Nova Am\u00e9rica",
        "stateId": "3462372",
        "latitude": -15.05098,
        "longitude": -49.92499
    },
    {
        "cityId": "6324036",
        "name": "Nova Aurora",
        "stateId": "3462372",
        "latitude": -18.10107,
        "longitude": -48.27661
    },
    {
        "cityId": "6324037",
        "name": "Nova Crix\u00e1s",
        "stateId": "3462372",
        "latitude": -14.27678,
        "longitude": -50.57649
    },
    {
        "cityId": "6324038",
        "name": "Nova Gl\u00f3ria",
        "stateId": "3462372",
        "latitude": -15.0636,
        "longitude": -49.48353
    },
    {
        "cityId": "6324039",
        "name": "Nova Igua\u00e7u de Goi\u00e1s",
        "stateId": "3462372",
        "latitude": -14.29731,
        "longitude": -49.31188
    },
    {
        "cityId": "6324040",
        "name": "Nova Roma",
        "stateId": "3462372",
        "latitude": -13.84078,
        "longitude": -47.00832
    },
    {
        "cityId": "6324041",
        "name": "Nova Veneza",
        "stateId": "3462372",
        "latitude": -16.35456,
        "longitude": -49.30001
    },
    {
        "cityId": "6324042",
        "name": "Novo Brasil",
        "stateId": "3462372",
        "latitude": -16.04806,
        "longitude": -50.63638
    },
    {
        "cityId": "6324043",
        "name": "Novo Gama",
        "stateId": "3462372",
        "latitude": -16.12535,
        "longitude": -48.07041
    },
    {
        "cityId": "6324044",
        "name": "Novo Planalto",
        "stateId": "3462372",
        "latitude": -13.38362,
        "longitude": -49.76104
    },
    {
        "cityId": "6324045",
        "name": "Orizona",
        "stateId": "3462372",
        "latitude": -16.99232,
        "longitude": -48.15274
    },
    {
        "cityId": "6324046",
        "name": "Ouro Verde de Goi\u00e1s",
        "stateId": "3462372",
        "latitude": -16.23604,
        "longitude": -49.22771
    },
    {
        "cityId": "6324047",
        "name": "Ouvidor",
        "stateId": "3462372",
        "latitude": -18.20107,
        "longitude": -47.71513
    },
    {
        "cityId": "6324048",
        "name": "Padre Bernardo",
        "stateId": "3462372",
        "latitude": -15.34115,
        "longitude": -48.31371
    },
    {
        "cityId": "6324049",
        "name": "Palestina de Goi\u00e1s",
        "stateId": "3462372",
        "latitude": -16.72854,
        "longitude": -51.45851
    },
    {
        "cityId": "6324050",
        "name": "Palmeiras de Goi\u00e1s",
        "stateId": "3462372",
        "latitude": -16.86824,
        "longitude": -49.89823
    },
    {
        "cityId": "6324051",
        "name": "Palmelo",
        "stateId": "3462372",
        "latitude": -17.31937,
        "longitude": -48.39429
    },
    {
        "cityId": "6324052",
        "name": "Palmin\u00f3polis",
        "stateId": "3462372",
        "latitude": -16.83157,
        "longitude": -50.24267
    },
    {
        "cityId": "6324053",
        "name": "Panam\u00e1",
        "stateId": "3462372",
        "latitude": -18.20132,
        "longitude": -49.3889
    },
    {
        "cityId": "6324054",
        "name": "Paranaiguara",
        "stateId": "3462372",
        "latitude": -18.77492,
        "longitude": -50.61841
    },
    {
        "cityId": "6324055",
        "name": "Para\u00fana",
        "stateId": "3462372",
        "latitude": -17.0865,
        "longitude": -50.61288
    },
    {
        "cityId": "6324056",
        "name": "Perol\u00e2ndia",
        "stateId": "3462372",
        "latitude": -17.52861,
        "longitude": -52.06417
    },
    {
        "cityId": "6324057",
        "name": "Petrolina de Goi\u00e1s",
        "stateId": "3462372",
        "latitude": -16.11122,
        "longitude": -49.28748
    },
    {
        "cityId": "6324058",
        "name": "Pilar de Goi\u00e1s",
        "stateId": "3462372",
        "latitude": -14.52999,
        "longitude": -49.51094
    },
    {
        "cityId": "6324059",
        "name": "Piracanjuba",
        "stateId": "3462372",
        "latitude": -17.32257,
        "longitude": -49.02423
    },
    {
        "cityId": "6324060",
        "name": "Piren\u00f3polis",
        "stateId": "3462372",
        "latitude": -15.79765,
        "longitude": -49.00669
    },
    {
        "cityId": "6324061",
        "name": "Pires do Rio",
        "stateId": "3462372",
        "latitude": -17.34916,
        "longitude": -48.3939
    },
    {
        "cityId": "6324062",
        "name": "Planaltina",
        "stateId": "3462372",
        "latitude": -15.21463,
        "longitude": -47.88678
    },
    {
        "cityId": "6324063",
        "name": "Pontalina",
        "stateId": "3462372",
        "latitude": -17.50873,
        "longitude": -49.59943
    },
    {
        "cityId": "6324064",
        "name": "Porangatu",
        "stateId": "3462372",
        "latitude": -13.37008,
        "longitude": -49.25423
    },
    {
        "cityId": "6324065",
        "name": "Porteir\u00e3o",
        "stateId": "3462372",
        "latitude": -17.90236,
        "longitude": -50.15667
    },
    {
        "cityId": "6324066",
        "name": "Portel\u00e2ndia",
        "stateId": "3462372",
        "latitude": -17.3561,
        "longitude": -52.67861
    },
    {
        "cityId": "6324067",
        "name": "Posse",
        "stateId": "3462372",
        "latitude": -14.24515,
        "longitude": -46.46964
    },
    {
        "cityId": "6324068",
        "name": "Professor Jamil",
        "stateId": "3462372",
        "latitude": -17.29408,
        "longitude": -49.25572
    },
    {
        "cityId": "6324069",
        "name": "Quirin\u00f3polis",
        "stateId": "3462372",
        "latitude": -18.4571,
        "longitude": -50.57146
    },
    {
        "cityId": "6324070",
        "name": "Rialma",
        "stateId": "3462372",
        "latitude": -15.32886,
        "longitude": -49.53633
    },
    {
        "cityId": "6324071",
        "name": "Rian\u00e1polis",
        "stateId": "3462372",
        "latitude": -15.47467,
        "longitude": -49.44786
    },
    {
        "cityId": "6324072",
        "name": "Rio Quente",
        "stateId": "3462372",
        "latitude": -17.81769,
        "longitude": -48.80202
    },
    {
        "cityId": "6324073",
        "name": "Rio Verde",
        "stateId": "3462372",
        "latitude": -17.71888,
        "longitude": -51.04215
    },
    {
        "cityId": "6324074",
        "name": "Rubiataba",
        "stateId": "3462372",
        "latitude": -15.16817,
        "longitude": -49.89792
    },
    {
        "cityId": "6324075",
        "name": "Sanclerl\u00e2ndia",
        "stateId": "3462372",
        "latitude": -16.28223,
        "longitude": -50.3721
    },
    {
        "cityId": "6324076",
        "name": "Santa Cruz de Goi\u00e1s",
        "stateId": "3462372",
        "latitude": -17.45147,
        "longitude": -48.57101
    },
    {
        "cityId": "6324077",
        "name": "Santa F\u00e9 de Goi\u00e1s",
        "stateId": "3462372",
        "latitude": -15.62304,
        "longitude": -51.1385
    },
    {
        "cityId": "6324078",
        "name": "Santa Helena de Goi\u00e1s",
        "stateId": "3462372",
        "latitude": -17.80542,
        "longitude": -50.53885
    },
    {
        "cityId": "6324079",
        "name": "Santa Isabel",
        "stateId": "3462372",
        "latitude": -15.26996,
        "longitude": -49.37797
    },
    {
        "cityId": "6324080",
        "name": "Santa Rita do Araguaia",
        "stateId": "3462372",
        "latitude": -17.23294,
        "longitude": -53.07676
    },
    {
        "cityId": "6324081",
        "name": "Santa Rita do Novo Destino",
        "stateId": "3462372",
        "latitude": -14.82658,
        "longitude": -49.05935
    },
    {
        "cityId": "6324082",
        "name": "Santa Rosa de Goi\u00e1s",
        "stateId": "3462372",
        "latitude": -16.06989,
        "longitude": -49.48147
    },
    {
        "cityId": "6324083",
        "name": "Santa Tereza de Goi\u00e1s",
        "stateId": "3462372",
        "latitude": -13.55111,
        "longitude": -48.99503
    },
    {
        "cityId": "6324084",
        "name": "Santa Terezinha de Goi\u00e1s",
        "stateId": "3462372",
        "latitude": -14.31049,
        "longitude": -49.71445
    },
    {
        "cityId": "6324085",
        "name": "Santo Ant\u00f4nio da Barra",
        "stateId": "3462372",
        "latitude": -17.51225,
        "longitude": -50.63068
    },
    {
        "cityId": "6324086",
        "name": "Santo Ant\u00f4nio de Goi\u00e1s",
        "stateId": "3462372",
        "latitude": -16.50007,
        "longitude": -49.31097
    },
    {
        "cityId": "6324087",
        "name": "S\u00e3o Jo\u00e3o d'Alian\u00e7a",
        "stateId": "3462372",
        "latitude": -14.42907,
        "longitude": -47.41407
    },
    {
        "cityId": "6324088",
        "name": "S\u00e3o Jo\u00e3o da Para\u00fana",
        "stateId": "3462372",
        "latitude": -16.82392,
        "longitude": -50.35316
    },
    {
        "cityId": "6324089",
        "name": "S\u00e3o Lu\u00eds de Montes Belos",
        "stateId": "3462372",
        "latitude": -16.45418,
        "longitude": -50.3881
    },
    {
        "cityId": "6324090",
        "name": "S\u00e3o Lu\u00edz do Norte",
        "stateId": "3462372",
        "latitude": -14.89284,
        "longitude": -49.28212
    },
    {
        "cityId": "6324091",
        "name": "S\u00e3o Miguel do Araguaia",
        "stateId": "3462372",
        "latitude": -12.98632,
        "longitude": -50.26497
    },
    {
        "cityId": "6324092",
        "name": "S\u00e3o Miguel do Passa Quatro",
        "stateId": "3462372",
        "latitude": -16.99955,
        "longitude": -48.66188
    },
    {
        "cityId": "6324093",
        "name": "S\u00e3o Patr\u00edcio",
        "stateId": "3462372",
        "latitude": -15.34426,
        "longitude": -49.83291
    },
    {
        "cityId": "6324094",
        "name": "S\u00e3o Sim\u00e3o",
        "stateId": "3462372",
        "latitude": -19.0108,
        "longitude": -50.60612
    },
    {
        "cityId": "6324095",
        "name": "S\u00edtio d'Abadia",
        "stateId": "3462372",
        "latitude": -14.75201,
        "longitude": -46.27003
    },
    {
        "cityId": "6324096",
        "name": "Taquaral de Goi\u00e1s",
        "stateId": "3462372",
        "latitude": -16.0582,
        "longitude": -49.5904
    },
    {
        "cityId": "6324097",
        "name": "Teresina de Goi\u00e1s",
        "stateId": "3462372",
        "latitude": -13.73244,
        "longitude": -47.25266
    },
    {
        "cityId": "6324098",
        "name": "Terez\u00f3polis de Goi\u00e1s",
        "stateId": "3462372",
        "latitude": -16.42797,
        "longitude": -49.07425
    },
    {
        "cityId": "6324099",
        "name": "Tr\u00eas Ranchos",
        "stateId": "3462372",
        "latitude": -18.36835,
        "longitude": -47.7985
    },
    {
        "cityId": "6324100",
        "name": "Trindade",
        "stateId": "3462372",
        "latitude": -16.65364,
        "longitude": -49.56768
    },
    {
        "cityId": "6324101",
        "name": "Trombas",
        "stateId": "3462372",
        "latitude": -13.40409,
        "longitude": -48.77287
    },
    {
        "cityId": "6324102",
        "name": "Turv\u00e2nia",
        "stateId": "3462372",
        "latitude": -16.55807,
        "longitude": -50.16909
    },
    {
        "cityId": "6324103",
        "name": "Turvel\u00e2ndia",
        "stateId": "3462372",
        "latitude": -17.79588,
        "longitude": -50.29695
    },
    {
        "cityId": "6324104",
        "name": "Uirapuru",
        "stateId": "3462372",
        "latitude": -14.14128,
        "longitude": -49.93396
    },
    {
        "cityId": "6324105",
        "name": "Urua\u00e7u",
        "stateId": "3462372",
        "latitude": -14.42245,
        "longitude": -49.06374
    },
    {
        "cityId": "6324106",
        "name": "Uruana",
        "stateId": "3462372",
        "latitude": -15.56368,
        "longitude": -49.64028
    },
    {
        "cityId": "6324107",
        "name": "Uruta\u00ed",
        "stateId": "3462372",
        "latitude": -17.41664,
        "longitude": -48.19794
    },
    {
        "cityId": "6324108",
        "name": "Valpara\u00edso de Goi\u00e1s",
        "stateId": "3462372",
        "latitude": -16.09899,
        "longitude": -47.98813
    },
    {
        "cityId": "6324109",
        "name": "Varj\u00e3o",
        "stateId": "3462372",
        "latitude": -17.07758,
        "longitude": -49.62111
    },
    {
        "cityId": "6324110",
        "name": "Vian\u00f3polis",
        "stateId": "3462372",
        "latitude": -16.85286,
        "longitude": -48.45647
    },
    {
        "cityId": "6324111",
        "name": "Vicentin\u00f3polis",
        "stateId": "3462372",
        "latitude": -17.70714,
        "longitude": -49.90768
    },
    {
        "cityId": "6324112",
        "name": "Vila Boa",
        "stateId": "3462372",
        "latitude": -14.97912,
        "longitude": -47.09259
    },
    {
        "cityId": "6324113",
        "name": "Vila Prop\u00edcio",
        "stateId": "3462372",
        "latitude": -15.20221,
        "longitude": -48.77569
    },
    {
        "cityId": "6324154",
        "name": "Ipiranga de Goi\u00e1s",
        "stateId": "3462372",
        "latitude": -15.16876,
        "longitude": -49.65047
    },
    {
        "cityId": "6324155",
        "name": "Ceres",
        "stateId": "3462372",
        "latitude": -15.2735,
        "longitude": -49.64455
    },
    {
        "cityId": "6324156",
        "name": "Itaj\u00e1",
        "stateId": "3462372",
        "latitude": -19.11554,
        "longitude": -51.24473
    },
    {
        "cityId": "6324157",
        "name": "Lagoa Santa",
        "stateId": "3462372",
        "latitude": -19.21207,
        "longitude": -51.25891
    },
    {
        "cityId": "6324158",
        "name": "An\u00e1polis",
        "stateId": "3462372",
        "latitude": -16.28859,
        "longitude": -49.01638
    },
    {
        "cityId": "6324159",
        "name": "Silv\u00e2nia",
        "stateId": "3462372",
        "latitude": -16.55293,
        "longitude": -48.56141
    },
    {
        "cityId": "6324160",
        "name": "Campo Limpo de Goi\u00e1s",
        "stateId": "3462372",
        "latitude": -16.30048,
        "longitude": -49.09041
    },
    {
        "cityId": "6324264",
        "name": "Piranhas",
        "stateId": "3462372",
        "latitude": -16.39466,
        "longitude": -51.82479
    }
]