[
    {
        "cityId": 3925074,
        "name": "Guajar\u00e1-Mirim",
        "stateId": 3924825,
        "latitude": -11.33108,
        "longitude": -64.44095
    },
    {
        "cityId": 6319229,
        "name": "Alta Floresta d'Oeste",
        "stateId": 3924825,
        "latitude": -12.47107,
        "longitude": -62.13705
    },
    {
        "cityId": 6319230,
        "name": "Ariquemes",
        "stateId": 3924825,
        "latitude": -9.91052,
        "longitude": -62.95488
    },
    {
        "cityId": 6319231,
        "name": "Cabixi",
        "stateId": 3924825,
        "latitude": -13.51083,
        "longitude": -60.60257
    },
    {
        "cityId": 6319232,
        "name": "Cacoal",
        "stateId": 3924825,
        "latitude": -11.49042,
        "longitude": -61.43174
    },
    {
        "cityId": 6319233,
        "name": "Cerejeiras",
        "stateId": 3924825,
        "latitude": -13.18319,
        "longitude": -61.47518
    },
    {
        "cityId": 6319234,
        "name": "Colorado do Oeste",
        "stateId": 3924825,
        "latitude": -13.08252,
        "longitude": -60.49419
    },
    {
        "cityId": 6319235,
        "name": "Corumbiara",
        "stateId": 3924825,
        "latitude": -12.87592,
        "longitude": -61.11993
    },
    {
        "cityId": 6319236,
        "name": "Costa Marques",
        "stateId": 3924825,
        "latitude": -12.06168,
        "longitude": -64.07323
    },
    {
        "cityId": 6319237,
        "name": "Espig\u00e3o d'Oeste",
        "stateId": 3924825,
        "latitude": -11.46622,
        "longitude": -60.69924
    },
    {
        "cityId": 6319238,
        "name": "Ji-Paran\u00e1",
        "stateId": 3924825,
        "latitude": -10.83398,
        "longitude": -61.96014
    },
    {
        "cityId": 6319239,
        "name": "Machadinho d'Oeste",
        "stateId": 3924825,
        "latitude": -9.23953,
        "longitude": -62.11241
    },
    {
        "cityId": 6319240,
        "name": "Nova Brasil\u00e2ndia d'Oeste",
        "stateId": 3924825,
        "latitude": -11.49111,
        "longitude": -62.16495
    },
    {
        "cityId": 6319241,
        "name": "Ouro Preto do Oeste",
        "stateId": 3924825,
        "latitude": -10.36659,
        "longitude": -61.92239
    },
    {
        "cityId": 6319242,
        "name": "Pimenta Bueno",
        "stateId": 3924825,
        "latitude": -11.78779,
        "longitude": -60.74978
    },
    {
        "cityId": 6319243,
        "name": "Porto Velho",
        "stateId": 3924825,
        "latitude": -9.20787,
        "longitude": -64.31064
    },
    {
        "cityId": 6319244,
        "name": "Presidente M\u00e9dici",
        "stateId": 3924825,
        "latitude": -11.18523,
        "longitude": -61.94072
    },
    {
        "cityId": 6319245,
        "name": "Rio Crespo",
        "stateId": 3924825,
        "latitude": -9.7188,
        "longitude": -62.74641
    },
    {
        "cityId": 6319246,
        "name": "Rolim de Moura",
        "stateId": 3924825,
        "latitude": -11.7526,
        "longitude": -61.78967
    },
    {
        "cityId": 6319247,
        "name": "Santa Luzia d'Oeste",
        "stateId": 3924825,
        "latitude": -12.10467,
        "longitude": -61.7944
    },
    {
        "cityId": 6319248,
        "name": "Vilhena",
        "stateId": 3924825,
        "latitude": -12.02062,
        "longitude": -60.27526
    },
    {
        "cityId": 6319249,
        "name": "S\u00e3o Miguel do Guapor\u00e9",
        "stateId": 3924825,
        "latitude": -11.70783,
        "longitude": -62.93532
    },
    {
        "cityId": 6319250,
        "name": "Alvorada d'Oeste",
        "stateId": 3924825,
        "latitude": -11.29925,
        "longitude": -62.50152
    },
    {
        "cityId": 6319251,
        "name": "Alto Alegre dos Parecis",
        "stateId": 3924825,
        "latitude": -12.75601,
        "longitude": -61.97971
    },
    {
        "cityId": 6319252,
        "name": "Alto Para\u00edso",
        "stateId": 3924825,
        "latitude": -9.65996,
        "longitude": -63.58719
    },
    {
        "cityId": 6319253,
        "name": "Buritis",
        "stateId": 3924825,
        "latitude": -10.09215,
        "longitude": -63.96964
    },
    {
        "cityId": 6319254,
        "name": "Novo Horizonte do Oeste",
        "stateId": 3924825,
        "latitude": -11.70769,
        "longitude": -62.07989
    },
    {
        "cityId": 6319255,
        "name": "Cacaul\u00e2ndia",
        "stateId": 3924825,
        "latitude": -10.32583,
        "longitude": -63.14953
    },
    {
        "cityId": 6319256,
        "name": "Campo Novo de Rond\u00f4nia",
        "stateId": 3924825,
        "latitude": -10.48146,
        "longitude": -63.85192
    },
    {
        "cityId": 6319257,
        "name": "Candeias do Jamari",
        "stateId": 3924825,
        "latitude": -8.94512,
        "longitude": -63.35731
    },
    {
        "cityId": 6319258,
        "name": "Castanheiras",
        "stateId": 3924825,
        "latitude": -11.42661,
        "longitude": -61.88918
    },
    {
        "cityId": 6319259,
        "name": "Chupinguaia",
        "stateId": 3924825,
        "latitude": -12.6724,
        "longitude": -60.92622
    },
    {
        "cityId": 6319260,
        "name": "Cujubim",
        "stateId": 3924825,
        "latitude": -8.97819,
        "longitude": -62.44252
    },
    {
        "cityId": 6319261,
        "name": "Itapu\u00e3 do Oeste",
        "stateId": 3924825,
        "latitude": -9.03389,
        "longitude": -63.23215
    },
    {
        "cityId": 6319262,
        "name": "Ministro Andreazza",
        "stateId": 3924825,
        "latitude": -11.16029,
        "longitude": -61.56897
    },
    {
        "cityId": 6319263,
        "name": "Monte Negro",
        "stateId": 3924825,
        "latitude": -10.3045,
        "longitude": -63.35402
    },
    {
        "cityId": 6319264,
        "name": "Nova Uni\u00e3o",
        "stateId": 3924825,
        "latitude": -10.94938,
        "longitude": -62.51087
    },
    {
        "cityId": 6319265,
        "name": "Parecis",
        "stateId": 3924825,
        "latitude": -12.28659,
        "longitude": -61.31662
    },
    {
        "cityId": 6319266,
        "name": "Pimenteiras do Oeste",
        "stateId": 3924825,
        "latitude": -13.01273,
        "longitude": -61.73762
    },
    {
        "cityId": 6319267,
        "name": "Primavera de Rond\u00f4nia",
        "stateId": 3924825,
        "latitude": -11.92939,
        "longitude": -61.30611
    },
    {
        "cityId": 6319268,
        "name": "S\u00e3o Felipe d'Oeste",
        "stateId": 3924825,
        "latitude": -11.89774,
        "longitude": -61.47739
    },
    {
        "cityId": 6319269,
        "name": "S\u00e3o Francisco do Guapor\u00e9",
        "stateId": 3924825,
        "latitude": -12.38313,
        "longitude": -63.12648
    },
    {
        "cityId": 6319270,
        "name": "Seringueiras",
        "stateId": 3924825,
        "latitude": -11.92491,
        "longitude": -63.18938
    },
    {
        "cityId": 6319271,
        "name": "Teixeir\u00f3polis",
        "stateId": 3924825,
        "latitude": -10.99266,
        "longitude": -62.24735
    },
    {
        "cityId": 6319272,
        "name": "Theobroma",
        "stateId": 3924825,
        "latitude": -10.10159,
        "longitude": -62.28094
    },
    {
        "cityId": 6319273,
        "name": "Urup\u00e1",
        "stateId": 3924825,
        "latitude": -11.07917,
        "longitude": -62.38127
    },
    {
        "cityId": 6319274,
        "name": "Vale do Anari",
        "stateId": 3924825,
        "latitude": -9.73244,
        "longitude": -61.93919
    },
    {
        "cityId": 6319275,
        "name": "Vale do Para\u00edso",
        "stateId": 3924825,
        "latitude": -10.20652,
        "longitude": -62.06993
    },
    {
        "cityId": 6324172,
        "name": "Jaru",
        "stateId": 3924825,
        "latitude": -10.59222,
        "longitude": -62.58503
    },
    {
        "cityId": 6324173,
        "name": "Governador Jorge Teixeira",
        "stateId": 3924825,
        "latitude": -10.78462,
        "longitude": -63.04433
    },
    {
        "cityId": 6324174,
        "name": "Mirante da Serra",
        "stateId": 3924825,
        "latitude": -11.13706,
        "longitude": -62.86154
    },
    {
        "cityId": 6324274,
        "name": "Nova Mamor\u00e9",
        "stateId": 3924825,
        "latitude": -10.53837,
        "longitude": -64.49429
    }
]