[
    {
        "cityId": 3625541,
        "name": "Municipio Valera",
        "stateId": 3625974,
        "latitude": 9.3206,
        "longitude": -70.60776
    },
    {
        "cityId": 3625661,
        "name": "Municipio Urdaneta",
        "stateId": 3625974,
        "latitude": 9.08333,
        "longitude": -70.58333
    },
    {
        "cityId": 3625975,
        "name": "Municipio Trujillo",
        "stateId": 3625974,
        "latitude": 9.5,
        "longitude": -70.41667
    },
    {
        "cityId": 3640955,
        "name": "Municipio Escuque",
        "stateId": 3625974,
        "latitude": 9.25,
        "longitude": -70.75
    },
    {
        "cityId": 3646730,
        "name": "Municipio Carache",
        "stateId": 3625974,
        "latitude": 9.66667,
        "longitude": -70.33333
    },
    {
        "cityId": 3648130,
        "name": "Municipio Bocon\u00f3",
        "stateId": 3625974,
        "latitude": 9.25,
        "longitude": -70.25
    },
    {
        "cityId": 8129164,
        "name": "Municipio Pamp\u00e1n",
        "stateId": 3625974,
        "latitude": 9.44475,
        "longitude": -70.47759
    },
    {
        "cityId": 8129168,
        "name": "Municipio Motat\u00e1n",
        "stateId": 3625974,
        "latitude": 9.39002,
        "longitude": -70.59119
    },
    {
        "cityId": 8129173,
        "name": "Municipio Juan Vicente Campo El\u00edas",
        "stateId": 3625974,
        "latitude": 9.39347,
        "longitude": -70.06035
    },
    {
        "cityId": 8129194,
        "name": "Municipio Miranda",
        "stateId": 3625974,
        "latitude": 9.47447,
        "longitude": -70.73385
    },
    {
        "cityId": 8129195,
        "name": "Municipio Sucre",
        "stateId": 3625974,
        "latitude": 9.43399,
        "longitude": -70.77341
    },
    {
        "cityId": 8129224,
        "name": "Municipio Andr\u00e9s Bello",
        "stateId": 3625974,
        "latitude": 9.63217,
        "longitude": -70.80759
    },
    {
        "cityId": 8129239,
        "name": "Municipio Monte Carmelo",
        "stateId": 3625974,
        "latitude": 9.18583,
        "longitude": -70.81561
    },
    {
        "cityId": 8129253,
        "name": "Municipio Rafael Rangel",
        "stateId": 3625974,
        "latitude": 9.37568,
        "longitude": -70.73131
    },
    {
        "cityId": 8129264,
        "name": "Municipio La Ceiba",
        "stateId": 3625974,
        "latitude": 9.47139,
        "longitude": -71.01419
    },
    {
        "cityId": 8131492,
        "name": "Municipio Bol\u00edvar",
        "stateId": 3625974,
        "latitude": 9.40131,
        "longitude": -70.79916
    },
    {
        "cityId": 8131493,
        "name": "Municipio Candelaria",
        "stateId": 3625974,
        "latitude": 9.61818,
        "longitude": -70.35713
    },
    {
        "cityId": 8131494,
        "name": "Municipio Jos\u00e9 Felipe M\u00e1rquez Ca\u00f1izales",
        "stateId": 3625974,
        "latitude": 9.77115,
        "longitude": -70.61445
    },
    {
        "cityId": 8131505,
        "name": "Municipio Pampanito",
        "stateId": 3625974,
        "latitude": 9.41147,
        "longitude": -70.49592
    },
    {
        "cityId": 8131506,
        "name": "Municipio San Rafael de Carvajal",
        "stateId": 3625974,
        "latitude": 9.30756,
        "longitude": -70.58965
    }
]