[
    {
        "cityId": "3626661",
        "name": "Municipio Sucre",
        "stateId": "3625035",
        "latitude": 9.08333,
        "longitude": -71.25
    },
    {
        "cityId": "3631168",
        "name": "Municipio P\u00e1ez",
        "stateId": "3625035",
        "latitude": 11.33333,
        "longitude": -72
    },
    {
        "cityId": "3632193",
        "name": "Municipio Miranda",
        "stateId": "3625035",
        "latitude": 10.75,
        "longitude": -71.25
    },
    {
        "cityId": "3633006",
        "name": "Municipio Maracaibo",
        "stateId": "3625035",
        "latitude": 10.66667,
        "longitude": -72.16667
    },
    {
        "cityId": "3633019",
        "name": "Municipio Mara",
        "stateId": "3625035",
        "latitude": 10.91667,
        "longitude": -72.08333
    },
    {
        "cityId": "3645361",
        "name": "Municipio Col\u00f3n",
        "stateId": "3625035",
        "latitude": 9,
        "longitude": -72.08333
    },
    {
        "cityId": "3648586",
        "name": "Municipio Baralt",
        "stateId": "3625035",
        "latitude": 9.83333,
        "longitude": -70.91667
    },
    {
        "cityId": "8129196",
        "name": "Municipio Sim\u00f3n Bol\u00edvar",
        "stateId": "3625035",
        "latitude": 10.25838,
        "longitude": -71.36865
    },
    {
        "cityId": "8129197",
        "name": "Municipio La Ca\u00f1ada de Urdaneta",
        "stateId": "3625035",
        "latitude": 10.8,
        "longitude": -71.76667
    },
    {
        "cityId": "8129198",
        "name": "Municipio Machiques de Perij\u00e1",
        "stateId": "3625035",
        "latitude": 10.06444,
        "longitude": -72.545
    },
    {
        "cityId": "8129199",
        "name": "Municipio Cabimas",
        "stateId": "3625035",
        "latitude": 10.36667,
        "longitude": -71.4
    },
    {
        "cityId": "8129209",
        "name": "Municipio Lagunillas",
        "stateId": "3625035",
        "latitude": 10.19635,
        "longitude": -71.30818
    },
    {
        "cityId": "8129217",
        "name": "Municipio Catatumbo",
        "stateId": "3625035",
        "latitude": 9.06085,
        "longitude": -72.23413
    },
    {
        "cityId": "8129265",
        "name": "Municipio Jes\u00fas Mar\u00eda Sempr\u00fan",
        "stateId": "3625035",
        "latitude": 8.74493,
        "longitude": -72.51967
    },
    {
        "cityId": "8131511",
        "name": "Municipio Almirante Padilla",
        "stateId": "3625035",
        "latitude": 10.954,
        "longitude": -71.64906
    },
    {
        "cityId": "8131512",
        "name": "Municipio Francisco Javier Pulgar",
        "stateId": "3625035",
        "latitude": 8.9635,
        "longitude": -71.6173
    },
    {
        "cityId": "8131513",
        "name": "Municipio Jes\u00fas Enrique Lossada",
        "stateId": "3625035",
        "latitude": 10.62062,
        "longitude": -71.83651
    },
    {
        "cityId": "8131514",
        "name": "Municipio Rosario de Perij\u00e1",
        "stateId": "3625035",
        "latitude": 10.32573,
        "longitude": -72.31441
    },
    {
        "cityId": "8131515",
        "name": "Municipio San Francisco",
        "stateId": "3625035",
        "latitude": 10.55448,
        "longitude": -71.70605
    },
    {
        "cityId": "8131516",
        "name": "Municipio Santa Rita",
        "stateId": "3625035",
        "latitude": 10.53473,
        "longitude": -71.50692
    },
    {
        "cityId": "8131517",
        "name": "Municipio Valmore Rodr\u00edguez",
        "stateId": "3625035",
        "latitude": 9.9702,
        "longitude": -71.14729
    }
]