[
    {
        "cityId": 3625121,
        "name": "Municipio Zamora",
        "stateId": 3640873,
        "latitude": 11.36667,
        "longitude": -69.03333
    },
    {
        "cityId": 3626828,
        "name": "Municipio Silva",
        "stateId": 3640873,
        "latitude": 10.75709,
        "longitude": -68.35007
    },
    {
        "cityId": 3630294,
        "name": "Municipio Petit",
        "stateId": 3640873,
        "latitude": 11.05,
        "longitude": -69.41667
    },
    {
        "cityId": 3632192,
        "name": "Municipio Miranda",
        "stateId": 3640873,
        "latitude": 11.31667,
        "longitude": -69.86667
    },
    {
        "cityId": 3632524,
        "name": "Municipio Mauroa",
        "stateId": 3640873,
        "latitude": 10.83333,
        "longitude": -71
    },
    {
        "cityId": 3640848,
        "name": "Municipio Federaci\u00f3n",
        "stateId": 3640873,
        "latitude": 10.83333,
        "longitude": -69.41667
    },
    {
        "cityId": 3640874,
        "name": "Municipio Falc\u00f3n",
        "stateId": 3640873,
        "latitude": 11.83333,
        "longitude": -70
    },
    {
        "cityId": 3644540,
        "name": "Municipio Democracia",
        "stateId": 3640873,
        "latitude": 10.83333,
        "longitude": -70.16667
    },
    {
        "cityId": 3645374,
        "name": "Municipio Colina",
        "stateId": 3640873,
        "latitude": 11.28333,
        "longitude": -69.41667
    },
    {
        "cityId": 3646527,
        "name": "Municipio Carirubana",
        "stateId": 3640873,
        "latitude": 11.71667,
        "longitude": -70
    },
    {
        "cityId": 3647886,
        "name": "Municipio Buchivacoa",
        "stateId": 3640873,
        "latitude": 10.91667,
        "longitude": -70.75
    },
    {
        "cityId": 3648107,
        "name": "Municipio Bol\u00edvar",
        "stateId": 3640873,
        "latitude": 11.11988,
        "longitude": -69.68559
    },
    {
        "cityId": 3649798,
        "name": "Municipio Acosta",
        "stateId": 3640873,
        "latitude": 11.1,
        "longitude": -68.75
    },
    {
        "cityId": 8129153,
        "name": "Municipio Toc\u00f3pero",
        "stateId": 3640873,
        "latitude": 11.49897,
        "longitude": -69.25892
    },
    {
        "cityId": 8129154,
        "name": "Municipio P\u00edritu",
        "stateId": 3640873,
        "latitude": 11.37389,
        "longitude": -69.13722
    },
    {
        "cityId": 8129177,
        "name": "Municipio Dabajuro",
        "stateId": 3640873,
        "latitude": 11.02273,
        "longitude": -70.67769
    },
    {
        "cityId": 8129181,
        "name": "Municipio Urumaco",
        "stateId": 3640873,
        "latitude": 11.19913,
        "longitude": -70.25499
    },
    {
        "cityId": 8129189,
        "name": "Municipio Sucre",
        "stateId": 3640873,
        "latitude": 11.06395,
        "longitude": -69.7131
    },
    {
        "cityId": 8129216,
        "name": "Municipio Jacura",
        "stateId": 3640873,
        "latitude": 11.07417,
        "longitude": -68.85604
    },
    {
        "cityId": 8129220,
        "name": "Municipio Cacique Manaure",
        "stateId": 3640873,
        "latitude": 10.97099,
        "longitude": -68.54435
    },
    {
        "cityId": 8129238,
        "name": "Municipio San Francisco",
        "stateId": 3640873,
        "latitude": 11.1602,
        "longitude": -68.72604
    },
    {
        "cityId": 8129249,
        "name": "Municipio Monse\u00f1or Iturriza",
        "stateId": 3640873,
        "latitude": 10.9333,
        "longitude": -68.27716
    },
    {
        "cityId": 8129260,
        "name": "Municipio Uni\u00f3n",
        "stateId": 3640873,
        "latitude": 10.81953,
        "longitude": -69.27776
    },
    {
        "cityId": 8131432,
        "name": "Municipio Los Taques",
        "stateId": 3640873,
        "latitude": 11.82308,
        "longitude": -70.25353
    },
    {
        "cityId": 8131433,
        "name": "Municipio Palmasola",
        "stateId": 3640873,
        "latitude": 10.59329,
        "longitude": -68.54576
    }
]