[
    {
        "cityId": "3626815",
        "name": "Municipio Sim\u00f3n Rodr\u00edguez",
        "stateId": "3649198",
        "latitude": 8.75,
        "longitude": -64.16667
    },
    {
        "cityId": "3634759",
        "name": "Municipio Libertad",
        "stateId": "3649198",
        "latitude": 9.75,
        "longitude": -64.58333
    },
    {
        "cityId": "3639386",
        "name": "Municipio Independencia",
        "stateId": "3649198",
        "latitude": 8.46667,
        "longitude": -63.41667
    },
    {
        "cityId": "3649111",
        "name": "Municipio Aragua",
        "stateId": "3649198",
        "latitude": 9.31667,
        "longitude": -64.9
    },
    {
        "cityId": "3649281",
        "name": "Municipio Anaco",
        "stateId": "3649198",
        "latitude": 9.33333,
        "longitude": -64.46667
    },
    {
        "cityId": "8129165",
        "name": "Municipio Fernando de Pe\u00f1alver",
        "stateId": "3649198",
        "latitude": 10.0613,
        "longitude": -65.04207
    },
    {
        "cityId": "8129166",
        "name": "Municipio P\u00edritu",
        "stateId": "3649198",
        "latitude": 10.03891,
        "longitude": -65.02975
    },
    {
        "cityId": "8129167",
        "name": "Municipio Francisco de Miranda",
        "stateId": "3649198",
        "latitude": 8.84357,
        "longitude": -64.71053
    },
    {
        "cityId": "8129171",
        "name": "Municipio Turistico Diego Bautista Urbaneja",
        "stateId": "3649198",
        "latitude": 10.19769,
        "longitude": -64.69407
    },
    {
        "cityId": "8129180",
        "name": "Municipio Francisco del Carmen Carvajal",
        "stateId": "3649198",
        "latitude": 9.90999,
        "longitude": -65.67405
    },
    {
        "cityId": "8129187",
        "name": "Municipio Juan Antonio Sotillo",
        "stateId": "3649198",
        "latitude": 10.21667,
        "longitude": -64.61667
    },
    {
        "cityId": "8129210",
        "name": "Municipio San Juan de Capistrano",
        "stateId": "3649198",
        "latitude": 10.13152,
        "longitude": -65.42115
    },
    {
        "cityId": "8129213",
        "name": "Municipio Jos\u00e9 Gregorio Monagas",
        "stateId": "3649198",
        "latitude": 7.73874,
        "longitude": -64.71876
    },
    {
        "cityId": "8129234",
        "name": "Municipio Juan Manuel Cajigal",
        "stateId": "3649198",
        "latitude": 9.59714,
        "longitude": -65.1935
    },
    {
        "cityId": "8129248",
        "name": "Municipio Manuel Ezequiel Bruzual",
        "stateId": "3649198",
        "latitude": 9.93991,
        "longitude": -65.16517
    },
    {
        "cityId": "8129262",
        "name": "Municipio Guanta",
        "stateId": "3649198",
        "latitude": 10.23448,
        "longitude": -64.59552
    },
    {
        "cityId": "8129266",
        "name": "Municipio Pedro Mar\u00eda Freites",
        "stateId": "3649198",
        "latitude": 9.30571,
        "longitude": -64.35841
    },
    {
        "cityId": "8131389",
        "name": "Municipio San Jos\u00e9 de Guanipa",
        "stateId": "3649198",
        "latitude": 8.87998,
        "longitude": -64.16102
    },
    {
        "cityId": "8131390",
        "name": "Municipio Santa Ana",
        "stateId": "3649198",
        "latitude": 9.30578,
        "longitude": -64.65398
    },
    {
        "cityId": "8131391",
        "name": "Municipio Sim\u00f3n Bol\u00edvar",
        "stateId": "3649198",
        "latitude": 10.14455,
        "longitude": -64.67241
    },
    {
        "cityId": "8131392",
        "name": "Municipio Sir Arthur Mc Gregor",
        "stateId": "3649198",
        "latitude": 9.15227,
        "longitude": -65.01537
    }
]