[
    {
        "cityId": 602149,
        "name": "Ume\u00e5 Kommun",
        "stateId": 2664415,
        "latitude": 63.82992,
        "longitude": 20.25484
    },
    {
        "cityId": 602912,
        "name": "Skellefte\u00e5 Kommun",
        "stateId": 2664415,
        "latitude": 64.80261,
        "longitude": 20.6441
    },
    {
        "cityId": 603302,
        "name": "Robertsfors Kommun",
        "stateId": 2664415,
        "latitude": 64.16604,
        "longitude": 20.78415
    },
    {
        "cityId": 2662850,
        "name": "Vindelns Kommun",
        "stateId": 2664415,
        "latitude": 64.18605,
        "longitude": 19.71222
    },
    {
        "cityId": 2662934,
        "name": "Vilhelmina Kommun",
        "stateId": 2664415,
        "latitude": 64.99358,
        "longitude": 16.03212
    },
    {
        "cityId": 2665089,
        "name": "V\u00e4nn\u00e4s Kommun",
        "stateId": 2664415,
        "latitude": 63.9496,
        "longitude": 19.70834
    },
    {
        "cityId": 2671529,
        "name": "Storumans Kommun",
        "stateId": 2664415,
        "latitude": 65.45192,
        "longitude": 16.2581
    },
    {
        "cityId": 2675078,
        "name": "Sorsele Kommun",
        "stateId": 2664415,
        "latitude": 65.75,
        "longitude": 16.75
    },
    {
        "cityId": 2688170,
        "name": "Norsj\u00f6 Kommun",
        "stateId": 2664415,
        "latitude": 64.92993,
        "longitude": 19.55556
    },
    {
        "cityId": 2689334,
        "name": "Nordmalings Kommun",
        "stateId": 2664415,
        "latitude": 63.68542,
        "longitude": 19.36777
    },
    {
        "cityId": 2693147,
        "name": "Mal\u00e5 Kommun",
        "stateId": 2664415,
        "latitude": 65.2,
        "longitude": 18.75
    },
    {
        "cityId": 2693346,
        "name": "Lycksele kommun",
        "stateId": 2664415,
        "latitude": 64.62437,
        "longitude": 18.4893
    },
    {
        "cityId": 2717400,
        "name": "Dorotea Kommun",
        "stateId": 2664415,
        "latitude": 64.57981,
        "longitude": 15.80614
    },
    {
        "cityId": 2721584,
        "name": "Bjurholms Kommun",
        "stateId": 2664415,
        "latitude": 63.96667,
        "longitude": 19
    },
    {
        "cityId": 2724956,
        "name": "\u00c5sele Kommun",
        "stateId": 2664415,
        "latitude": 64.16604,
        "longitude": 17.62356
    }
]