[
    {
        "cityId": "603569",
        "name": "Pite\u00e5 Kommun",
        "stateId": "604010",
        "latitude": 65.37229,
        "longitude": 20.85153
    },
    {
        "cityId": "603760",
        "name": "Pajala Kommun",
        "stateId": "604010",
        "latitude": 67.24069,
        "longitude": 22.91667
    },
    {
        "cityId": "603813",
        "name": "\u00d6vertorne\u00e5 Kommun",
        "stateId": "604010",
        "latitude": 66.48317,
        "longitude": 23.43866
    },
    {
        "cityId": "603822",
        "name": "\u00d6verkalix Kommun",
        "stateId": "604010",
        "latitude": 66.47043,
        "longitude": 22.57928
    },
    {
        "cityId": "604488",
        "name": "Lule\u00e5 kommun",
        "stateId": "604010",
        "latitude": 65.68333,
        "longitude": 22.16667
    },
    {
        "cityId": "605387",
        "name": "Kalix Kommun",
        "stateId": "604010",
        "latitude": 65.96118,
        "longitude": 22.98669
    },
    {
        "cityId": "605857",
        "name": "Haparanda Kommun",
        "stateId": "604010",
        "latitude": 65.91662,
        "longitude": 23.84607
    },
    {
        "cityId": "606084",
        "name": "G\u00e4llivare kommun",
        "stateId": "604010",
        "latitude": 67.39347,
        "longitude": 19.70834
    },
    {
        "cityId": "606530",
        "name": "Bodens Kommun",
        "stateId": "604010",
        "latitude": 66.04393,
        "longitude": 21.29977
    },
    {
        "cityId": "606833",
        "name": "\u00c4lvsbyns Kommun",
        "stateId": "604010",
        "latitude": 65.73201,
        "longitude": 20.71412
    },
    {
        "cityId": "2700801",
        "name": "Kiruna Kommun",
        "stateId": "604010",
        "latitude": 68.17009,
        "longitude": 20.54861
    },
    {
        "cityId": "2702996",
        "name": "Jokkmokks Kommun",
        "stateId": "604010",
        "latitude": 66.90967,
        "longitude": 18.50521
    },
    {
        "cityId": "2725134",
        "name": "Arvidsjaurs Kommun",
        "stateId": "604010",
        "latitude": 65.66667,
        "longitude": 19.25
    },
    {
        "cityId": "2725371",
        "name": "Arjeplogs Kommun",
        "stateId": "604010",
        "latitude": 66.37495,
        "longitude": 17.17477
    }
]