[
    {
        "cityId": "621846",
        "name": "Slawharadski Rayon",
        "stateId": "625073",
        "latitude": 53.5,
        "longitude": 31
    },
    {
        "cityId": "622033",
        "name": "Shklowski Rayon",
        "stateId": "625073",
        "latitude": 54.16667,
        "longitude": 30.33333
    },
    {
        "cityId": "624028",
        "name": "Asipovitski Rayon",
        "stateId": "625073",
        "latitude": 53.33333,
        "longitude": 28.75
    },
    {
        "cityId": "624891",
        "name": "Mstsislawski Rayon",
        "stateId": "625073",
        "latitude": 54,
        "longitude": 31.5
    },
    {
        "cityId": "625072",
        "name": "Mahilyowski Rayon",
        "stateId": "625073",
        "latitude": 53.83333,
        "longitude": 30.25
    },
    {
        "cityId": "626490",
        "name": "Kruhlyanski Rayon",
        "stateId": "625073",
        "latitude": 54.16667,
        "longitude": 29.66667
    },
    {
        "cityId": "626545",
        "name": "Krychawski Rayon",
        "stateId": "625073",
        "latitude": 53.75,
        "longitude": 31.66667
    },
    {
        "cityId": "626626",
        "name": "Krasnapol\u2019ski Rayon",
        "stateId": "625073",
        "latitude": 53.33333,
        "longitude": 31.41667
    },
    {
        "cityId": "626807",
        "name": "Kastsyukovitski Rayon",
        "stateId": "625073",
        "latitude": 53.33333,
        "longitude": 32
    },
    {
        "cityId": "627199",
        "name": "Klimavitski Rayon",
        "stateId": "625073",
        "latitude": 53.58333,
        "longitude": 32
    },
    {
        "cityId": "627204",
        "name": "Klichawski Rayon",
        "stateId": "625073",
        "latitude": 53.5,
        "longitude": 29.33333
    },
    {
        "cityId": "627271",
        "name": "Kirawski Rayon",
        "stateId": "625073",
        "latitude": 53.33333,
        "longitude": 29.5
    },
    {
        "cityId": "627380",
        "name": "Khotsimski Rayon",
        "stateId": "625073",
        "latitude": 53.41667,
        "longitude": 32.5
    },
    {
        "cityId": "628237",
        "name": "Horatski Rayon",
        "stateId": "625073",
        "latitude": 54.33333,
        "longitude": 31
    },
    {
        "cityId": "628386",
        "name": "Hluski Rayon",
        "stateId": "625073",
        "latitude": 52.91667,
        "longitude": 28.66667
    },
    {
        "cityId": "629346",
        "name": "Cherykawski Rayon",
        "stateId": "625073",
        "latitude": 53.66667,
        "longitude": 31.33333
    },
    {
        "cityId": "629396",
        "name": "Chavuski Rayon",
        "stateId": "625073",
        "latitude": 53.83333,
        "longitude": 30.91667
    },
    {
        "cityId": "629443",
        "name": "Bykhawski Rayon",
        "stateId": "625073",
        "latitude": 53.5,
        "longitude": 30.25
    },
    {
        "cityId": "630046",
        "name": "Babruyski Rayon",
        "stateId": "625073",
        "latitude": 53.08333,
        "longitude": 29.16667
    },
    {
        "cityId": "630244",
        "name": "Byalynitski Rayon",
        "stateId": "625073",
        "latitude": 54,
        "longitude": 29.75
    },
    {
        "cityId": "828843",
        "name": "Drybinski Rayon",
        "stateId": "625073",
        "latitude": 54.08333,
        "longitude": 31
    },
    {
        "cityId": "828917",
        "name": "Mahilyow",
        "stateId": "625073",
        "latitude": 53.91389,
        "longitude": 30.33639
    },
    {
        "cityId": "828919",
        "name": "Horad Asipovichy",
        "stateId": "625073",
        "latitude": 53.29333,
        "longitude": 28.64222
    },
    {
        "cityId": "7874038",
        "name": "Kirawsk",
        "stateId": "625073",
        "latitude": 53.27292,
        "longitude": 29.47426
    }
]