[
    {
        "cityId": 1516632,
        "name": "Zhelez\u012bn A\u016bdany",
        "stateId": 1520239,
        "latitude": 53.83333,
        "longitude": 76
    },
    {
        "cityId": 1517194,
        "name": "Aqs\u016b A\u016bdany",
        "stateId": 1520239,
        "latitude": 52.16667,
        "longitude": 76.75
    },
    {
        "cityId": 1517619,
        "name": "\u016aspenka A\u016bdany",
        "stateId": 1520239,
        "latitude": 53.08333,
        "longitude": 77.5
    },
    {
        "cityId": 1517745,
        "name": "\u016al\u2019yanov A\u016bdany",
        "stateId": 1520239,
        "latitude": 50,
        "longitude": 74
    },
    {
        "cityId": 1519247,
        "name": "Sharbaqty A\u016bdany",
        "stateId": 1520239,
        "latitude": 52.41667,
        "longitude": 78.25
    },
    {
        "cityId": 1520238,
        "name": "Pavlodar A\u016bdany",
        "stateId": 1520239,
        "latitude": 52.41667,
        "longitude": 77.5
    },
    {
        "cityId": 1521012,
        "name": "May A\u016bdany",
        "stateId": 1520239,
        "latitude": 51,
        "longitude": 77.5
    },
    {
        "cityId": 1521382,
        "name": "Lebyazh\u2019e A\u016bdany",
        "stateId": 1520239,
        "latitude": 51.5,
        "longitude": 78.16667
    },
    {
        "cityId": 1522019,
        "name": "Aqtoghay A\u016bdany",
        "stateId": 1520239,
        "latitude": 52.75,
        "longitude": 75.16667
    },
    {
        "cityId": 1523663,
        "name": "Qashyr A\u016bdany",
        "stateId": 1520239,
        "latitude": 53.25,
        "longitude": 76.5
    },
    {
        "cityId": 1523767,
        "name": "Ertis A\u016bdany",
        "stateId": 1520239,
        "latitude": 53.25,
        "longitude": 74.5
    },
    {
        "cityId": 1524322,
        "name": "Ekibastuz A\u016bdany",
        "stateId": 1520239,
        "latitude": 51.83333,
        "longitude": 74.91667
    },
    {
        "cityId": 1525651,
        "name": "Bayana\u016byl A\u016bdany",
        "stateId": 1520239,
        "latitude": 50.91667,
        "longitude": 75.5
    },
    {
        "cityId": 1537290,
        "name": "Pavlodar Qalasy",
        "stateId": 1520239,
        "latitude": 52.3,
        "longitude": 76.95
    },
    {
        "cityId": 1537291,
        "name": "Gorod Aksu",
        "stateId": 1520239,
        "latitude": 52.03333,
        "longitude": 76.91667
    },
    {
        "cityId": 1537292,
        "name": "Ekibastuz Qalasy",
        "stateId": 1520239,
        "latitude": 51.66667,
        "longitude": 75.36667
    }
]