[
    {
        "cityId": "1517577",
        "name": "\u00dcyghyr A\u016bdany",
        "stateId": "1537162",
        "latitude": 43.5,
        "longitude": 79.75
    },
    {
        "cityId": "1518519",
        "name": "Talghar A\u016bdany",
        "stateId": "1537162",
        "latitude": 44,
        "longitude": 77.5
    },
    {
        "cityId": "1518545",
        "name": "Taldyqorghan A\u016bdany",
        "stateId": "1537162",
        "latitude": 44.83333,
        "longitude": 79
    },
    {
        "cityId": "1519704",
        "name": "Sarqan A\u016bdany",
        "stateId": "1537162",
        "latitude": 45.5,
        "longitude": 80.25
    },
    {
        "cityId": "1520251",
        "name": "Panf\u012blov A\u016bdany",
        "stateId": "1537162",
        "latitude": 44.25,
        "longitude": 79.75
    },
    {
        "cityId": "1520746",
        "name": "Rayymbek A\u016bdany",
        "stateId": "1537162",
        "latitude": 43,
        "longitude": 80
    },
    {
        "cityId": "1521711",
        "name": "K\u00fcrti A\u016bdany",
        "stateId": "1537162",
        "latitude": 44.83333,
        "longitude": 75.5
    },
    {
        "cityId": "1522636",
        "name": "K\u00f6ks\u016b A\u016bdany",
        "stateId": "1537162",
        "latitude": 44.83333,
        "longitude": 77.75
    },
    {
        "cityId": "1522739",
        "name": "Kerbulaq A\u016bdany",
        "stateId": "1537162",
        "latitude": 44.16667,
        "longitude": 78.25
    },
    {
        "cityId": "1522816",
        "name": "Kegen A\u016bdany",
        "stateId": "1537162",
        "latitude": 43,
        "longitude": 78.75
    },
    {
        "cityId": "1522943",
        "name": "Qaskeleng A\u016bdany",
        "stateId": "1537162",
        "latitude": 43,
        "longitude": 76.75
    },
    {
        "cityId": "1523101",
        "name": "Qaratal A\u016bdany",
        "stateId": "1537162",
        "latitude": 45.66667,
        "longitude": 77.25
    },
    {
        "cityId": "1523500",
        "name": "Qapal A\u016bdany",
        "stateId": "1537162",
        "latitude": 45.16667,
        "longitude": 79.25
    },
    {
        "cityId": "1524128",
        "name": "Ile A\u016bdany",
        "stateId": "1537162",
        "latitude": 43.83333,
        "longitude": 76.75
    },
    {
        "cityId": "1524156",
        "name": "Gvard\u012bya A\u016bdany",
        "stateId": "1537162",
        "latitude": 44.5,
        "longitude": 79
    },
    {
        "cityId": "1524315",
        "name": "Engbekshiqazaq A\u016bdany",
        "stateId": "1537162",
        "latitude": 43.41667,
        "longitude": 77.5
    },
    {
        "cityId": "1524438",
        "name": "Zhambyl A\u016bdany",
        "stateId": "1537162",
        "latitude": 43.5,
        "longitude": 75.75
    },
    {
        "cityId": "1524792",
        "name": "Shelek A\u016bdany",
        "stateId": "1537162",
        "latitude": 43.5,
        "longitude": 78.5
    },
    {
        "cityId": "1524969",
        "name": "B\u00f6rilit\u00f6be A\u016bdany",
        "stateId": "1537162",
        "latitude": 46.33333,
        "longitude": 79
    },
    {
        "cityId": "1525804",
        "name": "Balqash A\u016bdany",
        "stateId": "1537162",
        "latitude": 45.33333,
        "longitude": 75.75
    },
    {
        "cityId": "1526298",
        "name": "\u00dcygentas A\u016bdany",
        "stateId": "1537162",
        "latitude": 45.5,
        "longitude": 81
    },
    {
        "cityId": "1526489",
        "name": "Alak\u00f6l A\u016bdany",
        "stateId": "1537162",
        "latitude": 46.16667,
        "longitude": 81.25
    },
    {
        "cityId": "1526631",
        "name": "Aqs\u016b A\u016bdany",
        "stateId": "1537162",
        "latitude": 45.66667,
        "longitude": 79.5
    },
    {
        "cityId": "1537281",
        "name": "Kapshagay city",
        "stateId": "1537162",
        "latitude": 43.88333,
        "longitude": 77.08333
    },
    {
        "cityId": "1537282",
        "name": "Talghar Qalasy",
        "stateId": "1537162",
        "latitude": 43.31667,
        "longitude": 77.25
    },
    {
        "cityId": "1537283",
        "name": "Taldyqorghan Qalasy",
        "stateId": "1537162",
        "latitude": 45,
        "longitude": 78.4
    },
    {
        "cityId": "1537284",
        "name": "Tekeli Qalasy",
        "stateId": "1537162",
        "latitude": 44.8,
        "longitude": 78.95
    },
    {
        "cityId": "11184241",
        "name": "Zhambyl District",
        "stateId": "1537162",
        "latitude": 43.2234,
        "longitude": 76.313
    }
]