[
    {
        "cityId": "3650979",
        "name": "Cant\u00f3n Sozoranga",
        "stateId": "3654665",
        "latitude": -4.33333,
        "longitude": -79.78333
    },
    {
        "cityId": "3651244",
        "name": "Cant\u00f3n Saraguro",
        "stateId": "3654665",
        "latitude": -3.65,
        "longitude": -79.25
    },
    {
        "cityId": "3652587",
        "name": "Cant\u00f3n Puyango",
        "stateId": "3654665",
        "latitude": -4.01667,
        "longitude": -80.01667
    },
    {
        "cityId": "3653515",
        "name": "Cant\u00f3n Paltas",
        "stateId": "3654665",
        "latitude": -4.06667,
        "longitude": -79.63333
    },
    {
        "cityId": "3654544",
        "name": "Cant\u00f3n Macar\u00e1",
        "stateId": "3654665",
        "latitude": -4.38333,
        "longitude": -79.95
    },
    {
        "cityId": "3654666",
        "name": "Cant\u00f3n Loja",
        "stateId": "3654665",
        "latitude": -4,
        "longitude": -79.2
    },
    {
        "cityId": "3657777",
        "name": "Cant\u00f3n Gonzanam\u00e1",
        "stateId": "3654665",
        "latitude": -4.25,
        "longitude": -79.45
    },
    {
        "cityId": "3657967",
        "name": "Cant\u00f3n Espindola",
        "stateId": "3654665",
        "latitude": -4.6,
        "longitude": -79.41667
    },
    {
        "cityId": "3659543",
        "name": "Cant\u00f3n Celica",
        "stateId": "3654665",
        "latitude": -4.15536,
        "longitude": -80.00725
    },
    {
        "cityId": "3659598",
        "name": "Cant\u00f3n Catamayo",
        "stateId": "3654665",
        "latitude": -3.98333,
        "longitude": -79.35
    },
    {
        "cityId": "3659882",
        "name": "Cant\u00f3n Calvas",
        "stateId": "3654665",
        "latitude": -4.31667,
        "longitude": -79.56667
    },
    {
        "cityId": "10792457",
        "name": "Chaguarpamba",
        "stateId": "3654665",
        "latitude": -3.85595,
        "longitude": -79.67225
    },
    {
        "cityId": "10792495",
        "name": "Zapotillo",
        "stateId": "3654665",
        "latitude": -4.22038,
        "longitude": -80.32116
    },
    {
        "cityId": "10792496",
        "name": "Pindal",
        "stateId": "3654665",
        "latitude": -4.08074,
        "longitude": -80.10644
    },
    {
        "cityId": "10792497",
        "name": "Quilanga",
        "stateId": "3654665",
        "latitude": -4.34159,
        "longitude": -79.37862
    },
    {
        "cityId": "10792498",
        "name": "Olmedo",
        "stateId": "3654665",
        "latitude": -3.93045,
        "longitude": -79.62508
    }
]