[
    {
        "cityId": 3615729,
        "name": "Municipio de Wasp\u00e1n",
        "stateId": 3830307,
        "latitude": 14.58333,
        "longitude": -84.41667
    },
    {
        "cityId": 3617153,
        "name": "Municipio de Puerto Cabezas",
        "stateId": 3830307,
        "latitude": 14.04009,
        "longitude": -83.3937
    },
    {
        "cityId": 3617168,
        "name": "Municipio de Prinzapolka",
        "stateId": 3830307,
        "latitude": 13.83333,
        "longitude": -84.33333
    },
    {
        "cityId": 8335435,
        "name": "Municipio de Siuna",
        "stateId": 3830307,
        "latitude": 13.7417,
        "longitude": -84.78653
    },
    {
        "cityId": 8335437,
        "name": "Municipio de Waslala",
        "stateId": 3830307,
        "latitude": 13.33351,
        "longitude": -85.36286
    },
    {
        "cityId": 8693133,
        "name": "Municipio de Rosita",
        "stateId": 3830307,
        "latitude": 13.88333,
        "longitude": -84.4
    },
    {
        "cityId": 9166062,
        "name": "Municipio de Bonanza",
        "stateId": 3830307,
        "latitude": 14.02968,
        "longitude": -84.59679
    },
    {
        "cityId": 9166065,
        "name": "Mulukuku",
        "stateId": 3830307,
        "latitude": 13.16975,
        "longitude": -84.96191
    }
]