[
    {
        "cityId": "7626936",
        "name": "Dalipebinaw Municipality",
        "stateId": "2081175",
        "latitude": 9.52229,
        "longitude": 138.0854
    },
    {
        "cityId": "7626937",
        "name": "Eauripik Municipality",
        "stateId": "2081175",
        "latitude": 6.687,
        "longitude": 143.036
    },
    {
        "cityId": "7626938",
        "name": "Elato Municipality",
        "stateId": "2081175",
        "latitude": 7.502,
        "longitude": 146.163
    },
    {
        "cityId": "7626939",
        "name": "Fais Municipality",
        "stateId": "2081175",
        "latitude": 9.766,
        "longitude": 140.519
    },
    {
        "cityId": "7626940",
        "name": "Fanif Municipality",
        "stateId": "2081175",
        "latitude": 9.56056,
        "longitude": 138.11333
    },
    {
        "cityId": "7626941",
        "name": "Faraulep Municipality",
        "stateId": "2081175",
        "latitude": 8.588,
        "longitude": 144.5065
    },
    {
        "cityId": "7626942",
        "name": "Gaferut Municipality",
        "stateId": "2081175",
        "latitude": 9.228,
        "longitude": 145.384
    },
    {
        "cityId": "7626943",
        "name": "Gagil Municipality",
        "stateId": "2081175",
        "latitude": 9.54722,
        "longitude": 138.19028
    },
    {
        "cityId": "7626944",
        "name": "Gilman Municipality",
        "stateId": "2081175",
        "latitude": 9.44611,
        "longitude": 138.06389
    },
    {
        "cityId": "7626945",
        "name": "Ifalik Municipality",
        "stateId": "2081175",
        "latitude": 7.25,
        "longitude": 144.443
    },
    {
        "cityId": "7626946",
        "name": "Kanifay Municipality",
        "stateId": "2081175",
        "latitude": 9.46735,
        "longitude": 138.05935
    },
    {
        "cityId": "7626947",
        "name": "Lamotrek Municipality",
        "stateId": "2081175",
        "latitude": 7.491,
        "longitude": 146.303
    },
    {
        "cityId": "7626948",
        "name": "Maap Municipality",
        "stateId": "2081175",
        "latitude": 9.58975,
        "longitude": 138.17119
    },
    {
        "cityId": "7626949",
        "name": "Ngulu Municipality",
        "stateId": "2081175",
        "latitude": 8.45,
        "longitude": 137.481
    },
    {
        "cityId": "7626950",
        "name": "Rull Municipality",
        "stateId": "2081175",
        "latitude": 9.50773,
        "longitude": 138.1154
    },
    {
        "cityId": "7626951",
        "name": "Rumung Municipality",
        "stateId": "2081175",
        "latitude": 9.62428,
        "longitude": 138.15745
    },
    {
        "cityId": "7626952",
        "name": "Satawal Municipality",
        "stateId": "2081175",
        "latitude": 7.382,
        "longitude": 147.0318
    },
    {
        "cityId": "7626953",
        "name": "Sorol Municipality",
        "stateId": "2081175",
        "latitude": 8.1435,
        "longitude": 140.3925
    },
    {
        "cityId": "7626954",
        "name": "Tomil Municipality",
        "stateId": "2081175",
        "latitude": 9.52517,
        "longitude": 138.15488
    },
    {
        "cityId": "7626955",
        "name": "Ulithi Municipality",
        "stateId": "2081175",
        "latitude": 9.9,
        "longitude": 139.6
    },
    {
        "cityId": "7626956",
        "name": "Weloy Municipality",
        "stateId": "2081175",
        "latitude": 9.52712,
        "longitude": 138.11909
    },
    {
        "cityId": "7626957",
        "name": "Woleai Municipality",
        "stateId": "2081175",
        "latitude": 7.345,
        "longitude": 143.857
    }
]