[
    {
        "cityId": "3665901",
        "name": "Villavicencio",
        "stateId": "3674810",
        "latitude": 4.07424,
        "longitude": -73.4915
    },
    {
        "cityId": "3669334",
        "name": "San Mart\u00edn",
        "stateId": "3674810",
        "latitude": 3.7,
        "longitude": -73.7
    },
    {
        "cityId": "3670859",
        "name": "Restrepo",
        "stateId": "3674810",
        "latitude": 4.29414,
        "longitude": -73.59558
    },
    {
        "cityId": "3671422",
        "name": "Puerto L\u00f3pez",
        "stateId": "3674810",
        "latitude": 4.08333,
        "longitude": -72.96667
    },
    {
        "cityId": "3671425",
        "name": "Puerto Lleras",
        "stateId": "3674810",
        "latitude": 3.21794,
        "longitude": -73.23215
    },
    {
        "cityId": "3681607",
        "name": "Guamal",
        "stateId": "3674810",
        "latitude": 3.91667,
        "longitude": -74
    },
    {
        "cityId": "3681961",
        "name": "Granada",
        "stateId": "3674810",
        "latitude": 3.4859,
        "longitude": -73.76213
    },
    {
        "cityId": "3684771",
        "name": "El Calvario",
        "stateId": "3674810",
        "latitude": 4.35426,
        "longitude": -73.74431
    },
    {
        "cityId": "3685446",
        "name": "Cumaral",
        "stateId": "3674810",
        "latitude": 4.25,
        "longitude": -73.33333
    },
    {
        "cityId": "3687085",
        "name": "Castilla la Nueva",
        "stateId": "3674810",
        "latitude": 3.8,
        "longitude": -73.58333
    },
    {
        "cityId": "3690578",
        "name": "Acac\u00edas",
        "stateId": "3674810",
        "latitude": 4.00929,
        "longitude": -73.78017
    },
    {
        "cityId": "6826880",
        "name": "La Macarena",
        "stateId": "3674810",
        "latitude": 2.00702,
        "longitude": -74.0732
    },
    {
        "cityId": "7015557",
        "name": "Mesetas",
        "stateId": "3674810",
        "latitude": 3.15558,
        "longitude": -74.09938
    },
    {
        "cityId": "7015714",
        "name": "Vistahermosa",
        "stateId": "3674810",
        "latitude": 2.90407,
        "longitude": -73.53212
    },
    {
        "cityId": "7017789",
        "name": "Puerto Concordia",
        "stateId": "3674810",
        "latitude": 2.62257,
        "longitude": -72.76108
    },
    {
        "cityId": "9172165",
        "name": "San Juanito",
        "stateId": "3674810",
        "latitude": 4.42906,
        "longitude": -73.69636
    },
    {
        "cityId": "9172168",
        "name": "El Castillo",
        "stateId": "3674810",
        "latitude": 3.57723,
        "longitude": -73.96443
    },
    {
        "cityId": "9172267",
        "name": "Puerto Rico",
        "stateId": "3674810",
        "latitude": 2.78273,
        "longitude": -73.13956
    },
    {
        "cityId": "9172356",
        "name": "San Juan de Arama",
        "stateId": "3674810",
        "latitude": 3.29034,
        "longitude": -73.82065
    },
    {
        "cityId": "9172358",
        "name": "San Carlos de Guaroa",
        "stateId": "3674810",
        "latitude": 3.79842,
        "longitude": -73.21786
    },
    {
        "cityId": "9172360",
        "name": "Puerto Gait\u00e1n",
        "stateId": "3674810",
        "latitude": 3.99382,
        "longitude": -71.63701
    },
    {
        "cityId": "9172361",
        "name": "Lejan\u00edas",
        "stateId": "3674810",
        "latitude": 3.52918,
        "longitude": -74.02382
    },
    {
        "cityId": "9172364",
        "name": "Fuente de Oro",
        "stateId": "3674810",
        "latitude": 3.34167,
        "longitude": -73.62951
    },
    {
        "cityId": "9172367",
        "name": "El Dorado",
        "stateId": "3674810",
        "latitude": 3.70772,
        "longitude": -73.83246
    },
    {
        "cityId": "9172368",
        "name": "Cubarral",
        "stateId": "3674810",
        "latitude": 3.82671,
        "longitude": -74.07671
    },
    {
        "cityId": "9172369",
        "name": "Cabuyaro",
        "stateId": "3674810",
        "latitude": 4.28533,
        "longitude": -72.98028
    },
    {
        "cityId": "9172395",
        "name": "Barranca de Up\u00eda",
        "stateId": "3674810",
        "latitude": 4.47448,
        "longitude": -72.99367
    },
    {
        "cityId": "9172408",
        "name": "Mapirip\u00e1n",
        "stateId": "3674810",
        "latitude": 3.09706,
        "longitude": -71.94964
    },
    {
        "cityId": "9609525",
        "name": "Uribe",
        "stateId": "3674810",
        "latitude": 3.02646,
        "longitude": -74.43614
    }
]