[
    {
        "cityId": 3667529,
        "name": "Tamalameque",
        "stateId": 3686880,
        "latitude": 8.86422,
        "longitude": -73.78106
    },
    {
        "cityId": 3670673,
        "name": "La Paz",
        "stateId": 3686880,
        "latitude": 10.10487,
        "longitude": -73.22056
    },
    {
        "cityId": 3670757,
        "name": "R\u00edo de Oro",
        "stateId": 3686880,
        "latitude": 8.17879,
        "longitude": -73.51218
    },
    {
        "cityId": 3678913,
        "name": "La Gloria",
        "stateId": 3686880,
        "latitude": 8.58333,
        "longitude": -73.58333
    },
    {
        "cityId": 3681991,
        "name": "Gonz\u00e1lez",
        "stateId": 3686880,
        "latitude": 8.36735,
        "longitude": -73.40032
    },
    {
        "cityId": 3682184,
        "name": "Gamarra",
        "stateId": 3686880,
        "latitude": 8.34228,
        "longitude": -73.67418
    },
    {
        "cityId": 3686481,
        "name": "Chiriguan\u00e1",
        "stateId": 3686880,
        "latitude": 9.39322,
        "longitude": -73.51883
    },
    {
        "cityId": 3686586,
        "name": "Chimichagua",
        "stateId": 3686880,
        "latitude": 9.33333,
        "longitude": -73.83333
    },
    {
        "cityId": 3690298,
        "name": "Agust\u00edn Codazzi",
        "stateId": 3686880,
        "latitude": 9.91667,
        "longitude": -73.25
    },
    {
        "cityId": 3690466,
        "name": "Aguachica",
        "stateId": 3686880,
        "latitude": 8.33333,
        "longitude": -73.58333
    },
    {
        "cityId": 9073589,
        "name": "San Alberto",
        "stateId": 3686880,
        "latitude": 7.81435,
        "longitude": -73.45818
    },
    {
        "cityId": 9172163,
        "name": "San Mart\u00edn",
        "stateId": 3686880,
        "latitude": 7.97003,
        "longitude": -73.57247
    },
    {
        "cityId": 9172309,
        "name": "Astrea",
        "stateId": 3686880,
        "latitude": 9.48985,
        "longitude": -73.97883
    },
    {
        "cityId": 9172311,
        "name": "Becerril",
        "stateId": 3686880,
        "latitude": 9.74288,
        "longitude": -73.21746
    },
    {
        "cityId": 9172312,
        "name": "Bosconia",
        "stateId": 3686880,
        "latitude": 9.92922,
        "longitude": -73.88856
    },
    {
        "cityId": 9172314,
        "name": "Curuman\u00ed",
        "stateId": 3686880,
        "latitude": 9.20545,
        "longitude": -73.51988
    },
    {
        "cityId": 9172315,
        "name": "El Paso",
        "stateId": 3686880,
        "latitude": 9.65843,
        "longitude": -73.71418
    },
    {
        "cityId": 9172317,
        "name": "Manaure",
        "stateId": 3686880,
        "latitude": 10.40138,
        "longitude": -72.93102
    },
    {
        "cityId": 9172319,
        "name": "Pailitas",
        "stateId": 3686880,
        "latitude": 8.9255,
        "longitude": -73.59292
    },
    {
        "cityId": 9172326,
        "name": "San Diego",
        "stateId": 3686880,
        "latitude": 10.23244,
        "longitude": -73.27349
    },
    {
        "cityId": 9172328,
        "name": "Valledupar",
        "stateId": 3686880,
        "latitude": 10.35653,
        "longitude": -73.36641
    },
    {
        "cityId": 9172363,
        "name": "El Copey",
        "stateId": 3686880,
        "latitude": 10.18544,
        "longitude": -73.93328
    },
    {
        "cityId": 9172414,
        "name": "Pelaya",
        "stateId": 3686880,
        "latitude": 8.77066,
        "longitude": -73.61088
    },
    {
        "cityId": 9179887,
        "name": "La Jagua de Ibirico",
        "stateId": 3686880,
        "latitude": 9.56667,
        "longitude": -73.33333
    },
    {
        "cityId": 9179890,
        "name": "Pueblo Bello",
        "stateId": 3686880,
        "latitude": 10.41667,
        "longitude": -73.58333
    }
]