[
    {
        "cityId": 3665548,
        "name": "Zetaquira",
        "stateId": 3688536,
        "latitude": 5.25824,
        "longitude": -73.18275
    },
    {
        "cityId": 3665880,
        "name": "Viracach\u00e1",
        "stateId": 3688536,
        "latitude": 5.44107,
        "longitude": -73.26679
    },
    {
        "cityId": 3666166,
        "name": "Ventaquemada",
        "stateId": 3688536,
        "latitude": 5.35987,
        "longitude": -73.55032
    },
    {
        "cityId": 3666494,
        "name": "Umbita",
        "stateId": 3688536,
        "latitude": 5.18411,
        "longitude": -73.48341
    },
    {
        "cityId": 3666545,
        "name": "Tutaz\u00e1",
        "stateId": 3688536,
        "latitude": 6.05133,
        "longitude": -72.87963
    },
    {
        "cityId": 3666551,
        "name": "Tuta",
        "stateId": 3688536,
        "latitude": 5.64588,
        "longitude": -73.21399
    },
    {
        "cityId": 3666563,
        "name": "Turmequ\u00e9",
        "stateId": 3688536,
        "latitude": 5.3062,
        "longitude": -73.50875
    },
    {
        "cityId": 3666610,
        "name": "Tunja",
        "stateId": 3688536,
        "latitude": 5.51801,
        "longitude": -73.37831
    },
    {
        "cityId": 3666841,
        "name": "Tota",
        "stateId": 3688536,
        "latitude": 5.5,
        "longitude": -73
    },
    {
        "cityId": 3666906,
        "name": "T\u00f3paga",
        "stateId": 3688536,
        "latitude": 5.77484,
        "longitude": -72.82837
    },
    {
        "cityId": 3666965,
        "name": "Tog\u00fc\u00ed",
        "stateId": 3688536,
        "latitude": 5.89434,
        "longitude": -73.51366
    },
    {
        "cityId": 3667008,
        "name": "Toca",
        "stateId": 3688536,
        "latitude": 5.55822,
        "longitude": -73.18539
    },
    {
        "cityId": 3667051,
        "name": "Tinjac\u00e1",
        "stateId": 3688536,
        "latitude": 5.56637,
        "longitude": -73.71053
    },
    {
        "cityId": 3667213,
        "name": "Tibasosa",
        "stateId": 3688536,
        "latitude": 5.74722,
        "longitude": -73.01091
    },
    {
        "cityId": 3667219,
        "name": "Tiban\u00e1",
        "stateId": 3688536,
        "latitude": 5.28461,
        "longitude": -73.42777
    },
    {
        "cityId": 3667289,
        "name": "Tenza",
        "stateId": 3688536,
        "latitude": 5.07083,
        "longitude": -73.42459
    },
    {
        "cityId": 3667374,
        "name": "Tasco",
        "stateId": 3688536,
        "latitude": 5.84817,
        "longitude": -72.75386
    },
    {
        "cityId": 3667648,
        "name": "Sutatenza",
        "stateId": 3688536,
        "latitude": 5.02638,
        "longitude": -73.43372
    },
    {
        "cityId": 3667652,
        "name": "Sutamarch\u00e1n",
        "stateId": 3688536,
        "latitude": 5.61549,
        "longitude": -73.65249
    },
    {
        "cityId": 3667661,
        "name": "Susac\u00f3n",
        "stateId": 3688536,
        "latitude": 6.18607,
        "longitude": -72.75673
    },
    {
        "cityId": 3667797,
        "name": "Sotaquir\u00e1",
        "stateId": 3688536,
        "latitude": 5.76179,
        "longitude": -73.28594
    },
    {
        "cityId": 3667874,
        "name": "Sogamoso",
        "stateId": 3688536,
        "latitude": 5.64011,
        "longitude": -72.9119
    },
    {
        "cityId": 3667881,
        "name": "Socot\u00e1",
        "stateId": 3688536,
        "latitude": 5.90898,
        "longitude": -72.58113
    },
    {
        "cityId": 3667897,
        "name": "Socha",
        "stateId": 3688536,
        "latitude": 5.92926,
        "longitude": -72.70072
    },
    {
        "cityId": 3667903,
        "name": "Soat\u00e1",
        "stateId": 3688536,
        "latitude": 6.29966,
        "longitude": -72.72422
    },
    {
        "cityId": 3668097,
        "name": "Siachoque",
        "stateId": 3688536,
        "latitude": 5.46903,
        "longitude": -73.23448
    },
    {
        "cityId": 3668220,
        "name": "Sativasur",
        "stateId": 3688536,
        "latitude": 6.07102,
        "longitude": -72.71509
    },
    {
        "cityId": 3668222,
        "name": "Sativanorte",
        "stateId": 3688536,
        "latitude": 6.10584,
        "longitude": -72.7532
    },
    {
        "cityId": 3668437,
        "name": "Santa Sof\u00eda",
        "stateId": 3688536,
        "latitude": 5.70213,
        "longitude": -73.62976
    },
    {
        "cityId": 3668448,
        "name": "Santa Rosa de Viterbo",
        "stateId": 3688536,
        "latitude": 5.88515,
        "longitude": -73.01344
    },
    {
        "cityId": 3669174,
        "name": "San Pablo de Borbur",
        "stateId": 3688536,
        "latitude": 5.66638,
        "longitude": -74.13723
    },
    {
        "cityId": 3669239,
        "name": "San Miguel de Sema",
        "stateId": 3688536,
        "latitude": 5.55,
        "longitude": -73.75
    },
    {
        "cityId": 3669314,
        "name": "San Mateo",
        "stateId": 3688536,
        "latitude": 6.37704,
        "longitude": -72.57797
    },
    {
        "cityId": 3669357,
        "name": "San Luis de Gaceno",
        "stateId": 3688536,
        "latitude": 4.85286,
        "longitude": -73.14198
    },
    {
        "cityId": 3669542,
        "name": "San Jos\u00e9 de Pare",
        "stateId": 3688536,
        "latitude": 5.97681,
        "longitude": -73.55959
    },
    {
        "cityId": 3670304,
        "name": "Samac\u00e1",
        "stateId": 3688536,
        "latitude": 5.44739,
        "longitude": -73.55009
    },
    {
        "cityId": 3670432,
        "name": "S\u00e1chica",
        "stateId": 3688536,
        "latitude": 5.57438,
        "longitude": -73.54345
    },
    {
        "cityId": 3670448,
        "name": "Saboy\u00e1",
        "stateId": 3688536,
        "latitude": 5.68787,
        "longitude": -73.78139
    },
    {
        "cityId": 3670627,
        "name": "Rond\u00f3n",
        "stateId": 3688536,
        "latitude": 5.41667,
        "longitude": -73.16667
    },
    {
        "cityId": 3670967,
        "name": "R\u00e1quira",
        "stateId": 3688536,
        "latitude": 5.48395,
        "longitude": -73.65658
    },
    {
        "cityId": 3671003,
        "name": "Ramiriqu\u00ed",
        "stateId": 3688536,
        "latitude": 5.31971,
        "longitude": -73.31137
    },
    {
        "cityId": 3671533,
        "name": "Puerto Boyac\u00e1",
        "stateId": 3688536,
        "latitude": 6,
        "longitude": -74.41667
    },
    {
        "cityId": 3672144,
        "name": "Pisba",
        "stateId": 3688536,
        "latitude": 5.74278,
        "longitude": -72.48944
    },
    {
        "cityId": 3672430,
        "name": "Pesca",
        "stateId": 3688536,
        "latitude": 5.58333,
        "longitude": -73.05
    },
    {
        "cityId": 3672652,
        "name": "Paz de R\u00edo",
        "stateId": 3688536,
        "latitude": 6.00219,
        "longitude": -72.78857
    },
    {
        "cityId": 3672670,
        "name": "Paya",
        "stateId": 3688536,
        "latitude": 5.66667,
        "longitude": -72.38167
    },
    {
        "cityId": 3672699,
        "name": "Pauna",
        "stateId": 3688536,
        "latitude": 5.67575,
        "longitude": -74.02618
    },
    {
        "cityId": 3672982,
        "name": "Panqueba",
        "stateId": 3688536,
        "latitude": 6.40494,
        "longitude": -72.47515
    },
    {
        "cityId": 3673353,
        "name": "Pajarito",
        "stateId": 3688536,
        "latitude": 5.34751,
        "longitude": -72.72075
    },
    {
        "cityId": 3673371,
        "name": "Paipa",
        "stateId": 3688536,
        "latitude": 5.82977,
        "longitude": -73.23086
    },
    {
        "cityId": 3673432,
        "name": "Pachavita",
        "stateId": 3688536,
        "latitude": 5.14857,
        "longitude": -73.39937
    },
    {
        "cityId": 3673476,
        "name": "Otanche",
        "stateId": 3688536,
        "latitude": 5.75,
        "longitude": -74.25
    },
    {
        "cityId": 3673731,
        "name": "Nuevo Col\u00f3n",
        "stateId": 3688536,
        "latitude": 5.35384,
        "longitude": -73.4497
    },
    {
        "cityId": 3673830,
        "name": "Nobsa",
        "stateId": 3688536,
        "latitude": 5.74733,
        "longitude": -72.95604
    },
    {
        "cityId": 3674122,
        "name": "Muzo",
        "stateId": 3688536,
        "latitude": 5.51667,
        "longitude": -74.11667
    },
    {
        "cityId": 3674574,
        "name": "Moniquir\u00e1",
        "stateId": 3688536,
        "latitude": 5.84315,
        "longitude": -73.57775
    },
    {
        "cityId": 3674578,
        "name": "Mongu\u00ed",
        "stateId": 3688536,
        "latitude": 5.69752,
        "longitude": -72.83359
    },
    {
        "cityId": 3674581,
        "name": "Mongua",
        "stateId": 3688536,
        "latitude": 5.67452,
        "longitude": -72.71729
    },
    {
        "cityId": 3674743,
        "name": "Miraflores",
        "stateId": 3688536,
        "latitude": 5.12216,
        "longitude": -73.21212
    },
    {
        "cityId": 3675256,
        "name": "Marip\u00ed",
        "stateId": 3688536,
        "latitude": 5.55733,
        "longitude": -74.0544
    },
    {
        "cityId": 3675793,
        "name": "Macanal",
        "stateId": 3688536,
        "latitude": 4.9505,
        "longitude": -73.32029
    },
    {
        "cityId": 3676662,
        "name": "Villa de Leyva",
        "stateId": 3688536,
        "latitude": 5.63333,
        "longitude": -73.53333
    },
    {
        "cityId": 3676885,
        "name": "La Uvita",
        "stateId": 3688536,
        "latitude": 6.24262,
        "longitude": -72.56448
    },
    {
        "cityId": 3679629,
        "name": "La Capilla",
        "stateId": 3688536,
        "latitude": 5.08076,
        "longitude": -73.48076
    },
    {
        "cityId": 3679717,
        "name": "Labranzagrande",
        "stateId": 3688536,
        "latitude": 5.58333,
        "longitude": -72.58333
    },
    {
        "cityId": 3680319,
        "name": "Jeric\u00f3",
        "stateId": 3688536,
        "latitude": 6.14577,
        "longitude": -72.58598
    },
    {
        "cityId": 3680336,
        "name": "Jenesano",
        "stateId": 3688536,
        "latitude": 5.37701,
        "longitude": -73.37721
    },
    {
        "cityId": 3680427,
        "name": "Iza",
        "stateId": 3688536,
        "latitude": 5.62589,
        "longitude": -72.97823
    },
    {
        "cityId": 3681223,
        "name": "G\u00fcic\u00e1n",
        "stateId": 3688536,
        "latitude": 6.5368,
        "longitude": -72.27308
    },
    {
        "cityId": 3681256,
        "name": "Guayat\u00e1",
        "stateId": 3688536,
        "latitude": 4.91935,
        "longitude": -73.52968
    },
    {
        "cityId": 3681357,
        "name": "Guateque",
        "stateId": 3688536,
        "latitude": 5.01481,
        "longitude": -73.4882
    },
    {
        "cityId": 3681815,
        "name": "Guacamayas",
        "stateId": 3688536,
        "latitude": 6.44599,
        "longitude": -72.51676
    },
    {
        "cityId": 3682161,
        "name": "Garagoa",
        "stateId": 3688536,
        "latitude": 5.13333,
        "longitude": -73.3
    },
    {
        "cityId": 3682173,
        "name": "Gameza",
        "stateId": 3688536,
        "latitude": 5.80313,
        "longitude": -72.73721
    },
    {
        "cityId": 3682261,
        "name": "Gachantiv\u00e1",
        "stateId": 3688536,
        "latitude": 5.74417,
        "longitude": -73.54253
    },
    {
        "cityId": 3682401,
        "name": "Floresta",
        "stateId": 3688536,
        "latitude": 5.85903,
        "longitude": -72.92511
    },
    {
        "cityId": 3682466,
        "name": "Firavitoba",
        "stateId": 3688536,
        "latitude": 5.64045,
        "longitude": -73.05079
    },
    {
        "cityId": 3684192,
        "name": "El Espino",
        "stateId": 3688536,
        "latitude": 6.50812,
        "longitude": -72.48036
    },
    {
        "cityId": 3684511,
        "name": "El Cocuy",
        "stateId": 3688536,
        "latitude": 6.32839,
        "longitude": -72.43577
    },
    {
        "cityId": 3685085,
        "name": "Duitama",
        "stateId": 3688536,
        "latitude": 5.86361,
        "longitude": -73.08988
    },
    {
        "cityId": 3685483,
        "name": "Cu\u00edtiva",
        "stateId": 3688536,
        "latitude": 5.59156,
        "longitude": -72.96278
    },
    {
        "cityId": 3685572,
        "name": "Cubar\u00e1",
        "stateId": 3688536,
        "latitude": 6.88556,
        "longitude": -72.19
    },
    {
        "cityId": 3685715,
        "name": "Covarach\u00eda",
        "stateId": 3688536,
        "latitude": 6.51933,
        "longitude": -72.73996
    },
    {
        "cityId": 3685795,
        "name": "Corrales",
        "stateId": 3688536,
        "latitude": 5.82497,
        "longitude": -72.84539
    },
    {
        "cityId": 3685944,
        "name": "Coper",
        "stateId": 3688536,
        "latitude": 5.43333,
        "longitude": -74.03333
    },
    {
        "cityId": 3686053,
        "name": "C\u00f3mbita",
        "stateId": 3688536,
        "latitude": 5.6876,
        "longitude": -73.32942
    },
    {
        "cityId": 3686280,
        "name": "Ci\u00e9nega",
        "stateId": 3688536,
        "latitude": 5.36332,
        "longitude": -73.29746
    },
    {
        "cityId": 3686455,
        "name": "Chitaraque",
        "stateId": 3688536,
        "latitude": 5.96167,
        "longitude": -73.45761
    },
    {
        "cityId": 3686466,
        "name": "Chita",
        "stateId": 3688536,
        "latitude": 6.07788,
        "longitude": -72.46774
    },
    {
        "cityId": 3686472,
        "name": "Chiscas",
        "stateId": 3688536,
        "latitude": 6.75,
        "longitude": -72.33333
    },
    {
        "cityId": 3686515,
        "name": "Chiquinquir\u00e1",
        "stateId": 3688536,
        "latitude": 5.61363,
        "longitude": -73.83848
    },
    {
        "cityId": 3686571,
        "name": "Chinavita",
        "stateId": 3688536,
        "latitude": 5.17915,
        "longitude": -73.37147
    },
    {
        "cityId": 3686919,
        "name": "Cerinza",
        "stateId": 3688536,
        "latitude": 5.93649,
        "longitude": -72.99127
    },
    {
        "cityId": 3687753,
        "name": "Campohermoso",
        "stateId": 3688536,
        "latitude": 4.97733,
        "longitude": -73.16714
    },
    {
        "cityId": 3687955,
        "name": "Caldas",
        "stateId": 3688536,
        "latitude": 5.55,
        "longitude": -73.88333
    },
    {
        "cityId": 3688215,
        "name": "Busbanz\u00e1",
        "stateId": 3688536,
        "latitude": 5.8435,
        "longitude": -72.86991
    },
    {
        "cityId": 3688364,
        "name": "Buenavista",
        "stateId": 3688536,
        "latitude": 5.5,
        "longitude": -73.96667
    },
    {
        "cityId": 3688505,
        "name": "Brice\u00f1o",
        "stateId": 3688536,
        "latitude": 5.68728,
        "longitude": -73.93284
    },
    {
        "cityId": 3688543,
        "name": "Boyac\u00e1",
        "stateId": 3688536,
        "latitude": 5.44871,
        "longitude": -73.35142
    },
    {
        "cityId": 3688776,
        "name": "Boavita",
        "stateId": 3688536,
        "latitude": 6.30737,
        "longitude": -72.64308
    },
    {
        "cityId": 3688847,
        "name": "Bet\u00e9itiva",
        "stateId": 3688536,
        "latitude": 5.89428,
        "longitude": -72.87079
    },
    {
        "cityId": 3688910,
        "name": "Berbeo",
        "stateId": 3688536,
        "latitude": 5.2276,
        "longitude": -73.12527
    },
    {
        "cityId": 3689007,
        "name": "Bel\u00e9n",
        "stateId": 3688536,
        "latitude": 5.97631,
        "longitude": -72.92481
    },
    {
        "cityId": 3689690,
        "name": "Arcabuco",
        "stateId": 3688536,
        "latitude": 5.72389,
        "longitude": -73.46781
    },
    {
        "cityId": 3689772,
        "name": "Aquitania",
        "stateId": 3688536,
        "latitude": 5.40341,
        "longitude": -72.90192
    },
    {
        "cityId": 3690135,
        "name": "Almeida",
        "stateId": 3688536,
        "latitude": 4.9226,
        "longitude": -73.41131
    },
    {
        "cityId": 9172038,
        "name": "Sorac\u00e1",
        "stateId": 3688536,
        "latitude": 5.49602,
        "longitude": -73.31892
    },
    {
        "cityId": 9172164,
        "name": "Cucaita",
        "stateId": 3688536,
        "latitude": 5.52741,
        "longitude": -73.44631
    },
    {
        "cityId": 9172262,
        "name": "Ch\u00edquiza",
        "stateId": 3688536,
        "latitude": 5.62009,
        "longitude": -73.49619
    },
    {
        "cityId": 9172264,
        "name": "Chivat\u00e1",
        "stateId": 3688536,
        "latitude": 5.54085,
        "longitude": -73.28469
    },
    {
        "cityId": 9172265,
        "name": "Chivor",
        "stateId": 3688536,
        "latitude": 4.83951,
        "longitude": -73.37391
    },
    {
        "cityId": 9172269,
        "name": "Motavita",
        "stateId": 3688536,
        "latitude": 5.5784,
        "longitude": -73.36773
    },
    {
        "cityId": 9172270,
        "name": "Oicat\u00e1",
        "stateId": 3688536,
        "latitude": 5.57477,
        "longitude": -73.31138
    },
    {
        "cityId": 9172272,
        "name": "Qu\u00edpama",
        "stateId": 3688536,
        "latitude": 5.5588,
        "longitude": -74.21664
    },
    {
        "cityId": 9172273,
        "name": "San Eduardo",
        "stateId": 3688536,
        "latitude": 5.20402,
        "longitude": -73.07286
    },
    {
        "cityId": 9172275,
        "name": "Santana",
        "stateId": 3688536,
        "latitude": 6.04464,
        "longitude": -73.51107
    },
    {
        "cityId": 9172276,
        "name": "Somondoco",
        "stateId": 3688536,
        "latitude": 4.96969,
        "longitude": -73.42855
    },
    {
        "cityId": 9172278,
        "name": "Sora",
        "stateId": 3688536,
        "latitude": 5.58076,
        "longitude": -73.44335
    },
    {
        "cityId": 9172279,
        "name": "Tipacoque",
        "stateId": 3688536,
        "latitude": 6.39691,
        "longitude": -72.7219
    },
    {
        "cityId": 9172281,
        "name": "Tunungu\u00e1",
        "stateId": 3688536,
        "latitude": 5.708,
        "longitude": -73.95878
    },
    {
        "cityId": 9172413,
        "name": "P\u00e1ez",
        "stateId": 3688536,
        "latitude": 5.06832,
        "longitude": -73.03077
    },
    {
        "cityId": 9179953,
        "name": "La Victoria",
        "stateId": 3688536,
        "latitude": 5.52278,
        "longitude": -74.2328
    },
    {
        "cityId": 9609547,
        "name": "Santa Mar\u00eda",
        "stateId": 3688536,
        "latitude": 4.82282,
        "longitude": -73.25373
    }
]