[
    {
        "cityId": "3665573",
        "name": "Zaragoza",
        "stateId": "3689815",
        "latitude": 7.4829,
        "longitude": -74.87566
    },
    {
        "cityId": "3665695",
        "name": "Yolomb\u00f3",
        "stateId": "3689815",
        "latitude": 6.66667,
        "longitude": -75
    },
    {
        "cityId": "3665747",
        "name": "Yarumal",
        "stateId": "3689815",
        "latitude": 7,
        "longitude": -75.5
    },
    {
        "cityId": "3665793",
        "name": "Yal\u00ed",
        "stateId": "3689815",
        "latitude": 6.70257,
        "longitude": -74.79018
    },
    {
        "cityId": "3666207",
        "name": "Venecia",
        "stateId": "3689815",
        "latitude": 5.95417,
        "longitude": -75.79904
    },
    {
        "cityId": "3666292",
        "name": "Valpara\u00edso",
        "stateId": "3689815",
        "latitude": 5.65196,
        "longitude": -75.65409
    },
    {
        "cityId": "3666334",
        "name": "Valdivia",
        "stateId": "3689815",
        "latitude": 7.33333,
        "longitude": -75.33333
    },
    {
        "cityId": "3666396",
        "name": "Urrao",
        "stateId": "3689815",
        "latitude": 6.19,
        "longitude": -76.08
    },
    {
        "cityId": "3666571",
        "name": "Turbo",
        "stateId": "3689815",
        "latitude": 8.09539,
        "longitude": -76.73345
    },
    {
        "cityId": "3666962",
        "name": "Toledo",
        "stateId": "3689815",
        "latitude": 7,
        "longitude": -75.7
    },
    {
        "cityId": "3667024",
        "name": "Titirib\u00ed",
        "stateId": "3689815",
        "latitude": 6.08333,
        "longitude": -75.8
    },
    {
        "cityId": "3667381",
        "name": "Tarso",
        "stateId": "3689815",
        "latitude": 5.83333,
        "longitude": -75.83333
    },
    {
        "cityId": "3667474",
        "name": "T\u00e1mesis",
        "stateId": "3689815",
        "latitude": 5.67053,
        "longitude": -75.72153
    },
    {
        "cityId": "3667817",
        "name": "Sopetr\u00e1n",
        "stateId": "3689815",
        "latitude": 6.5,
        "longitude": -75.75
    },
    {
        "cityId": "3667821",
        "name": "Sonson",
        "stateId": "3689815",
        "latitude": 5.75,
        "longitude": -75
    },
    {
        "cityId": "3668177",
        "name": "Segovia",
        "stateId": "3689815",
        "latitude": 7.25,
        "longitude": -74.75
    },
    {
        "cityId": "3668318",
        "name": "San Vicente",
        "stateId": "3689815",
        "latitude": 6.33333,
        "longitude": -75.33333
    },
    {
        "cityId": "3668328",
        "name": "El Santuario",
        "stateId": "3689815",
        "latitude": 6.13333,
        "longitude": -75.25
    },
    {
        "cityId": "3668452",
        "name": "Santa Rosa de Osos",
        "stateId": "3689815",
        "latitude": 6.66667,
        "longitude": -75.41667
    },
    {
        "cityId": "3668920",
        "name": "Santa B\u00e1rbara",
        "stateId": "3689815",
        "latitude": 5.86667,
        "longitude": -75.58333
    },
    {
        "cityId": "3669018",
        "name": "San Roque",
        "stateId": "3689815",
        "latitude": 6.44421,
        "longitude": -74.95246
    },
    {
        "cityId": "3669034",
        "name": "San Rafael",
        "stateId": "3689815",
        "latitude": 6.31234,
        "longitude": -75.02426
    },
    {
        "cityId": "3669168",
        "name": "San Pedro",
        "stateId": "3689815",
        "latitude": 6.43485,
        "longitude": -75.58801
    },
    {
        "cityId": "3669407",
        "name": "San Luis",
        "stateId": "3689815",
        "latitude": 6,
        "longitude": -74.83333
    },
    {
        "cityId": "3669722",
        "name": "San Jer\u00f3nimo",
        "stateId": "3689815",
        "latitude": 6.45,
        "longitude": -75.7
    },
    {
        "cityId": "3670010",
        "name": "San Carlos",
        "stateId": "3689815",
        "latitude": 6.2,
        "longitude": -74.91667
    },
    {
        "cityId": "3670230",
        "name": "San Andr\u00e9s de Cuerqu\u00eda",
        "stateId": "3689815",
        "latitude": 6.91667,
        "longitude": -75.66667
    },
    {
        "cityId": "3670351",
        "name": "Salgar",
        "stateId": "3689815",
        "latitude": 6,
        "longitude": -76
    },
    {
        "cityId": "3670508",
        "name": "Sabanalarga",
        "stateId": "3689815",
        "latitude": 6.91667,
        "longitude": -75.8
    },
    {
        "cityId": "3670736",
        "name": "Rionegro",
        "stateId": "3689815",
        "latitude": 6.16667,
        "longitude": -75.41667
    },
    {
        "cityId": "3670853",
        "name": "Retiro",
        "stateId": "3689815",
        "latitude": 6.08333,
        "longitude": -75.5
    },
    {
        "cityId": "3670900",
        "name": "Remedios",
        "stateId": "3689815",
        "latitude": 7,
        "longitude": -74.41667
    },
    {
        "cityId": "3671541",
        "name": "Puerto Berr\u00edo",
        "stateId": "3689815",
        "latitude": 6.41667,
        "longitude": -74.5
    },
    {
        "cityId": "3671632",
        "name": "Pueblorrico",
        "stateId": "3689815",
        "latitude": 5.8,
        "longitude": -75.85
    },
    {
        "cityId": "3672513",
        "name": "Peque",
        "stateId": "3689815",
        "latitude": 7,
        "longitude": -75.83333
    },
    {
        "cityId": "3672541",
        "name": "Pe\u00f1ol",
        "stateId": "3689815",
        "latitude": 6.25,
        "longitude": -75.25
    },
    {
        "cityId": "3673617",
        "name": "Olaya",
        "stateId": "3689815",
        "latitude": 6.60351,
        "longitude": -75.78612
    },
    {
        "cityId": "3674032",
        "name": "Nari\u00f1o",
        "stateId": "3689815",
        "latitude": 5.6,
        "longitude": -75.16667
    },
    {
        "cityId": "3674131",
        "name": "Mutat\u00e1",
        "stateId": "3689815",
        "latitude": 7.33333,
        "longitude": -76.5
    },
    {
        "cityId": "3674162",
        "name": "Murind\u00f3",
        "stateId": "3689815",
        "latitude": 6.8,
        "longitude": -76.8
    },
    {
        "cityId": "3674520",
        "name": "Montebello",
        "stateId": "3689815",
        "latitude": 5.91667,
        "longitude": -75.5
    },
    {
        "cityId": "3674954",
        "name": "Medell\u00edn",
        "stateId": "3689815",
        "latitude": 6.25,
        "longitude": -75.58333
    },
    {
        "cityId": "3675265",
        "name": "Marinilla",
        "stateId": "3689815",
        "latitude": 6.2,
        "longitude": -75.3
    },
    {
        "cityId": "3675769",
        "name": "Maceo",
        "stateId": "3689815",
        "latitude": 6.5,
        "longitude": -74.75
    },
    {
        "cityId": "3676592",
        "name": "Liborina",
        "stateId": "3689815",
        "latitude": 6.75,
        "longitude": -75.75
    },
    {
        "cityId": "3676936",
        "name": "La Uni\u00f3n",
        "stateId": "3689815",
        "latitude": 5.91667,
        "longitude": -75.33333
    },
    {
        "cityId": "3679071",
        "name": "La Estrella",
        "stateId": "3689815",
        "latitude": 6.16667,
        "longitude": -75.66667
    },
    {
        "cityId": "3679555",
        "name": "La Ceja",
        "stateId": "3689815",
        "latitude": 6,
        "longitude": -75.41667
    },
    {
        "cityId": "3680320",
        "name": "Jeric\u00f3",
        "stateId": "3689815",
        "latitude": 5.75,
        "longitude": -75.75
    },
    {
        "cityId": "3680367",
        "name": "Jard\u00edn",
        "stateId": "3689815",
        "latitude": 5.58333,
        "longitude": -75.83333
    },
    {
        "cityId": "3680435",
        "name": "Ituango",
        "stateId": "3689815",
        "latitude": 7.25,
        "longitude": -76
    },
    {
        "cityId": "3680451",
        "name": "Itagui",
        "stateId": "3689815",
        "latitude": 6.17874,
        "longitude": -75.63117
    },
    {
        "cityId": "3680903",
        "name": "Heliconia",
        "stateId": "3689815",
        "latitude": 6.23333,
        "longitude": -75.75
    },
    {
        "cityId": "3681369",
        "name": "Guatap\u00e9",
        "stateId": "3689815",
        "latitude": 6.25,
        "longitude": -75.16667
    },
    {
        "cityId": "3681430",
        "name": "Guarne",
        "stateId": "3689815",
        "latitude": 6.28345,
        "longitude": -75.44363
    },
    {
        "cityId": "3681998",
        "name": "G\u00f3mez Plata",
        "stateId": "3689815",
        "latitude": 6.69847,
        "longitude": -75.2055
    },
    {
        "cityId": "3682023",
        "name": "Girardota",
        "stateId": "3689815",
        "latitude": 6.36789,
        "longitude": -75.46231
    },
    {
        "cityId": "3682031",
        "name": "Giraldo",
        "stateId": "3689815",
        "latitude": 6.66667,
        "longitude": -75.91667
    },
    {
        "cityId": "3682314",
        "name": "Frontino",
        "stateId": "3689815",
        "latitude": 6.66667,
        "longitude": -76.33333
    },
    {
        "cityId": "3682333",
        "name": "Fredonia",
        "stateId": "3689815",
        "latitude": 5.91667,
        "longitude": -75.66667
    },
    {
        "cityId": "3682632",
        "name": "Envigado",
        "stateId": "3689815",
        "latitude": 6.16667,
        "longitude": -75.58333
    },
    {
        "cityId": "3682634",
        "name": "Entrerrios",
        "stateId": "3689815",
        "latitude": 6.58333,
        "longitude": -75.58333
    },
    {
        "cityId": "3685059",
        "name": "Eb\u00e9jico",
        "stateId": "3689815",
        "latitude": 6.33333,
        "longitude": -75.75
    },
    {
        "cityId": "3685127",
        "name": "Don Mat\u00edas",
        "stateId": "3689815",
        "latitude": 6.50559,
        "longitude": -75.36645
    },
    {
        "cityId": "3685297",
        "name": "Dabeiba",
        "stateId": "3689815",
        "latitude": 7,
        "longitude": -76.25
    },
    {
        "cityId": "3685950",
        "name": "Copacabana",
        "stateId": "3689815",
        "latitude": 6.33333,
        "longitude": -75.5
    },
    {
        "cityId": "3686016",
        "name": "Concordia",
        "stateId": "3689815",
        "latitude": 6.08333,
        "longitude": -75.91667
    },
    {
        "cityId": "3686034",
        "name": "Concepci\u00f3n",
        "stateId": "3689815",
        "latitude": 6.41667,
        "longitude": -75.25
    },
    {
        "cityId": "3686159",
        "name": "Cocorn\u00e1",
        "stateId": "3689815",
        "latitude": 6.00579,
        "longitude": -75.16984
    },
    {
        "cityId": "3686229",
        "name": "Cisneros",
        "stateId": "3689815",
        "latitude": 6.54507,
        "longitude": -75.09415
    },
    {
        "cityId": "3686637",
        "name": "Chigorod\u00f3",
        "stateId": "3689815",
        "latitude": 7.66667,
        "longitude": -76.66667
    },
    {
        "cityId": "3687026",
        "name": "Caucasia",
        "stateId": "3689815",
        "latitude": 7.91667,
        "longitude": -75
    },
    {
        "cityId": "3687311",
        "name": "Carolina",
        "stateId": "3689815",
        "latitude": 6.74807,
        "longitude": -75.32131
    },
    {
        "cityId": "3687428",
        "name": "Caramanta",
        "stateId": "3689815",
        "latitude": 5.54144,
        "longitude": -75.66961
    },
    {
        "cityId": "3687679",
        "name": "Ca\u00f1asgordas",
        "stateId": "3689815",
        "latitude": 6.75,
        "longitude": -76
    },
    {
        "cityId": "3687840",
        "name": "Campamento",
        "stateId": "3689815",
        "latitude": 7.0391,
        "longitude": -75.28938
    },
    {
        "cityId": "3687954",
        "name": "Caldas",
        "stateId": "3689815",
        "latitude": 6.08333,
        "longitude": -75.63333
    },
    {
        "cityId": "3688073",
        "name": "Caicedo",
        "stateId": "3689815",
        "latitude": 6.45,
        "longitude": -75.96667
    },
    {
        "cityId": "3688130",
        "name": "C\u00e1ceres",
        "stateId": "3689815",
        "latitude": 7.66667,
        "longitude": -75.33333
    },
    {
        "cityId": "3688226",
        "name": "Buritic\u00e1",
        "stateId": "3689815",
        "latitude": 6.75,
        "longitude": -75.91667
    },
    {
        "cityId": "3688843",
        "name": "Betulia",
        "stateId": "3689815",
        "latitude": 6.2,
        "longitude": -75.91667
    },
    {
        "cityId": "3688865",
        "name": "Betania",
        "stateId": "3689815",
        "latitude": 5.75,
        "longitude": -75.96667
    },
    {
        "cityId": "3688924",
        "name": "Belmira",
        "stateId": "3689815",
        "latitude": 6.66667,
        "longitude": -75.66667
    },
    {
        "cityId": "3688929",
        "name": "Bello",
        "stateId": "3689815",
        "latitude": 6.33333,
        "longitude": -75.58333
    },
    {
        "cityId": "3689207",
        "name": "Barbosa",
        "stateId": "3689815",
        "latitude": 6.45,
        "longitude": -75.33333
    },
    {
        "cityId": "3689562",
        "name": "Armenia",
        "stateId": "3689815",
        "latitude": 6.16667,
        "longitude": -75.83333
    },
    {
        "cityId": "3689694",
        "name": "Arboletes",
        "stateId": "3689815",
        "latitude": 8.5,
        "longitude": -76.41667
    },
    {
        "cityId": "3689805",
        "name": "Anza",
        "stateId": "3689815",
        "latitude": 6.33333,
        "longitude": -75.91667
    },
    {
        "cityId": "3689819",
        "name": "Santaf\u00e9 de Antioquia",
        "stateId": "3689815",
        "latitude": 6.55,
        "longitude": -75.9
    },
    {
        "cityId": "3689839",
        "name": "Anor\u00ed",
        "stateId": "3689815",
        "latitude": 7.07415,
        "longitude": -75.14717
    },
    {
        "cityId": "3689875",
        "name": "Angostura",
        "stateId": "3689815",
        "latitude": 6.86667,
        "longitude": -75.33333
    },
    {
        "cityId": "3689878",
        "name": "Angel\u00f3polis",
        "stateId": "3689815",
        "latitude": 6.13333,
        "longitude": -75.7
    },
    {
        "cityId": "3689900",
        "name": "Andes",
        "stateId": "3689815",
        "latitude": 5.66974,
        "longitude": -75.89905
    },
    {
        "cityId": "3690011",
        "name": "Amalfi",
        "stateId": "3689815",
        "latitude": 7,
        "longitude": -74.91667
    },
    {
        "cityId": "3690020",
        "name": "Amag\u00e1",
        "stateId": "3689815",
        "latitude": 6.05,
        "longitude": -75.7
    },
    {
        "cityId": "3690217",
        "name": "Alejandr\u00eda",
        "stateId": "3689815",
        "latitude": 6.36667,
        "longitude": -75.08333
    },
    {
        "cityId": "3690583",
        "name": "Abriaqu\u00ed",
        "stateId": "3689815",
        "latitude": 6.66667,
        "longitude": -76.08333
    },
    {
        "cityId": "3690593",
        "name": "Abejorral",
        "stateId": "3689815",
        "latitude": 5.75,
        "longitude": -75.41667
    },
    {
        "cityId": "8128835",
        "name": "Necocl\u00ed",
        "stateId": "3689815",
        "latitude": 8.42958,
        "longitude": -76.77109
    },
    {
        "cityId": "9172029",
        "name": "Vegach\u00ed",
        "stateId": "3689815",
        "latitude": 6.81666,
        "longitude": -74.78697
    },
    {
        "cityId": "9172037",
        "name": "Apartad\u00f3",
        "stateId": "3689815",
        "latitude": 7.90404,
        "longitude": -76.57314
    },
    {
        "cityId": "9172040",
        "name": "Argelia",
        "stateId": "3689815",
        "latitude": 5.70498,
        "longitude": -75.12154
    },
    {
        "cityId": "9172160",
        "name": "Caracol\u00ed",
        "stateId": "3689815",
        "latitude": 6.32649,
        "longitude": -74.74194
    },
    {
        "cityId": "9172166",
        "name": "El Bagre",
        "stateId": "3689815",
        "latitude": 7.74444,
        "longitude": -74.67892
    },
    {
        "cityId": "9172223",
        "name": "Carepa",
        "stateId": "3689815",
        "latitude": 7.76009,
        "longitude": -76.66269
    },
    {
        "cityId": "9172225",
        "name": "Hispania",
        "stateId": "3689815",
        "latitude": 5.79555,
        "longitude": -75.9041
    },
    {
        "cityId": "9172227",
        "name": "Nech\u00ed",
        "stateId": "3689815",
        "latitude": 7.99805,
        "longitude": -74.8578
    },
    {
        "cityId": "9172233",
        "name": "Puerto Triunfo",
        "stateId": "3689815",
        "latitude": 5.93964,
        "longitude": -74.70411
    },
    {
        "cityId": "9172235",
        "name": "Sabaneta",
        "stateId": "3689815",
        "latitude": 6.13824,
        "longitude": -75.60855
    },
    {
        "cityId": "9172236",
        "name": "San Jos\u00e9 de La Monta\u00f1a",
        "stateId": "3689815",
        "latitude": 6.82205,
        "longitude": -75.69757
    },
    {
        "cityId": "9172239",
        "name": "San Juan de Urab\u00e1",
        "stateId": "3689815",
        "latitude": 8.67161,
        "longitude": -76.50514
    },
    {
        "cityId": "9172240",
        "name": "San Pedro de Uraba",
        "stateId": "3689815",
        "latitude": 8.42291,
        "longitude": -76.31747
    },
    {
        "cityId": "9172241",
        "name": "Santo Domingo",
        "stateId": "3689815",
        "latitude": 6.47347,
        "longitude": -75.15464
    },
    {
        "cityId": "9172242",
        "name": "Taraz\u00e1",
        "stateId": "3689815",
        "latitude": 7.49302,
        "longitude": -75.5049
    },
    {
        "cityId": "9172245",
        "name": "Uramita",
        "stateId": "3689815",
        "latitude": 6.91662,
        "longitude": -76.13082
    },
    {
        "cityId": "9172247",
        "name": "Vig\u00eda del Fuerte",
        "stateId": "3689815",
        "latitude": 6.3851,
        "longitude": -76.6628
    },
    {
        "cityId": "9172249",
        "name": "Yond\u00f3",
        "stateId": "3689815",
        "latitude": 6.90738,
        "longitude": -74.17686
    },
    {
        "cityId": "9172258",
        "name": "San Francisco",
        "stateId": "3689815",
        "latitude": 5.85974,
        "longitude": -74.97901
    },
    {
        "cityId": "9172261",
        "name": "Brice\u00f1o",
        "stateId": "3689815",
        "latitude": 7.05001,
        "longitude": -75.50903
    },
    {
        "cityId": "9178684",
        "name": "Guadalupe",
        "stateId": "3689815",
        "latitude": 6.85582,
        "longitude": -75.2382
    },
    {
        "cityId": "9178731",
        "name": "Granada",
        "stateId": "3689815",
        "latitude": 6.11413,
        "longitude": -75.1405
    },
    {
        "cityId": "9179578",
        "name": "La Pintada",
        "stateId": "3689815",
        "latitude": 5.7508,
        "longitude": -75.60023
    },
    {
        "cityId": "9179886",
        "name": "Puerto Nare",
        "stateId": "3689815",
        "latitude": 6.19167,
        "longitude": -74.5867
    },
    {
        "cityId": "9609514",
        "name": "Ciudad Bol\u00edvar",
        "stateId": "3689815",
        "latitude": 5.83945,
        "longitude": -76.01088
    },
    {
        "cityId": "9609515",
        "name": "El Carmen de Viboral",
        "stateId": "3689815",
        "latitude": 5.9781,
        "longitude": -75.26322
    }
]