[
    {
        "cityId": 449674,
        "name": "Shahrest\u0101n-e \u0100mol",
        "stateId": 124544,
        "latitude": 36.2,
        "longitude": 52.38333
    },
    {
        "cityId": 449675,
        "name": "Shahrest\u0101n-e B\u0101bol",
        "stateId": 124544,
        "latitude": 36.31667,
        "longitude": 52.65
    },
    {
        "cityId": 449676,
        "name": "Shahrest\u0101n-e B\u0101bolsar",
        "stateId": 124544,
        "latitude": 36.66667,
        "longitude": 52.73333
    },
    {
        "cityId": 449677,
        "name": "Behshahr",
        "stateId": 124544,
        "latitude": 36.66667,
        "longitude": 53.68333
    },
    {
        "cityId": 449678,
        "name": "Shahrest\u0101n-e Tonek\u0101bon",
        "stateId": 124544,
        "latitude": 36.63333,
        "longitude": 50.8
    },
    {
        "cityId": 449679,
        "name": "Shahrest\u0101n-e J\u016byb\u0101r",
        "stateId": 124544,
        "latitude": 36.66667,
        "longitude": 52.95
    },
    {
        "cityId": 449680,
        "name": "Shahrest\u0101n-e Ch\u0101l\u016bs",
        "stateId": 124544,
        "latitude": 36.45,
        "longitude": 51.16667
    },
    {
        "cityId": 449681,
        "name": "Shahrest\u0101n-e R\u0101msar",
        "stateId": 124544,
        "latitude": 36.76667,
        "longitude": 50.53333
    },
    {
        "cityId": 449682,
        "name": "Shahrest\u0101n-e S\u0101r\u012b",
        "stateId": 124544,
        "latitude": 36.33333,
        "longitude": 53.28333
    },
    {
        "cityId": 449683,
        "name": "Shahrest\u0101n-e Sav\u0101dk\u016bh",
        "stateId": 124544,
        "latitude": 36.08333,
        "longitude": 52.91667
    },
    {
        "cityId": 449684,
        "name": "Shahrest\u0101n-e Q\u0101\u2019em Shahr",
        "stateId": 124544,
        "latitude": 36.48333,
        "longitude": 52.9
    },
    {
        "cityId": 449685,
        "name": "Shahrest\u0101n-e Ma\u1e29m\u016bd\u0101b\u0101d",
        "stateId": 124544,
        "latitude": 36.6,
        "longitude": 52.36667
    },
    {
        "cityId": 449686,
        "name": "Shahrest\u0101n-e Nek\u0101",
        "stateId": 124544,
        "latitude": 36.51667,
        "longitude": 53.6
    },
    {
        "cityId": 449687,
        "name": "Shahrest\u0101n-e N\u016br",
        "stateId": 124544,
        "latitude": 36.31667,
        "longitude": 51.98333
    },
    {
        "cityId": 449688,
        "name": "Nowshahr",
        "stateId": 124544,
        "latitude": 36.43333,
        "longitude": 51.6
    },
    {
        "cityId": 7830204,
        "name": "Savadkuh County",
        "stateId": 124544,
        "latitude": 35.97765,
        "longitude": 52.68246
    },
    {
        "cityId": 9533059,
        "name": "Shahrest\u0101n-e \u2018Abb\u0101s\u0101b\u0101d",
        "stateId": 124544,
        "latitude": 36.63333,
        "longitude": 51.15
    },
    {
        "cityId": 9533060,
        "name": "Shahrest\u0101n-e Gal\u016bg\u0101h",
        "stateId": 124544,
        "latitude": 36.71667,
        "longitude": 53.86667
    },
    {
        "cityId": 9533061,
        "name": "Shahrest\u0101n-e M\u012b\u0101ndor\u016bd",
        "stateId": 124544,
        "latitude": 36.58333,
        "longitude": 53.3
    },
    {
        "cityId": 9533062,
        "name": "Shahrest\u0101n-e Fareyd\u016bnken\u0101r",
        "stateId": 124544,
        "latitude": 36.63333,
        "longitude": 52.56667
    }
]