[
    {
        "cityId": 449600,
        "name": "Shahrest\u0101n-e B\u0101neh",
        "stateId": 126584,
        "latitude": 35.98333,
        "longitude": 45.81667
    },
    {
        "cityId": 449601,
        "name": "Shahrest\u0101n-e B\u012bj\u0101r",
        "stateId": 126584,
        "latitude": 35.86667,
        "longitude": 47.6
    },
    {
        "cityId": 449602,
        "name": "Shahrest\u0101n-e D\u012bv\u0101ndarreh",
        "stateId": 126584,
        "latitude": 35.91667,
        "longitude": 47
    },
    {
        "cityId": 449603,
        "name": "Shahrest\u0101n-e Sarv\u0101b\u0101d",
        "stateId": 126584,
        "latitude": 35.25,
        "longitude": 46.33333
    },
    {
        "cityId": 449604,
        "name": "Saqqez",
        "stateId": 126584,
        "latitude": 36.16667,
        "longitude": 46.33333
    },
    {
        "cityId": 449605,
        "name": "Sanandaj",
        "stateId": 126584,
        "latitude": 35.33333,
        "longitude": 46.83333
    },
    {
        "cityId": 449606,
        "name": "Qorveh",
        "stateId": 126584,
        "latitude": 35.21667,
        "longitude": 47.85
    },
    {
        "cityId": 449607,
        "name": "Shahrest\u0101n-e K\u0101my\u0101r\u0101n",
        "stateId": 126584,
        "latitude": 34.91667,
        "longitude": 46.91667
    },
    {
        "cityId": 449608,
        "name": "Shahrest\u0101n-e Mar\u012bv\u0101n",
        "stateId": 126584,
        "latitude": 35.56667,
        "longitude": 46.35
    },
    {
        "cityId": 9532949,
        "name": "Shahrest\u0101n-e Dehgol\u0101n",
        "stateId": 126584,
        "latitude": 35.35,
        "longitude": 47.35
    }
]