[
    {
        "cityId": "449708",
        "name": "Shahrest\u0101n-e Asad\u0101b\u0101d",
        "stateId": "132142",
        "latitude": 34.78333,
        "longitude": 48
    },
    {
        "cityId": "449709",
        "name": "Shahrest\u0101n-e Bah\u0101r",
        "stateId": "132142",
        "latitude": 34.98333,
        "longitude": 48.35
    },
    {
        "cityId": "449710",
        "name": "Shahrest\u0101n-e T\u016byserk\u0101n",
        "stateId": "132142",
        "latitude": 34.56667,
        "longitude": 48.35
    },
    {
        "cityId": "449711",
        "name": "Razan",
        "stateId": "132142",
        "latitude": 35.41667,
        "longitude": 49
    },
    {
        "cityId": "449712",
        "name": "Shahrest\u0101n-e Kab\u016bdar\u0101hang",
        "stateId": "132142",
        "latitude": 35.36667,
        "longitude": 48.36667
    },
    {
        "cityId": "449713",
        "name": "Shahrest\u0101n-e Mal\u0101yer",
        "stateId": "132142",
        "latitude": 34.33333,
        "longitude": 48.83333
    },
    {
        "cityId": "449714",
        "name": "Shahrest\u0101n-e Nah\u0101vand",
        "stateId": "132142",
        "latitude": 34.23333,
        "longitude": 48.23333
    },
    {
        "cityId": "449715",
        "name": "Shahrest\u0101n-e Hamad\u0101n",
        "stateId": "132142",
        "latitude": 34.85,
        "longitude": 48.8
    },
    {
        "cityId": "9523287",
        "name": "Shahrest\u0101n-e F\u0101men\u012bn",
        "stateId": "132142",
        "latitude": 35.11667,
        "longitude": 49.16667
    }
]