[
    {
        "cityId": "449444",
        "name": "Shahrest\u0101n-e Or\u016bm\u012byeh",
        "stateId": "142550",
        "latitude": 37.55,
        "longitude": 45
    },
    {
        "cityId": "449445",
        "name": "Shahrest\u0101n-e Oshnav\u012byeh",
        "stateId": "142550",
        "latitude": 37.05,
        "longitude": 45.08333
    },
    {
        "cityId": "449446",
        "name": "Shahrest\u0101n-e B\u016bk\u0101n",
        "stateId": "142550",
        "latitude": 36.60002,
        "longitude": 46.16664
    },
    {
        "cityId": "449447",
        "name": "Shahrest\u0101n-e P\u012br\u0101nshahr",
        "stateId": "142550",
        "latitude": 36.7,
        "longitude": 45.16667
    },
    {
        "cityId": "449448",
        "name": "Shahrest\u0101n-e Tak\u0101b",
        "stateId": "142550",
        "latitude": 36.53345,
        "longitude": 47.16669
    },
    {
        "cityId": "449449",
        "name": "Shahrest\u0101n-e Ch\u0101ldor\u0101n",
        "stateId": "142550",
        "latitude": 39.06667,
        "longitude": 44.33333
    },
    {
        "cityId": "449450",
        "name": "Khowy",
        "stateId": "142550",
        "latitude": 38.58334,
        "longitude": 44.78335
    },
    {
        "cityId": "449451",
        "name": "Sardasht",
        "stateId": "142550",
        "latitude": 36.2167,
        "longitude": 45.4832
    },
    {
        "cityId": "449452",
        "name": "Shahrest\u0101n-e Salm\u0101s",
        "stateId": "142550",
        "latitude": 38.18333,
        "longitude": 44.73333
    },
    {
        "cityId": "449453",
        "name": "Shahrest\u0101n-e Sh\u0101h\u012bn Dezh",
        "stateId": "142550",
        "latitude": 36.68337,
        "longitude": 46.66676
    },
    {
        "cityId": "449454",
        "name": "Shahrest\u0101n-e M\u0101k\u016b",
        "stateId": "142550",
        "latitude": 39.41669,
        "longitude": 44.58336
    },
    {
        "cityId": "449455",
        "name": "Shahrest\u0101n-e Mah\u0101b\u0101d",
        "stateId": "142550",
        "latitude": 36.76667,
        "longitude": 45.73333
    },
    {
        "cityId": "449456",
        "name": "Shahrest\u0101n-e M\u012b\u0101ndo\u0101b",
        "stateId": "142550",
        "latitude": 36.89999,
        "longitude": 46.20002
    },
    {
        "cityId": "449457",
        "name": "Naqadeh",
        "stateId": "142550",
        "latitude": 36.95,
        "longitude": 45.4
    },
    {
        "cityId": "9517619",
        "name": "Show\u0163",
        "stateId": "142550",
        "latitude": 39.15006,
        "longitude": 44.83346
    },
    {
        "cityId": "9517620",
        "name": "Ch\u0101yp\u0101reh",
        "stateId": "142550",
        "latitude": 38.86667,
        "longitude": 45
    },
    {
        "cityId": "9517621",
        "name": "Poldasht",
        "stateId": "142550",
        "latitude": 39.18333,
        "longitude": 45.08333
    }
]