[
    {
        "cityId": "122490",
        "name": "Shahrest\u0101n-e Na\u0163anz",
        "stateId": "418862",
        "latitude": 33.55,
        "longitude": 51.86667
    },
    {
        "cityId": "449474",
        "name": "Shahrest\u0101n-e \u0100r\u0101n va B\u012bdgol",
        "stateId": "418862",
        "latitude": 34.1,
        "longitude": 51.9
    },
    {
        "cityId": "449475",
        "name": "Shahrest\u0101n-e Ardest\u0101n",
        "stateId": "418862",
        "latitude": 33.45,
        "longitude": 52.43333
    },
    {
        "cityId": "449476",
        "name": "Shahrest\u0101n-e E\u015ffah\u0101n",
        "stateId": "418862",
        "latitude": 32.26667,
        "longitude": 52.45
    },
    {
        "cityId": "449477",
        "name": "Shahrest\u0101n-e Borkhv\u0101r",
        "stateId": "418862",
        "latitude": 32.98333,
        "longitude": 51.76667
    },
    {
        "cityId": "449478",
        "name": "Shahrest\u0101n-e T\u012br\u0101n va Karvan",
        "stateId": "418862",
        "latitude": 32.83333,
        "longitude": 50.91667
    },
    {
        "cityId": "449479",
        "name": "Shahrest\u0101n-e Ch\u0101deg\u0101n",
        "stateId": "418862",
        "latitude": 32.75,
        "longitude": 50.5
    },
    {
        "cityId": "449480",
        "name": "Shahrest\u0101n-e Khomeyn\u012b Shahr",
        "stateId": "418862",
        "latitude": 32.65,
        "longitude": 51.5
    },
    {
        "cityId": "449481",
        "name": "Shahrest\u0101n-e Khv\u0101ns\u0101r",
        "stateId": "418862",
        "latitude": 33.25,
        "longitude": 50.33333
    },
    {
        "cityId": "449482",
        "name": "Shahrest\u0101n-e Sem\u012brom",
        "stateId": "418862",
        "latitude": 31.3,
        "longitude": 51.53333
    },
    {
        "cityId": "449483",
        "name": "Shahrest\u0101n-e Deh\u0101q\u0101n",
        "stateId": "418862",
        "latitude": 31.98333,
        "longitude": 51.6
    },
    {
        "cityId": "449484",
        "name": "Shahrest\u0101n-e Shahre\u1e95\u0101",
        "stateId": "418862",
        "latitude": 31.9,
        "longitude": 51.83333
    },
    {
        "cityId": "449485",
        "name": "Fereydan",
        "stateId": "418862",
        "latitude": 33.1,
        "longitude": 50.26667
    },
    {
        "cityId": "449486",
        "name": "Shahrest\u0101n-e Fareyd\u016bnshahr",
        "stateId": "418862",
        "latitude": 32.86667,
        "longitude": 49.98333
    },
    {
        "cityId": "449487",
        "name": "Shahrest\u0101n-e Fal\u0101varj\u0101n",
        "stateId": "418862",
        "latitude": 32.5,
        "longitude": 51.5
    },
    {
        "cityId": "449488",
        "name": "Shahrest\u0101n-e K\u0101sh\u0101n",
        "stateId": "418862",
        "latitude": 33.88333,
        "longitude": 51.28333
    },
    {
        "cityId": "449489",
        "name": "Shahrest\u0101n-e Golp\u0101yeg\u0101n",
        "stateId": "418862",
        "latitude": 33.5,
        "longitude": 50.33333
    },
    {
        "cityId": "449490",
        "name": "Shahrest\u0101n-e Lenj\u0101n",
        "stateId": "418862",
        "latitude": 32.36667,
        "longitude": 51.2
    },
    {
        "cityId": "449491",
        "name": "Shahrest\u0101n-e Mob\u0101rakeh",
        "stateId": "418862",
        "latitude": 32.26667,
        "longitude": 51.48333
    },
    {
        "cityId": "449492",
        "name": "Shahrest\u0101n-e N\u0101\u2019\u012bn",
        "stateId": "418862",
        "latitude": 33.46664,
        "longitude": 53.71674
    },
    {
        "cityId": "449493",
        "name": "Shahrest\u0101n-e Najaf\u0101b\u0101d",
        "stateId": "418862",
        "latitude": 32.93333,
        "longitude": 51.11667
    },
    {
        "cityId": "449494",
        "name": "Shahrest\u0101n-e Na\u0163anz",
        "stateId": "418862",
        "latitude": 33.55,
        "longitude": 51.83333
    },
    {
        "cityId": "9519980",
        "name": "Shahrest\u0101n-e Kh\u016br va B\u012b\u0101b\u0101nak",
        "stateId": "418862",
        "latitude": 33.76667,
        "longitude": 54.88333
    },
    {
        "cityId": "9519981",
        "name": "Shahrest\u0101n-e Sh\u0101h\u012bn Shahr va Meymeh",
        "stateId": "418862",
        "latitude": 33.28333,
        "longitude": 51.2
    }
]