[
    {
        "cityId": "449523",
        "name": "Shahrest\u0101n-e B\u012brjand",
        "stateId": "6201374",
        "latitude": 33.00669,
        "longitude": 59.07223
    },
    {
        "cityId": "449524",
        "name": "Shahrest\u0101n-e Sarb\u012bsheh",
        "stateId": "6201374",
        "latitude": 32.4,
        "longitude": 60.08333
    },
    {
        "cityId": "449532",
        "name": "Ferdows",
        "stateId": "6201374",
        "latitude": 33.95,
        "longitude": 57.95
    },
    {
        "cityId": "449534",
        "name": "Shahrest\u0101n-e Q\u0101\u2019en",
        "stateId": "6201374",
        "latitude": 33.74197,
        "longitude": 59.3502
    },
    {
        "cityId": "1482419",
        "name": "Shahrest\u0101n-e Nehband\u0101n",
        "stateId": "6201374",
        "latitude": 31.56667,
        "longitude": 59.81667
    },
    {
        "cityId": "8620944",
        "name": "Shahrest\u0101n-e Darm\u012b\u0101n",
        "stateId": "6201374",
        "latitude": 32.95,
        "longitude": 60.16667
    },
    {
        "cityId": "9525806",
        "name": "Boshr\u016byeh",
        "stateId": "6201374",
        "latitude": 34.16667,
        "longitude": 57.41667
    },
    {
        "cityId": "9525807",
        "name": "Shahrest\u0101n-e Sar\u0101y\u0101n",
        "stateId": "6201374",
        "latitude": 33.41667,
        "longitude": 58.31667
    },
    {
        "cityId": "9534259",
        "name": "Shahrest\u0101n-e Kh\u016bsf",
        "stateId": "6201374",
        "latitude": 32.18333,
        "longitude": 58.76667
    },
    {
        "cityId": "9534260",
        "name": "Shahrest\u0101n-e Z\u012brk\u016bh",
        "stateId": "6201374",
        "latitude": 33.58333,
        "longitude": 60.3
    }
]