[
    {
        "cityId": 449525,
        "name": "Bardaskan",
        "stateId": 6201375,
        "latitude": 35.26667,
        "longitude": 57.48333
    },
    {
        "cityId": 449526,
        "name": "Shahrest\u0101n-e Torbat-e \u1e28eydar\u012byeh",
        "stateId": 6201375,
        "latitude": 35.46667,
        "longitude": 59.1
    },
    {
        "cityId": 449527,
        "name": "Shahrest\u0101n-e Chen\u0101r\u0101n",
        "stateId": 6201375,
        "latitude": 36.66667,
        "longitude": 59.15
    },
    {
        "cityId": 449528,
        "name": "Shahrest\u0101n-e Khal\u012bl\u0101b\u0101d",
        "stateId": 6201375,
        "latitude": 35.11667,
        "longitude": 58.2
    },
    {
        "cityId": 449529,
        "name": "Dargaz",
        "stateId": 6201375,
        "latitude": 37.33333,
        "longitude": 59.08333
    },
    {
        "cityId": 449530,
        "name": "Shahrest\u0101n-e Roshtkhv\u0101r",
        "stateId": 6201375,
        "latitude": 34.91667,
        "longitude": 59.36667
    },
    {
        "cityId": 449531,
        "name": "Shahrest\u0101n-e Sabzev\u0101r",
        "stateId": 6201375,
        "latitude": 36.01667,
        "longitude": 57.41667
    },
    {
        "cityId": 449533,
        "name": "Shahrest\u0101n-e Far\u012bm\u0101n",
        "stateId": 6201375,
        "latitude": 35.7,
        "longitude": 59.83333
    },
    {
        "cityId": 449535,
        "name": "Shahrest\u0101n-e Q\u016bch\u0101n",
        "stateId": 6201375,
        "latitude": 37.06667,
        "longitude": 58.65
    },
    {
        "cityId": 449536,
        "name": "Shahrest\u0101n-e K\u0101shmar",
        "stateId": 6201375,
        "latitude": 35.43333,
        "longitude": 58.48333
    },
    {
        "cityId": 449537,
        "name": "Shahrest\u0101n-e Gon\u0101b\u0101d",
        "stateId": 6201375,
        "latitude": 34.38333,
        "longitude": 58.95
    },
    {
        "cityId": 449538,
        "name": "Mashhad",
        "stateId": 6201375,
        "latitude": 36.28333,
        "longitude": 59.8
    },
    {
        "cityId": 449539,
        "name": "Shahrest\u0101n-e Neysh\u0101b\u016br",
        "stateId": 6201375,
        "latitude": 36.21667,
        "longitude": 58.88333
    },
    {
        "cityId": 1482420,
        "name": "Shahrest\u0101n-e T\u0101yb\u0101d",
        "stateId": 6201375,
        "latitude": 34.73333,
        "longitude": 60.73333
    },
    {
        "cityId": 1482421,
        "name": "Shahrest\u0101n-e Torbat-e J\u0101m",
        "stateId": 6201375,
        "latitude": 35.46667,
        "longitude": 60.78333
    },
    {
        "cityId": 1482426,
        "name": "Shahrest\u0101n-e Khv\u0101f",
        "stateId": 6201375,
        "latitude": 34.5,
        "longitude": 60
    },
    {
        "cityId": 1482443,
        "name": "Sarakhs",
        "stateId": 6201375,
        "latitude": 36.3,
        "longitude": 60.81667
    },
    {
        "cityId": 1482469,
        "name": "Shahrest\u0101n-e Kal\u0101t",
        "stateId": 6201375,
        "latitude": 36.9,
        "longitude": 59.9
    },
    {
        "cityId": 8620943,
        "name": "Shahrest\u0101n-e Mah Vel\u0101t",
        "stateId": 6201375,
        "latitude": 34.98333,
        "longitude": 58.78333
    },
    {
        "cityId": 9526253,
        "name": "Shahrest\u0101n-e Bajest\u0101n",
        "stateId": 6201375,
        "latitude": 34.58333,
        "longitude": 58.13333
    },
    {
        "cityId": 9526254,
        "name": "Shahrest\u0101n-e Joghat\u0101y",
        "stateId": 6201375,
        "latitude": 36.66667,
        "longitude": 57.03333
    },
    {
        "cityId": 9526255,
        "name": "Joveyn",
        "stateId": 6201375,
        "latitude": 36.58333,
        "longitude": 57.51667
    },
    {
        "cityId": 9526257,
        "name": "Shahrest\u0101n-e Khowsh\u0101b",
        "stateId": 6201375,
        "latitude": 36.43333,
        "longitude": 58.06667
    },
    {
        "cityId": 9526258,
        "name": "Shahrest\u0101n-e F\u012br\u016bzeh",
        "stateId": 6201375,
        "latitude": 36.3,
        "longitude": 58.41667
    },
    {
        "cityId": 9526260,
        "name": "Shahrest\u0101n-e B\u012bn\u0101l\u016bd",
        "stateId": 6201375,
        "latitude": 36.26667,
        "longitude": 59.33333
    },
    {
        "cityId": 9526342,
        "name": "Shahrest\u0101n-e Z\u0101veh",
        "stateId": 6201375,
        "latitude": 35.28333,
        "longitude": 59.73333
    },
    {
        "cityId": 9526343,
        "name": "Shahrest\u0101n-e B\u0101kharz",
        "stateId": 6201375,
        "latitude": 35.01667,
        "longitude": 60.28333
    }
]