[
    {
        "cityId": "1040396",
        "name": "Circunscri\u00e7\u00e3o de Marromeu",
        "stateId": "1026804",
        "latitude": -18.42526,
        "longitude": 35.74098
    },
    {
        "cityId": "1045789",
        "name": "Gorongosa District",
        "stateId": "1026804",
        "latitude": -18.609,
        "longitude": 34.238
    },
    {
        "cityId": "1051852",
        "name": "Concelho do B\u00fazi",
        "stateId": "1026804",
        "latitude": -20.03925,
        "longitude": 34.37237
    },
    {
        "cityId": "1052372",
        "name": "Concelho da Beira",
        "stateId": "1026804",
        "latitude": -19.71628,
        "longitude": 34.93301
    },
    {
        "cityId": "7873984",
        "name": "Nhamatanda District",
        "stateId": "1026804",
        "latitude": -19.349,
        "longitude": 34.268
    },
    {
        "cityId": "7873985",
        "name": "Chibabava District",
        "stateId": "1026804",
        "latitude": -20.292,
        "longitude": 33.531
    },
    {
        "cityId": "7873986",
        "name": "Dondo District",
        "stateId": "1026804",
        "latitude": -19.522,
        "longitude": 34.799
    },
    {
        "cityId": "7874046",
        "name": "Caia District",
        "stateId": "1026804",
        "latitude": -17.769,
        "longitude": 35.058
    },
    {
        "cityId": "7874471",
        "name": "Chemba District",
        "stateId": "1026804",
        "latitude": -17.16474,
        "longitude": 34.88777
    },
    {
        "cityId": "7874472",
        "name": "Muanza District",
        "stateId": "1026804",
        "latitude": -18.89955,
        "longitude": 34.79679
    },
    {
        "cityId": "7874473",
        "name": "Maringu\u00e9 District",
        "stateId": "1026804",
        "latitude": -17.96355,
        "longitude": 34.39219
    },
    {
        "cityId": "7874474",
        "name": "Machanga District",
        "stateId": "1026804",
        "latitude": -20.96929,
        "longitude": 34.99738
    },
    {
        "cityId": "7874614",
        "name": "Cheringoma District",
        "stateId": "1026804",
        "latitude": -18.53268,
        "longitude": 35.3183
    }
]