[
    {
        "cityId": "1035304",
        "name": "Circunscri\u00e7\u00e3o da Mutarara",
        "stateId": "1026010",
        "latitude": -16.86781,
        "longitude": 34.77309
    },
    {
        "cityId": "1037394",
        "name": "Moatize",
        "stateId": "1026010",
        "latitude": -15.97317,
        "longitude": 34.00248
    },
    {
        "cityId": "1040587",
        "name": "Circunscri\u00e7\u00e3o de Mar\u00e1via",
        "stateId": "1026010",
        "latitude": -15.0931,
        "longitude": 32.06545
    },
    {
        "cityId": "1041912",
        "name": "Circunscri\u00e7\u00e3o de M\u00e0go\u00e9",
        "stateId": "1026010",
        "latitude": -15.90349,
        "longitude": 31.36636
    },
    {
        "cityId": "1042871",
        "name": "Circunscri\u00e7\u00e3o da Macanga",
        "stateId": "1026010",
        "latitude": -14.80209,
        "longitude": 33.53494
    },
    {
        "cityId": "1052937",
        "name": "Circunscri\u00e7\u00e3o da Ang\u00f3nia",
        "stateId": "1026010",
        "latitude": -14.67449,
        "longitude": 34.16316
    },
    {
        "cityId": "7874106",
        "name": "Tsangano District",
        "stateId": "1026010",
        "latitude": -15.20012,
        "longitude": 34.32685
    },
    {
        "cityId": "7905000",
        "name": "Changara District",
        "stateId": "1026010",
        "latitude": -16.21651,
        "longitude": 33.17113
    },
    {
        "cityId": "7905199",
        "name": "Chifunde District",
        "stateId": "1026010",
        "latitude": -14.81794,
        "longitude": 32.83331
    },
    {
        "cityId": "7905529",
        "name": "Chiuta District",
        "stateId": "1026010",
        "latitude": -15.564,
        "longitude": 33.302
    },
    {
        "cityId": "7909828",
        "name": "Cahora Bassa District",
        "stateId": "1026010",
        "latitude": -15.70766,
        "longitude": 32.67334
    },
    {
        "cityId": "9252731",
        "name": "Cidade de Tete",
        "stateId": "1026010",
        "latitude": -16.13858,
        "longitude": 33.56715
    },
    {
        "cityId": "9252732",
        "name": "Luenha",
        "stateId": "1026010",
        "latitude": -16.86756,
        "longitude": 33.11862
    },
    {
        "cityId": "9252739",
        "name": "Zumbu",
        "stateId": "1026010",
        "latitude": -15.22929,
        "longitude": 30.93412
    },
    {
        "cityId": "10703925",
        "name": "Distrito de D\u00f4a",
        "stateId": "1026010",
        "latitude": -16.58312,
        "longitude": 34.53282
    },
    {
        "cityId": "10704473",
        "name": "Distrito de Marara",
        "stateId": "1026010",
        "latitude": -16.03804,
        "longitude": 33.18387
    },
    {
        "cityId": "11204389",
        "name": "Ang\u00f3nia District",
        "stateId": "1026010",
        "latitude": -14.717,
        "longitude": 34.367
    }
]