[
    {
        "cityId": "10972259",
        "name": "Abh\u0101",
        "stateId": "108179",
        "latitude": 18.08333,
        "longitude": 42.53333
    },
    {
        "cityId": "10972260",
        "name": "A\u1e29ad Rufaydah",
        "stateId": "108179",
        "latitude": 18.15,
        "longitude": 42.86667
    },
    {
        "cityId": "10972261",
        "name": "Al Maj\u0101ridah",
        "stateId": "108179",
        "latitude": 18.98333,
        "longitude": 41.81667
    },
    {
        "cityId": "10972262",
        "name": "An Nam\u0101\u015f",
        "stateId": "108179",
        "latitude": 19.21667,
        "longitude": 42.23333
    },
    {
        "cityId": "10972263",
        "name": "B\u0101lqarn",
        "stateId": "108179",
        "latitude": 19.7,
        "longitude": 41.91667
    },
    {
        "cityId": "10972264",
        "name": "B\u012bshah",
        "stateId": "108179",
        "latitude": 19.8,
        "longitude": 42.53333
    },
    {
        "cityId": "10972265",
        "name": "Kham\u012bs Mushay\u0163",
        "stateId": "108179",
        "latitude": 18.7,
        "longitude": 42.86667
    },
    {
        "cityId": "10972266",
        "name": "Mu\u1e29\u0101\u2019il",
        "stateId": "108179",
        "latitude": 18.5,
        "longitude": 41.93333
    },
    {
        "cityId": "10972267",
        "name": "Rij\u0101l Alma\u2018",
        "stateId": "108179",
        "latitude": 18.15,
        "longitude": 42.16667
    },
    {
        "cityId": "10972268",
        "name": "Sar\u0101t \u2018Ab\u012bdah",
        "stateId": "108179",
        "latitude": 18,
        "longitude": 43.11667
    },
    {
        "cityId": "10972269",
        "name": "Tathl\u012bth",
        "stateId": "108179",
        "latitude": 19.58333,
        "longitude": 43.58333
    },
    {
        "cityId": "10972270",
        "name": "Z\u0327ahr\u0101n al Jan\u016bb",
        "stateId": "108179",
        "latitude": 17.88333,
        "longitude": 43.46667
    }
]