[
    {
        "cityId": "10972299",
        "name": "Al Asy\u0101\u1e29",
        "stateId": "108933",
        "latitude": 26.95,
        "longitude": 44.16667
    },
    {
        "cityId": "10972300",
        "name": "Al Bad\u0101\u2019i\u2018",
        "stateId": "108933",
        "latitude": 25.8,
        "longitude": 43.73333
    },
    {
        "cityId": "10972301",
        "name": "Al Bukayr\u012byah",
        "stateId": "108933",
        "latitude": 26.43333,
        "longitude": 43.16667
    },
    {
        "cityId": "10972302",
        "name": "Al Midhnab",
        "stateId": "108933",
        "latitude": 25.8,
        "longitude": 44.26667
    },
    {
        "cityId": "10972303",
        "name": "An Nabh\u0101n\u012byah",
        "stateId": "108933",
        "latitude": 25.46667,
        "longitude": 42.7
    },
    {
        "cityId": "10972304",
        "name": "Ar Rass",
        "stateId": "108933",
        "latitude": 25.56667,
        "longitude": 43.55
    },
    {
        "cityId": "10972305",
        "name": "Ash Shim\u0101s\u012byah",
        "stateId": "108933",
        "latitude": 26.03333,
        "longitude": 44.46667
    },
    {
        "cityId": "10972306",
        "name": "Buraydah",
        "stateId": "108933",
        "latitude": 27.36667,
        "longitude": 43.63333
    },
    {
        "cityId": "10972307",
        "name": "Riy\u0101\u1e11 al Khabr\u0101\u2019",
        "stateId": "108933",
        "latitude": 26.06667,
        "longitude": 43.51667
    },
    {
        "cityId": "10972308",
        "name": "Governorate of Unaizah",
        "stateId": "108933",
        "latitude": 25.93333,
        "longitude": 43.95
    },
    {
        "cityId": "10972309",
        "name": "\u2018Uy\u016bn al Jiw\u0101\u2019",
        "stateId": "108933",
        "latitude": 26.5,
        "longitude": 43.58333
    }
]