[
    {
        "cityId": 3488184,
        "name": "Troy",
        "stateId": 3488222,
        "latitude": 18.24924,
        "longitude": -77.60978
    },
    {
        "cityId": 11495133,
        "name": "Granville",
        "stateId": 3488222,
        "latitude": 18.45053,
        "longitude": -77.68847
    },
    {
        "cityId": 11495138,
        "name": "Falmouth",
        "stateId": 3488222,
        "latitude": 18.47821,
        "longitude": -77.65167
    },
    {
        "cityId": 11495139,
        "name": "Duncans",
        "stateId": 3488222,
        "latitude": 18.47528,
        "longitude": -77.5463
    },
    {
        "cityId": 11495143,
        "name": "Salt Marsh",
        "stateId": 3488222,
        "latitude": 18.48423,
        "longitude": -77.71184
    },
    {
        "cityId": 11495144,
        "name": "Jackson Town",
        "stateId": 3488222,
        "latitude": 18.41781,
        "longitude": -77.48458
    },
    {
        "cityId": 11495145,
        "name": "Sawyers",
        "stateId": 3488222,
        "latitude": 18.3788,
        "longitude": -77.49689
    },
    {
        "cityId": 11495146,
        "name": "St. Vincent",
        "stateId": 3488222,
        "latitude": 18.33424,
        "longitude": -77.5479
    },
    {
        "cityId": 11495147,
        "name": "Wilson's Run",
        "stateId": 3488222,
        "latitude": 18.28468,
        "longitude": -77.69323
    },
    {
        "cityId": 11495148,
        "name": "Perth Town",
        "stateId": 3488222,
        "latitude": 18.43106,
        "longitude": -77.62583
    },
    {
        "cityId": 11495149,
        "name": "Sherwood Content",
        "stateId": 3488222,
        "latitude": 18.38227,
        "longitude": -77.63643
    },
    {
        "cityId": 11495151,
        "name": "Bunkers Hill",
        "stateId": 3488222,
        "latitude": 18.36198,
        "longitude": -77.68612
    },
    {
        "cityId": 11495221,
        "name": "Hampden",
        "stateId": 3488222,
        "latitude": 18.44217,
        "longitude": -77.73203
    },
    {
        "cityId": 11495367,
        "name": "Alps",
        "stateId": 3488222,
        "latitude": 18.35498,
        "longitude": -77.50897
    },
    {
        "cityId": 11495391,
        "name": "Bounty Hall",
        "stateId": 3488222,
        "latitude": 18.45801,
        "longitude": -77.71663
    },
    {
        "cityId": 11495393,
        "name": "Brampton",
        "stateId": 3488222,
        "latitude": 18.44262,
        "longitude": -77.46424
    },
    {
        "cityId": 11495419,
        "name": "Clarks Town",
        "stateId": 3488222,
        "latitude": 18.42244,
        "longitude": -77.53328
    },
    {
        "cityId": 11495435,
        "name": "Daniel Town",
        "stateId": 3488222,
        "latitude": 18.46395,
        "longitude": -77.61592
    },
    {
        "cityId": 11495437,
        "name": "Deeside",
        "stateId": 3488222,
        "latitude": 18.35976,
        "longitude": -77.73721
    },
    {
        "cityId": 11495443,
        "name": "Duanvale",
        "stateId": 3488222,
        "latitude": 18.40267,
        "longitude": -77.59615
    },
    {
        "cityId": 11495466,
        "name": "Freemans Hall",
        "stateId": 3488222,
        "latitude": 18.28384,
        "longitude": -77.5018
    },
    {
        "cityId": 11495489,
        "name": "Joe Hut",
        "stateId": 3488222,
        "latitude": 18.26742,
        "longitude": -77.49616
    },
    {
        "cityId": 11495517,
        "name": "Kinloss",
        "stateId": 3488222,
        "latitude": 18.39641,
        "longitude": -77.56968
    },
    {
        "cityId": 11495535,
        "name": "Lorrimers",
        "stateId": 3488222,
        "latitude": 18.23026,
        "longitude": -77.49207
    },
    {
        "cityId": 11495547,
        "name": "Martha Brae",
        "stateId": 3488222,
        "latitude": 18.4696,
        "longitude": -77.65909
    },
    {
        "cityId": 11495609,
        "name": "Refuge",
        "stateId": 3488222,
        "latitude": 18.45101,
        "longitude": -77.57751
    },
    {
        "cityId": 11495614,
        "name": "Rio Bueno",
        "stateId": 3488222,
        "latitude": 18.46406,
        "longitude": -77.48042
    },
    {
        "cityId": 11495630,
        "name": "Samuels Prospect",
        "stateId": 3488222,
        "latitude": 18.45103,
        "longitude": -77.5144
    },
    {
        "cityId": 11495645,
        "name": "Spicy Hill",
        "stateId": 3488222,
        "latitude": 18.45763,
        "longitude": -77.54751
    },
    {
        "cityId": 11495650,
        "name": "Spring Garden",
        "stateId": 3488222,
        "latitude": 18.29368,
        "longitude": -77.56698
    },
    {
        "cityId": 11495656,
        "name": "Stettin",
        "stateId": 3488222,
        "latitude": 18.28224,
        "longitude": -77.54095
    },
    {
        "cityId": 11495657,
        "name": "Stewart Town",
        "stateId": 3488222,
        "latitude": 18.39887,
        "longitude": -77.45187
    },
    {
        "cityId": 11495670,
        "name": "Ulster Spring",
        "stateId": 3488222,
        "latitude": 18.32113,
        "longitude": -77.49681
    },
    {
        "cityId": 11495673,
        "name": "Wait-A-Bit",
        "stateId": 3488222,
        "latitude": 18.25332,
        "longitude": -77.50837
    },
    {
        "cityId": 11495675,
        "name": "Wakefield",
        "stateId": 3488222,
        "latitude": 18.4146,
        "longitude": -77.70908
    },
    {
        "cityId": 11495678,
        "name": "Warsop",
        "stateId": 3488222,
        "latitude": 18.26178,
        "longitude": -77.56774
    },
    {
        "cityId": 11495693,
        "name": "Wirefence",
        "stateId": 3488222,
        "latitude": 18.2531,
        "longitude": -77.53276
    },
    {
        "cityId": 11495714,
        "name": "Albert Town",
        "stateId": 3488222,
        "latitude": 18.29727,
        "longitude": -77.53492
    }
]