[
    {
        "cityId": 11494902,
        "name": "Part of Spaldings",
        "stateId": 3489586,
        "latitude": 18.15819,
        "longitude": -77.46627
    },
    {
        "cityId": 11495015,
        "name": "Good Intent",
        "stateId": 3489586,
        "latitude": 18.20806,
        "longitude": -77.57086
    },
    {
        "cityId": 11495016,
        "name": "Coleyville",
        "stateId": 3489586,
        "latitude": 18.19993,
        "longitude": -77.51924
    },
    {
        "cityId": 11495017,
        "name": "Walderston",
        "stateId": 3489586,
        "latitude": 18.11637,
        "longitude": -77.48614
    },
    {
        "cityId": 11495018,
        "name": "Porus",
        "stateId": 3489586,
        "latitude": 18.028,
        "longitude": -77.43103
    },
    {
        "cityId": 11495019,
        "name": "Asia\/Pratville",
        "stateId": 3489586,
        "latitude": 17.91584,
        "longitude": -77.41563
    },
    {
        "cityId": 11495104,
        "name": "George's Valley",
        "stateId": 3489586,
        "latitude": 18.03172,
        "longitude": -77.48081
    },
    {
        "cityId": 11495195,
        "name": "Fairfield",
        "stateId": 3489586,
        "latitude": 18.03117,
        "longitude": -77.57535
    },
    {
        "cityId": 11495284,
        "name": "Devon",
        "stateId": 3489586,
        "latitude": 18.16595,
        "longitude": -77.52507
    },
    {
        "cityId": 11495292,
        "name": "Butt-Up",
        "stateId": 3489586,
        "latitude": 17.97313,
        "longitude": -77.57777
    },
    {
        "cityId": 11495298,
        "name": "Comfort",
        "stateId": 3489586,
        "latitude": 18.0539,
        "longitude": -77.42477
    },
    {
        "cityId": 11495321,
        "name": "Evergreen",
        "stateId": 3489586,
        "latitude": 18.15096,
        "longitude": -77.59965
    },
    {
        "cityId": 11495322,
        "name": "Richmond",
        "stateId": 3489586,
        "latitude": 18.0256,
        "longitude": -77.46337
    },
    {
        "cityId": 11495331,
        "name": "Cedar Grove",
        "stateId": 3489586,
        "latitude": 18.01225,
        "longitude": -77.4963
    },
    {
        "cityId": 11495344,
        "name": "Part Of Banana Ground",
        "stateId": 3489586,
        "latitude": 18.07912,
        "longitude": -77.42134
    },
    {
        "cityId": 11495354,
        "name": "Alligator Pond",
        "stateId": 3489586,
        "latitude": 17.88369,
        "longitude": -77.56068
    },
    {
        "cityId": 11495373,
        "name": "Auchtembeddie",
        "stateId": 3489586,
        "latitude": 18.22543,
        "longitude": -77.60361
    },
    {
        "cityId": 11495380,
        "name": "Bellefield",
        "stateId": 3489586,
        "latitude": 18.09266,
        "longitude": -77.44004
    },
    {
        "cityId": 11495384,
        "name": "Bethany",
        "stateId": 3489586,
        "latitude": 18.15373,
        "longitude": -77.55032
    },
    {
        "cityId": 11495388,
        "name": "Blue Mountain",
        "stateId": 3489586,
        "latitude": 18.07095,
        "longitude": -77.4284
    },
    {
        "cityId": 11495410,
        "name": "Chantilly",
        "stateId": 3489586,
        "latitude": 18.10447,
        "longitude": -77.46625
    },
    {
        "cityId": 11495414,
        "name": "Content",
        "stateId": 3489586,
        "latitude": 18.07444,
        "longitude": -77.45116
    },
    {
        "cityId": 11495415,
        "name": "Christiana",
        "stateId": 3489586,
        "latitude": 18.18015,
        "longitude": -77.49045
    },
    {
        "cityId": 11495417,
        "name": "Chudleigh",
        "stateId": 3489586,
        "latitude": 18.15148,
        "longitude": -77.50707
    },
    {
        "cityId": 11495420,
        "name": "Cobbla",
        "stateId": 3489586,
        "latitude": 18.1406,
        "longitude": -77.46998
    },
    {
        "cityId": 11495422,
        "name": "Greenvale",
        "stateId": 3489586,
        "latitude": 18.03928,
        "longitude": -77.53239
    },
    {
        "cityId": 11495423,
        "name": "Comfort Hall",
        "stateId": 3489586,
        "latitude": 18.18789,
        "longitude": -77.61041
    },
    {
        "cityId": 11495428,
        "name": "Craig Head",
        "stateId": 3489586,
        "latitude": 18.23658,
        "longitude": -77.56295
    },
    {
        "cityId": 11495429,
        "name": "Cross Keys",
        "stateId": 3489586,
        "latitude": 17.90727,
        "longitude": -77.50111
    },
    {
        "cityId": 11495433,
        "name": "Downs",
        "stateId": 3489586,
        "latitude": 17.95004,
        "longitude": -77.57313
    },
    {
        "cityId": 11495452,
        "name": "Ellen Street",
        "stateId": 3489586,
        "latitude": 17.96796,
        "longitude": -77.43931
    },
    {
        "cityId": 11495467,
        "name": "French Park",
        "stateId": 3489586,
        "latitude": 17.95572,
        "longitude": -77.54471
    },
    {
        "cityId": 11495484,
        "name": "Grove Place",
        "stateId": 3489586,
        "latitude": 18.10467,
        "longitude": -77.52923
    },
    {
        "cityId": 11495485,
        "name": "Grove Town",
        "stateId": 3489586,
        "latitude": 17.88606,
        "longitude": -77.45882
    },
    {
        "cityId": 11495492,
        "name": "Harmons",
        "stateId": 3489586,
        "latitude": 17.98171,
        "longitude": -77.41208
    },
    {
        "cityId": 11495493,
        "name": "Harry Watch",
        "stateId": 3489586,
        "latitude": 18.17314,
        "longitude": -77.57611
    },
    {
        "cityId": 11495494,
        "name": "Hatfield",
        "stateId": 3489586,
        "latitude": 18.01557,
        "longitude": -77.54009
    },
    {
        "cityId": 11495496,
        "name": "Hibernia",
        "stateId": 3489586,
        "latitude": 18.17575,
        "longitude": -77.5483
    },
    {
        "cityId": 11495501,
        "name": "Huntley",
        "stateId": 3489586,
        "latitude": 18.06647,
        "longitude": -77.58171
    },
    {
        "cityId": 11495513,
        "name": "Kendal",
        "stateId": 3489586,
        "latitude": 18.08318,
        "longitude": -77.5032
    },
    {
        "cityId": 11495518,
        "name": "Knockpatrick",
        "stateId": 3489586,
        "latitude": 17.99027,
        "longitude": -77.4927
    },
    {
        "cityId": 11495521,
        "name": "Lancaster",
        "stateId": 3489586,
        "latitude": 17.93603,
        "longitude": -77.46134
    },
    {
        "cityId": 11495527,
        "name": "Litchfield",
        "stateId": 3489586,
        "latitude": 18.13502,
        "longitude": -77.52448
    },
    {
        "cityId": 11495538,
        "name": "Maidstone",
        "stateId": 3489586,
        "latitude": 18.10165,
        "longitude": -77.57284
    },
    {
        "cityId": 11495540,
        "name": "Mandeville Proper",
        "stateId": 3489586,
        "latitude": 18.04453,
        "longitude": -77.50574
    },
    {
        "cityId": 11495544,
        "name": "Marlie Hill",
        "stateId": 3489586,
        "latitude": 17.86692,
        "longitude": -77.50835
    },
    {
        "cityId": 11495549,
        "name": "May Day",
        "stateId": 3489586,
        "latitude": 18.00951,
        "longitude": -77.47606
    },
    {
        "cityId": 11495551,
        "name": "Medina",
        "stateId": 3489586,
        "latitude": 18.12236,
        "longitude": -77.59643
    },
    {
        "cityId": 11495553,
        "name": "Mike Town",
        "stateId": 3489586,
        "latitude": 18.04253,
        "longitude": -77.5549
    },
    {
        "cityId": 11495555,
        "name": "Mile Gully",
        "stateId": 3489586,
        "latitude": 18.13395,
        "longitude": -77.56556
    },
    {
        "cityId": 11495568,
        "name": "Part Of Gutters",
        "stateId": 3489586,
        "latitude": 18.00642,
        "longitude": -77.57903
    },
    {
        "cityId": 11495571,
        "name": "New Forest",
        "stateId": 3489586,
        "latitude": 17.9201,
        "longitude": -77.55867
    },
    {
        "cityId": 11495573,
        "name": "New Green",
        "stateId": 3489586,
        "latitude": 18.07663,
        "longitude": -77.52569
    },
    {
        "cityId": 11495577,
        "name": "Newport",
        "stateId": 3489586,
        "latitude": 17.96293,
        "longitude": -77.50486
    },
    {
        "cityId": 11495582,
        "name": "Old England",
        "stateId": 3489586,
        "latitude": 17.98503,
        "longitude": -77.46017
    },
    {
        "cityId": 11495584,
        "name": "Pike",
        "stateId": 3489586,
        "latitude": 18.23229,
        "longitude": -77.5379
    },
    {
        "cityId": 11495593,
        "name": "Plowden",
        "stateId": 3489586,
        "latitude": 17.89178,
        "longitude": -77.53846
    },
    {
        "cityId": 11495618,
        "name": "Robins Hall",
        "stateId": 3489586,
        "latitude": 18.20405,
        "longitude": -77.55007
    },
    {
        "cityId": 11495625,
        "name": "Rose Hill",
        "stateId": 3489586,
        "latitude": 17.92471,
        "longitude": -77.5234
    },
    {
        "cityId": 11495634,
        "name": "Scotts Pass",
        "stateId": 3489586,
        "latitude": 17.9992,
        "longitude": -77.3982
    },
    {
        "cityId": 11495635,
        "name": "Royal Flat",
        "stateId": 3489586,
        "latitude": 18.04965,
        "longitude": -77.4683
    },
    {
        "cityId": 11495640,
        "name": "Snowdon",
        "stateId": 3489586,
        "latitude": 17.94198,
        "longitude": -77.49137
    },
    {
        "cityId": 11495641,
        "name": "Spring Ground",
        "stateId": 3489586,
        "latitude": 18.16233,
        "longitude": -77.47977
    },
    {
        "cityId": 11495642,
        "name": "Somerset",
        "stateId": 3489586,
        "latitude": 18.08036,
        "longitude": -77.54306
    },
    {
        "cityId": 11495651,
        "name": "Spur Tree",
        "stateId": 3489586,
        "latitude": 18.0065,
        "longitude": -77.55664
    },
    {
        "cityId": 11495658,
        "name": "St. Paul's",
        "stateId": 3489586,
        "latitude": 18.13144,
        "longitude": -77.612
    },
    {
        "cityId": 11495663,
        "name": "Swaby's Hope",
        "stateId": 3489586,
        "latitude": 17.98608,
        "longitude": -77.53326
    },
    {
        "cityId": 11495665,
        "name": "Top Hill",
        "stateId": 3489586,
        "latitude": 18.11622,
        "longitude": -77.50344
    },
    {
        "cityId": 11495672,
        "name": "Victoria Town",
        "stateId": 3489586,
        "latitude": 17.90472,
        "longitude": -77.37795
    },
    {
        "cityId": 11495682,
        "name": "Watham",
        "stateId": 3489586,
        "latitude": 18.00675,
        "longitude": -77.51873
    },
    {
        "cityId": 11495691,
        "name": "Williamsfield",
        "stateId": 3489586,
        "latitude": 18.06664,
        "longitude": -77.46582
    },
    {
        "cityId": 11495706,
        "name": "Heartease",
        "stateId": 3489586,
        "latitude": 18.04878,
        "longitude": -77.48238
    },
    {
        "cityId": 11495707,
        "name": "Bombay",
        "stateId": 3489586,
        "latitude": 18.1178,
        "longitude": -77.4494
    },
    {
        "cityId": 11495711,
        "name": "Prospect",
        "stateId": 3489586,
        "latitude": 17.98244,
        "longitude": -77.56775
    }
]