[
    {
        "cityId": "11494918",
        "name": "Port Royal",
        "stateId": "3489853",
        "latitude": 17.93899,
        "longitude": -76.79284
    },
    {
        "cityId": "11494921",
        "name": "Southside",
        "stateId": "3489853",
        "latitude": 17.96569,
        "longitude": -76.78624
    },
    {
        "cityId": "11495163",
        "name": "Johnson Town",
        "stateId": "3489853",
        "latitude": 17.97771,
        "longitude": -76.75593
    },
    {
        "cityId": "11495164",
        "name": "Newport East",
        "stateId": "3489853",
        "latitude": 17.97421,
        "longitude": -76.80663
    },
    {
        "cityId": "11495180",
        "name": "Manley Meadows",
        "stateId": "3489853",
        "latitude": 17.96907,
        "longitude": -76.77116
    },
    {
        "cityId": "11495213",
        "name": "Kingston Gardens",
        "stateId": "3489853",
        "latitude": 17.97836,
        "longitude": -76.78681
    },
    {
        "cityId": "11495215",
        "name": "Fletchers Land",
        "stateId": "3489853",
        "latitude": 17.97968,
        "longitude": -76.791
    },
    {
        "cityId": "11495219",
        "name": "Springfield",
        "stateId": "3489853",
        "latitude": 17.97117,
        "longitude": -76.75607
    },
    {
        "cityId": "11495227",
        "name": "Bournemouth Gardens",
        "stateId": "3489853",
        "latitude": 17.97009,
        "longitude": -76.76266
    },
    {
        "cityId": "11495230",
        "name": "Denham Town",
        "stateId": "3489853",
        "latitude": 17.97812,
        "longitude": -76.79984
    },
    {
        "cityId": "11495251",
        "name": "Norman Gardens",
        "stateId": "3489853",
        "latitude": 17.97803,
        "longitude": -76.7594
    },
    {
        "cityId": "11495260",
        "name": "Rollington Town",
        "stateId": "3489853",
        "latitude": 17.97687,
        "longitude": -76.76523
    },
    {
        "cityId": "11495270",
        "name": "Allman Town",
        "stateId": "3489853",
        "latitude": 17.98297,
        "longitude": -76.78685
    },
    {
        "cityId": "11495271",
        "name": "Hannah Town\/ Craig Town",
        "stateId": "3489853",
        "latitude": 17.97998,
        "longitude": -76.7943
    },
    {
        "cityId": "11495272",
        "name": "Campbell Town",
        "stateId": "3489853",
        "latitude": 17.97914,
        "longitude": -76.78134
    },
    {
        "cityId": "11495273",
        "name": "D'Aguilar Town\/ Rennock Lodge",
        "stateId": "3489853",
        "latitude": 17.97001,
        "longitude": -76.73701
    },
    {
        "cityId": "11495274",
        "name": "Franklyn Town",
        "stateId": "3489853",
        "latitude": 17.97787,
        "longitude": -76.77339
    },
    {
        "cityId": "11495275",
        "name": "Newton Square",
        "stateId": "3489853",
        "latitude": 17.97352,
        "longitude": -76.77207
    },
    {
        "cityId": "11495276",
        "name": "Tivoli Gardens",
        "stateId": "3489853",
        "latitude": 17.97326,
        "longitude": -76.8009
    },
    {
        "cityId": "11495277",
        "name": "Passmore Town",
        "stateId": "3489853",
        "latitude": 17.97301,
        "longitude": -76.7765
    },
    {
        "cityId": "11495278",
        "name": "Central Down Town",
        "stateId": "3489853",
        "latitude": 17.96958,
        "longitude": -76.79264
    },
    {
        "cityId": "11495279",
        "name": "West Down Town",
        "stateId": "3489853",
        "latitude": 17.97294,
        "longitude": -76.79704
    },
    {
        "cityId": "11495280",
        "name": "East Down Town",
        "stateId": "3489853",
        "latitude": 17.97197,
        "longitude": -76.78471
    },
    {
        "cityId": "11495283",
        "name": "Rae Town",
        "stateId": "3489853",
        "latitude": 17.96773,
        "longitude": -76.77965
    }
]