[
    {
        "cityId": 1150699,
        "name": "Amphoe Saraphi",
        "stateId": 1153670,
        "latitude": 18.70511,
        "longitude": 99.02989
    },
    {
        "cityId": 1150725,
        "name": "Amphoe San Sai",
        "stateId": 1153670,
        "latitude": 18.94101,
        "longitude": 99.04048
    },
    {
        "cityId": 1150727,
        "name": "Amphoe San Pa Tong",
        "stateId": 1153670,
        "latitude": 18.60567,
        "longitude": 98.88531
    },
    {
        "cityId": 1150731,
        "name": "Amphoe San Kamphaeng",
        "stateId": 1153670,
        "latitude": 18.73497,
        "longitude": 99.18609
    },
    {
        "cityId": 1150782,
        "name": "Amphoe Samoeng",
        "stateId": 1153670,
        "latitude": 18.90027,
        "longitude": 98.6565
    },
    {
        "cityId": 1151302,
        "name": "Amphoe Phrao",
        "stateId": 1153670,
        "latitude": 19.2846,
        "longitude": 99.22277
    },
    {
        "cityId": 1151633,
        "name": "Amphoe Om Koi",
        "stateId": 1153670,
        "latitude": 17.69842,
        "longitude": 98.35433
    },
    {
        "cityId": 1152000,
        "name": "Amphoe Mueang Chiang Mai",
        "stateId": 1153670,
        "latitude": 18.79008,
        "longitude": 98.96869
    },
    {
        "cityId": 1152182,
        "name": "Amphoe Mae Taeng",
        "stateId": 1153670,
        "latitude": 19.16667,
        "longitude": 98.83333
    },
    {
        "cityId": 1152195,
        "name": "Amphoe Mae Rim",
        "stateId": 1153670,
        "latitude": 18.94139,
        "longitude": 98.88667
    },
    {
        "cityId": 1152229,
        "name": "Amphoe Mae Chaem",
        "stateId": 1153670,
        "latitude": 18.66694,
        "longitude": 98.3245
    },
    {
        "cityId": 1152233,
        "name": "Amphoe Mae Ai",
        "stateId": 1153670,
        "latitude": 19.99136,
        "longitude": 99.33976
    },
    {
        "cityId": 1153277,
        "name": "Amphoe Hot",
        "stateId": 1153670,
        "latitude": 18.11581,
        "longitude": 98.46377
    },
    {
        "cityId": 1153385,
        "name": "Amphoe Hang Dong",
        "stateId": 1153670,
        "latitude": 18.73869,
        "longitude": 98.88439
    },
    {
        "cityId": 1153426,
        "name": "Amphoe Fang",
        "stateId": 1153670,
        "latitude": 19.8755,
        "longitude": 99.16345
    },
    {
        "cityId": 1153468,
        "name": "Amphoe Doi Saket",
        "stateId": 1153670,
        "latitude": 18.92372,
        "longitude": 99.21272
    },
    {
        "cityId": 1153633,
        "name": "Amphoe Chom Thong",
        "stateId": 1153670,
        "latitude": 18.39242,
        "longitude": 98.59761
    },
    {
        "cityId": 1153672,
        "name": "Amphoe Chiang Dao",
        "stateId": 1153670,
        "latitude": 19.51279,
        "longitude": 98.9418
    },
    {
        "cityId": 7420875,
        "name": "Amphoe Mae On",
        "stateId": 1153670,
        "latitude": 18.73496,
        "longitude": 99.30378
    },
    {
        "cityId": 7505711,
        "name": "Amphoe Chai Prakan",
        "stateId": 1153670,
        "latitude": 19.674,
        "longitude": 99.17478
    },
    {
        "cityId": 7509793,
        "name": "Amphoe Wiang Haeng",
        "stateId": 1153670,
        "latitude": 19.59188,
        "longitude": 98.65845
    },
    {
        "cityId": 7510615,
        "name": "Amphoe Doi Tao",
        "stateId": 1153670,
        "latitude": 17.89703,
        "longitude": 98.66292
    },
    {
        "cityId": 7510616,
        "name": "Amphoe Doi Lo",
        "stateId": 1153670,
        "latitude": 18.5333,
        "longitude": 98.76843
    },
    {
        "cityId": 7510635,
        "name": "Amphoe Mae Wang",
        "stateId": 1153670,
        "latitude": 18.67457,
        "longitude": 98.68714
    },
    {
        "cityId": 7524616,
        "name": "Amphoe Galyani Vadhana",
        "stateId": 1153670,
        "latitude": 18.94439,
        "longitude": 98.30329
    }
]