[
    {
        "cityId": 1605218,
        "name": "Amphoe Uthumphon Phisai",
        "stateId": 1606238,
        "latitude": 15.12305,
        "longitude": 104.16002
    },
    {
        "cityId": 1607061,
        "name": "Amphoe Rasi Salai",
        "stateId": 1606238,
        "latitude": 15.34637,
        "longitude": 104.18617
    },
    {
        "cityId": 1607250,
        "name": "Amphoe Prang Ku",
        "stateId": 1606238,
        "latitude": 14.85443,
        "longitude": 104.0374
    },
    {
        "cityId": 1608616,
        "name": "Amphoe Mueang Sisaket",
        "stateId": 1606238,
        "latitude": 15.08168,
        "longitude": 104.35126
    },
    {
        "cityId": 1609687,
        "name": "Amphoe Khun Han",
        "stateId": 1606238,
        "latitude": 14.53455,
        "longitude": 104.40739
    },
    {
        "cityId": 1609707,
        "name": "Amphoe Khukhan",
        "stateId": 1606238,
        "latitude": 14.73783,
        "longitude": 104.1859
    },
    {
        "cityId": 1610224,
        "name": "Amphoe Kanthararom",
        "stateId": 1606238,
        "latitude": 15.12447,
        "longitude": 104.57318
    },
    {
        "cityId": 1610226,
        "name": "Amphoe Kantharalak",
        "stateId": 1606238,
        "latitude": 14.568,
        "longitude": 104.6708
    },
    {
        "cityId": 7510823,
        "name": "Amphoe Phayu",
        "stateId": 1606238,
        "latitude": 14.90639,
        "longitude": 104.38293
    },
    {
        "cityId": 7510824,
        "name": "Amphoe Si Rattana",
        "stateId": 1606238,
        "latitude": 14.81062,
        "longitude": 104.47634
    },
    {
        "cityId": 7510825,
        "name": "Amphoe Phrai Bueng",
        "stateId": 1606238,
        "latitude": 14.77989,
        "longitude": 104.36599
    },
    {
        "cityId": 7510826,
        "name": "Amphoe Phu Sing",
        "stateId": 1606238,
        "latitude": 14.48873,
        "longitude": 104.15603
    },
    {
        "cityId": 7510827,
        "name": "Amphoe Wang Hin",
        "stateId": 1606238,
        "latitude": 14.96133,
        "longitude": 104.21928
    },
    {
        "cityId": 7510828,
        "name": "Amphoe Huai Thap Than",
        "stateId": 1606238,
        "latitude": 15.01808,
        "longitude": 104.03875
    },
    {
        "cityId": 7510829,
        "name": "Amphoe Mueang Chan",
        "stateId": 1606238,
        "latitude": 15.18249,
        "longitude": 104.02471
    },
    {
        "cityId": 7510830,
        "name": "Amphoe Pho Si Suwan",
        "stateId": 1606238,
        "latitude": 15.2337,
        "longitude": 104.06739
    },
    {
        "cityId": 7510831,
        "name": "Amphoe Bueng Bun",
        "stateId": 1606238,
        "latitude": 15.30288,
        "longitude": 104.06166
    },
    {
        "cityId": 7510832,
        "name": "Amphoe Sila Lat",
        "stateId": 1606238,
        "latitude": 15.4807,
        "longitude": 104.09478
    },
    {
        "cityId": 7510849,
        "name": "Amphoe Non Khun",
        "stateId": 1606238,
        "latitude": 14.90188,
        "longitude": 104.69564
    },
    {
        "cityId": 7510850,
        "name": "Amphoe Benchalak",
        "stateId": 1606238,
        "latitude": 14.78319,
        "longitude": 104.71879
    },
    {
        "cityId": 7510851,
        "name": "Amphoe Nam Kliang",
        "stateId": 1606238,
        "latitude": 14.91022,
        "longitude": 104.52545
    },
    {
        "cityId": 8304644,
        "name": "Amphoe Yang Chum Noi",
        "stateId": 1606238,
        "latitude": 15.23688,
        "longitude": 104.39083
    }
]