[
    {
        "cityId": 1783620,
        "name": "Zunyi Shi",
        "stateId": 1809445,
        "latitude": 28.15469,
        "longitude": 107.07481
    },
    {
        "cityId": 1792591,
        "name": "Tongren Diqu",
        "stateId": 1809445,
        "latitude": 27.74188,
        "longitude": 109.19312
    },
    {
        "cityId": 1798226,
        "name": "Qianxinan Bouyeizu Miaozu Zizhizhou",
        "stateId": 1809445,
        "latitude": 25.38808,
        "longitude": 105.3874
    },
    {
        "cityId": 1798280,
        "name": "Qiannan Bouyeizu Miaozu Zizhizhou",
        "stateId": 1809445,
        "latitude": 26.06596,
        "longitude": 107.11856
    },
    {
        "cityId": 1798360,
        "name": "Qiandongnan Miao and Dong Autonomous Prefecture",
        "stateId": 1809445,
        "latitude": 26.5738,
        "longitude": 108.59914
    },
    {
        "cityId": 1801764,
        "name": "Lupanshui Shi",
        "stateId": 1809445,
        "latitude": 26.24015,
        "longitude": 104.75182
    },
    {
        "cityId": 1809458,
        "name": "Guiyang Shi",
        "stateId": 1809445,
        "latitude": 26.58,
        "longitude": 106.71
    },
    {
        "cityId": 1816372,
        "name": "Bijie Diqu",
        "stateId": 1809445,
        "latitude": 27.29033,
        "longitude": 105.30087
    },
    {
        "cityId": 1817965,
        "name": "Anshun Shi",
        "stateId": 1809445,
        "latitude": 26.08029,
        "longitude": 105.9091
    }
]