[
    {
        "cityId": 1785770,
        "name": "Yulin Diqu",
        "stateId": 1809867,
        "latitude": 22.63,
        "longitude": 110.15
    },
    {
        "cityId": 1790838,
        "name": "Wuzhou Shi",
        "stateId": 1809867,
        "latitude": 23.48199,
        "longitude": 111.31147
    },
    {
        "cityId": 1797550,
        "name": "Qinzhou Shi",
        "stateId": 1809867,
        "latitude": 21.95006,
        "longitude": 108.6166
    },
    {
        "cityId": 1799866,
        "name": "Nanning Shi",
        "stateId": 1809867,
        "latitude": 22.816,
        "longitude": 108.316
    },
    {
        "cityId": 1802851,
        "name": "Liuzhou Shi",
        "stateId": 1809867,
        "latitude": 24.31667,
        "longitude": 109.4
    },
    {
        "cityId": 1808757,
        "name": "Hechi Shi",
        "stateId": 1809867,
        "latitude": 24.7,
        "longitude": 108.03
    },
    {
        "cityId": 1809492,
        "name": "Guilin Shi",
        "stateId": 1809867,
        "latitude": 25.28333,
        "longitude": 110.28333
    },
    {
        "cityId": 1816268,
        "name": "Baise Shi",
        "stateId": 1809867,
        "latitude": 23.9,
        "longitude": 106.61667
    },
    {
        "cityId": 1816702,
        "name": "Beihai Shi",
        "stateId": 1809867,
        "latitude": 21.5,
        "longitude": 109
    },
    {
        "cityId": 7909203,
        "name": "Guigang Shi",
        "stateId": 1809867,
        "latitude": 23.31767,
        "longitude": 110.04735
    },
    {
        "cityId": 7909220,
        "name": "Chongzuo Shi",
        "stateId": 1809867,
        "latitude": 22.46541,
        "longitude": 107.39622
    },
    {
        "cityId": 7909222,
        "name": "Laibin Shi",
        "stateId": 1809867,
        "latitude": 23.76667,
        "longitude": 109.63333
    },
    {
        "cityId": 7909223,
        "name": "Fangchenggang Shi",
        "stateId": 1809867,
        "latitude": 21.9358,
        "longitude": 107.95932
    },
    {
        "cityId": 7909224,
        "name": "Hezhou Shi",
        "stateId": 1809867,
        "latitude": 24.39465,
        "longitude": 111.6898
    },
    {
        "cityId": 8537502,
        "name": "Yulin Shi",
        "stateId": 1809867,
        "latitude": 22.47454,
        "longitude": 110.40043
    }
]