[
    {
        "cityId": "2610788",
        "name": "Vallensb\u00e6k Kommune",
        "stateId": "6418538",
        "latitude": 55.63128,
        "longitude": 12.37369
    },
    {
        "cityId": "2611861",
        "name": "T\u00e5rnby Kommune",
        "stateId": "6418538",
        "latitude": 55.60391,
        "longitude": 12.59599
    },
    {
        "cityId": "2614677",
        "name": "R\u00f8dovre Kommune",
        "stateId": "6418538",
        "latitude": 55.68852,
        "longitude": 12.44834
    },
    {
        "cityId": "2617227",
        "name": "Lyngby-T\u00e5rb\u00e6k Kommune",
        "stateId": "6418538",
        "latitude": 55.78456,
        "longitude": 12.50508
    },
    {
        "cityId": "2618424",
        "name": "K\u00f8benhavn",
        "stateId": "6418538",
        "latitude": 55.6711,
        "longitude": 12.56529
    },
    {
        "cityId": "2619378",
        "name": "Ish\u00f8j Kommune",
        "stateId": "6418538",
        "latitude": 55.62299,
        "longitude": 12.30567
    },
    {
        "cityId": "2619527",
        "name": "Hvidovre Kommune",
        "stateId": "6418538",
        "latitude": 55.63166,
        "longitude": 12.46615
    },
    {
        "cityId": "2619762",
        "name": "H\u00f8rsholm Kommune",
        "stateId": "6418538",
        "latitude": 55.88759,
        "longitude": 12.48566
    },
    {
        "cityId": "2620321",
        "name": "Hiller\u00f8d Kommune",
        "stateId": "6418538",
        "latitude": 55.92319,
        "longitude": 12.23794
    },
    {
        "cityId": "2620430",
        "name": "Herlev Kommune",
        "stateId": "6418538",
        "latitude": 55.73317,
        "longitude": 12.43106
    },
    {
        "cityId": "2620469",
        "name": "Helsing\u00f8r Kommune",
        "stateId": "6418538",
        "latitude": 56.05,
        "longitude": 12.5
    },
    {
        "cityId": "2621354",
        "name": "Glostrup Kommune",
        "stateId": "6418538",
        "latitude": 55.68188,
        "longitude": 12.41018
    },
    {
        "cityId": "2621394",
        "name": "Gladsaxe Municipality",
        "stateId": "6418538",
        "latitude": 55.76667,
        "longitude": 12.43333
    },
    {
        "cityId": "2621514",
        "name": "Gentofte Kommune",
        "stateId": "6418538",
        "latitude": 55.75,
        "longitude": 12.55
    },
    {
        "cityId": "2621911",
        "name": "Frederikssund Kommune",
        "stateId": "6418538",
        "latitude": 55.80957,
        "longitude": 12.04038
    },
    {
        "cityId": "2621941",
        "name": "Frederiksberg Kommune",
        "stateId": "6418538",
        "latitude": 55.67856,
        "longitude": 12.52216
    },
    {
        "cityId": "2622935",
        "name": "Drag\u00f8r Kommune",
        "stateId": "6418538",
        "latitude": 55.58233,
        "longitude": 12.62756
    },
    {
        "cityId": "2623170",
        "name": "Christians\u00f8",
        "stateId": "6418538",
        "latitude": 55.31982,
        "longitude": 15.18783
    },
    {
        "cityId": "2623352",
        "name": "Br\u00f8ndby Kommune",
        "stateId": "6418538",
        "latitude": 55.6429,
        "longitude": 12.41101
    },
    {
        "cityId": "2623665",
        "name": "Bornholm Kommune",
        "stateId": "6418538",
        "latitude": 55.12386,
        "longitude": 14.91115
    },
    {
        "cityId": "2624340",
        "name": "Ballerup Kommune",
        "stateId": "6418538",
        "latitude": 55.73248,
        "longitude": 12.35793
    },
    {
        "cityId": "2624844",
        "name": "Aller\u00f8d Kommune",
        "stateId": "6418538",
        "latitude": 55.85856,
        "longitude": 12.32558
    },
    {
        "cityId": "2624905",
        "name": "Albertslund Kommune",
        "stateId": "6418538",
        "latitude": 55.68022,
        "longitude": 12.34797
    },
    {
        "cityId": "6543927",
        "name": "Fures\u00f8 Kommune",
        "stateId": "6418538",
        "latitude": 55.78333,
        "longitude": 12.34167
    },
    {
        "cityId": "6543938",
        "name": "H\u00f8je-Taastrup Kommune",
        "stateId": "6418538",
        "latitude": 55.65643,
        "longitude": 12.24854
    },
    {
        "cityId": "6543940",
        "name": "Fredensborg Kommune",
        "stateId": "6418538",
        "latitude": 55.95,
        "longitude": 12.45
    },
    {
        "cityId": "6543941",
        "name": "Halsn\u00e6s Kommune",
        "stateId": "6418538",
        "latitude": 55.96765,
        "longitude": 11.94214
    },
    {
        "cityId": "6543943",
        "name": "Rudersdal Kommune",
        "stateId": "6418538",
        "latitude": 55.825,
        "longitude": 12.49167
    },
    {
        "cityId": "6543945",
        "name": "Gribskov Kommune",
        "stateId": "6418538",
        "latitude": 56.05833,
        "longitude": 12.24167
    },
    {
        "cityId": "6543948",
        "name": "Egedal Kommune",
        "stateId": "6418538",
        "latitude": 55.75556,
        "longitude": 12.22778
    }
]