[
    {
        "cityId": 438700,
        "name": "\u00c7atak \u0130l\u00e7esi",
        "stateId": 298113,
        "latitude": 38.0078,
        "longitude": 43.06195
    },
    {
        "cityId": 7733001,
        "name": "Edremit",
        "stateId": 298113,
        "latitude": 38.37889,
        "longitude": 43.29717
    },
    {
        "cityId": 7733002,
        "name": "Erci\u015f",
        "stateId": 298113,
        "latitude": 39.15123,
        "longitude": 43.33705
    },
    {
        "cityId": 7733003,
        "name": "Merkez",
        "stateId": 298113,
        "latitude": 38.51433,
        "longitude": 43.36166
    },
    {
        "cityId": 7911042,
        "name": "Muradiye",
        "stateId": 298113,
        "latitude": 38.97889,
        "longitude": 43.75374
    },
    {
        "cityId": 8630841,
        "name": "Ba\u015fkale \u0130l\u00e7esi",
        "stateId": 298113,
        "latitude": 38.05305,
        "longitude": 44.02163
    },
    {
        "cityId": 8630842,
        "name": "\u00c7ald\u0131ran \u0130l\u00e7esi",
        "stateId": 298113,
        "latitude": 39.15053,
        "longitude": 43.91415
    },
    {
        "cityId": 8630843,
        "name": "Bah\u00e7esaray \u0130l\u00e7esi",
        "stateId": 298113,
        "latitude": 38.12635,
        "longitude": 42.80493
    },
    {
        "cityId": 8630844,
        "name": "Geva\u015f \u0130l\u00e7esi",
        "stateId": 298113,
        "latitude": 38.2939,
        "longitude": 43.1053
    },
    {
        "cityId": 8630845,
        "name": "G\u00fcrp\u0131nar \u0130l\u00e7esi",
        "stateId": 298113,
        "latitude": 38.32396,
        "longitude": 43.41036
    },
    {
        "cityId": 8630846,
        "name": "Saray \u0130l\u00e7esi",
        "stateId": 298113,
        "latitude": 38.65513,
        "longitude": 44.17731
    },
    {
        "cityId": 8630847,
        "name": "\u00d6zalp \u0130l\u00e7esi",
        "stateId": 298113,
        "latitude": 38.66283,
        "longitude": 43.99603
    },
    {
        "cityId": 9550890,
        "name": "Tu\u015fpa",
        "stateId": 298113,
        "latitude": 38.48423,
        "longitude": 43.40218
    },
    {
        "cityId": 9550938,
        "name": "\u0130pekyolu",
        "stateId": 298113,
        "latitude": 38.49041,
        "longitude": 43.3469
    }
]