[
    {
        "cityId": 7732998,
        "name": "Merkez",
        "stateId": 298845,
        "latitude": 39.17114,
        "longitude": 39.5557
    },
    {
        "cityId": 8631575,
        "name": "Ovac\u0131k \u0130l\u00e7esi",
        "stateId": 298845,
        "latitude": 39.35783,
        "longitude": 39.21628
    },
    {
        "cityId": 8631576,
        "name": "Hozat \u0130l\u00e7esi",
        "stateId": 298845,
        "latitude": 39.1078,
        "longitude": 39.2188
    },
    {
        "cityId": 8631578,
        "name": "Pertek \u0130l\u00e7esi",
        "stateId": 298845,
        "latitude": 38.86503,
        "longitude": 39.32734
    },
    {
        "cityId": 8631579,
        "name": "P\u00fcl\u00fcm\u00fcr \u0130l\u00e7esi",
        "stateId": 298845,
        "latitude": 39.48662,
        "longitude": 39.89874
    },
    {
        "cityId": 8631580,
        "name": "Naz\u0131miye \u0130l\u00e7esi",
        "stateId": 298845,
        "latitude": 39.17952,
        "longitude": 39.82805
    },
    {
        "cityId": 8631581,
        "name": "Mazgirt \u0130l\u00e7esi",
        "stateId": 298845,
        "latitude": 39.01913,
        "longitude": 39.60473
    },
    {
        "cityId": 8631582,
        "name": "\u00c7emi\u015fgezek \u0130l\u00e7esi",
        "stateId": 298845,
        "latitude": 39.06234,
        "longitude": 38.914
    }
]