[
    {
        "cityId": 7732731,
        "name": "Merkez",
        "stateId": 304825,
        "latitude": 38.70521,
        "longitude": 27.39111
    },
    {
        "cityId": 7732938,
        "name": "Saruhanl\u0131",
        "stateId": 304825,
        "latitude": 38.76778,
        "longitude": 27.64714
    },
    {
        "cityId": 7910589,
        "name": "Kula",
        "stateId": 304825,
        "latitude": 38.56775,
        "longitude": 28.64146
    },
    {
        "cityId": 8632406,
        "name": "Demirci \u0130l\u00e7esi",
        "stateId": 304825,
        "latitude": 39.05699,
        "longitude": 28.66461
    },
    {
        "cityId": 8632407,
        "name": "Selendi \u0130l\u00e7esi",
        "stateId": 304825,
        "latitude": 38.75481,
        "longitude": 28.87401
    },
    {
        "cityId": 8632408,
        "name": "K\u00f6pr\u00fcba\u015f\u0131 \u0130l\u00e7esi",
        "stateId": 304825,
        "latitude": 38.75929,
        "longitude": 28.40928
    },
    {
        "cityId": 8632409,
        "name": "Soma \u0130l\u00e7esi",
        "stateId": 304825,
        "latitude": 39.19629,
        "longitude": 27.61751
    },
    {
        "cityId": 8632410,
        "name": "K\u0131rka\u011fa\u00e7 \u0130l\u00e7esi",
        "stateId": 304825,
        "latitude": 39.1161,
        "longitude": 27.67479
    },
    {
        "cityId": 8632411,
        "name": "G\u00f6rdes \u0130l\u00e7esi",
        "stateId": 304825,
        "latitude": 38.94181,
        "longitude": 28.29427
    },
    {
        "cityId": 8632412,
        "name": "Akhisar \u0130l\u00e7esi",
        "stateId": 304825,
        "latitude": 38.92552,
        "longitude": 27.84804
    },
    {
        "cityId": 8632413,
        "name": "G\u00f6lmarmara \u0130l\u00e7esi",
        "stateId": 304825,
        "latitude": 38.72377,
        "longitude": 27.92145
    },
    {
        "cityId": 8632414,
        "name": "Ahmetli \u0130l\u00e7esi",
        "stateId": 304825,
        "latitude": 38.52888,
        "longitude": 27.9448
    },
    {
        "cityId": 8632415,
        "name": "Salihli \u0130l\u00e7esi",
        "stateId": 304825,
        "latitude": 38.49254,
        "longitude": 28.15264
    },
    {
        "cityId": 8632416,
        "name": "Ala\u015fehir \u0130l\u00e7esi",
        "stateId": 304825,
        "latitude": 38.36061,
        "longitude": 28.52385
    },
    {
        "cityId": 8632417,
        "name": "Sar\u0131g\u00f6l \u0130l\u00e7esi",
        "stateId": 304825,
        "latitude": 38.24859,
        "longitude": 28.70233
    },
    {
        "cityId": 8632418,
        "name": "Turgutlu \u0130l\u00e7esi",
        "stateId": 304825,
        "latitude": 38.51515,
        "longitude": 27.73515
    },
    {
        "cityId": 9548477,
        "name": "Yunusemre",
        "stateId": 304825,
        "latitude": 38.62063,
        "longitude": 27.40806
    },
    {
        "cityId": 9548503,
        "name": "\u015eehzadeler",
        "stateId": 304825,
        "latitude": 38.6166,
        "longitude": 27.43861
    }
]