[
    {
        "cityId": "7732735",
        "name": "Merkez",
        "stateId": "310858",
        "latitude": 37.68774,
        "longitude": 36.82336
    },
    {
        "cityId": "8631472",
        "name": "Pazarc\u0131k \u0130l\u00e7esi",
        "stateId": "310858",
        "latitude": 37.59467,
        "longitude": 36.93168
    },
    {
        "cityId": "8631473",
        "name": "Nurhak \u0130l\u00e7esi",
        "stateId": "310858",
        "latitude": 37.96638,
        "longitude": 37.44107
    },
    {
        "cityId": "8631474",
        "name": "\u00c7a\u011flayancerit \u0130l\u00e7esi",
        "stateId": "310858",
        "latitude": 37.74976,
        "longitude": 37.29033
    },
    {
        "cityId": "8631475",
        "name": "T\u00fcrko\u011flu \u0130l\u00e7esi",
        "stateId": "310858",
        "latitude": 37.38417,
        "longitude": 36.84626
    },
    {
        "cityId": "8631476",
        "name": "Elbistan \u0130l\u00e7esi",
        "stateId": "310858",
        "latitude": 38.21542,
        "longitude": 37.20463
    },
    {
        "cityId": "8631477",
        "name": "Ekin\u00f6z\u00fc \u0130l\u00e7esi",
        "stateId": "310858",
        "latitude": 38.07007,
        "longitude": 37.19414
    },
    {
        "cityId": "8631478",
        "name": "And\u0131r\u0131n \u0130l\u00e7esi",
        "stateId": "310858",
        "latitude": 37.58791,
        "longitude": 36.36112
    },
    {
        "cityId": "8631479",
        "name": "G\u00f6ksun \u0130l\u00e7esi",
        "stateId": "310858",
        "latitude": 38.03089,
        "longitude": 36.50239
    },
    {
        "cityId": "8631480",
        "name": "Af\u015fin \u0130l\u00e7esi",
        "stateId": "310858",
        "latitude": 38.25795,
        "longitude": 36.91897
    },
    {
        "cityId": "9548545",
        "name": "Dulkadiro\u011flu",
        "stateId": "310858",
        "latitude": 37.58254,
        "longitude": 36.91973
    },
    {
        "cityId": "9548652",
        "name": "Oniki\u015fubat",
        "stateId": "310858",
        "latitude": 37.59002,
        "longitude": 36.90548
    }
]