[
    {
        "cityId": "436926",
        "name": "Erzin \u0130l\u00e7esi",
        "stateId": "312394",
        "latitude": 36.95235,
        "longitude": 36.19616
    },
    {
        "cityId": "436927",
        "name": "D\u00f6rtyol \u0130l\u00e7esi",
        "stateId": "312394",
        "latitude": 36.83421,
        "longitude": 36.22773
    },
    {
        "cityId": "436928",
        "name": "Hassa \u0130l\u00e7esi",
        "stateId": "312394",
        "latitude": 36.79805,
        "longitude": 36.52135
    },
    {
        "cityId": "437215",
        "name": "Kumlu \u0130l\u00e7esi",
        "stateId": "312394",
        "latitude": 36.36508,
        "longitude": 36.45526
    },
    {
        "cityId": "437928",
        "name": "\u0130skenderun \u0130l\u00e7esi",
        "stateId": "312394",
        "latitude": 36.49472,
        "longitude": 36.08972
    },
    {
        "cityId": "437929",
        "name": "K\u0131r\u0131khan \u0130l\u00e7esi",
        "stateId": "312394",
        "latitude": 36.52444,
        "longitude": 36.43639
    },
    {
        "cityId": "437930",
        "name": "Belen \u0130l\u00e7esi",
        "stateId": "312394",
        "latitude": 36.49222,
        "longitude": 36.19342
    },
    {
        "cityId": "438417",
        "name": "Antakya \u0130l\u00e7esi",
        "stateId": "312394",
        "latitude": 36.24444,
        "longitude": 36.20111
    },
    {
        "cityId": "438418",
        "name": "Alt\u0131n\u00f6z\u00fc \u0130l\u00e7esi",
        "stateId": "312394",
        "latitude": 36.11536,
        "longitude": 36.24688
    },
    {
        "cityId": "438427",
        "name": "Yaylada\u011f\u0131 \u0130l\u00e7esi",
        "stateId": "312394",
        "latitude": 35.95167,
        "longitude": 36.0975
    },
    {
        "cityId": "438432",
        "name": "Reyhanl\u0131 \u0130l\u00e7esi",
        "stateId": "312394",
        "latitude": 36.26359,
        "longitude": 36.56843
    },
    {
        "cityId": "9541203",
        "name": "Samanda\u011f",
        "stateId": "312394",
        "latitude": 36.08421,
        "longitude": 35.97233
    },
    {
        "cityId": "9541389",
        "name": "Defne",
        "stateId": "312394",
        "latitude": 36.23739,
        "longitude": 36.16364
    },
    {
        "cityId": "9541486",
        "name": "Payas",
        "stateId": "312394",
        "latitude": 36.76426,
        "longitude": 36.21343
    },
    {
        "cityId": "9541531",
        "name": "Arsuz",
        "stateId": "312394",
        "latitude": 36.41134,
        "longitude": 35.8916
    }
]