[
    {
        "cityId": "8631583",
        "name": "\u00c7ay\u0131rl\u0131 \u0130l\u00e7esi",
        "stateId": "315372",
        "latitude": 39.80454,
        "longitude": 40.03724
    },
    {
        "cityId": "8631584",
        "name": "Otlukbeli \u0130l\u00e7esi",
        "stateId": "315372",
        "latitude": 39.97213,
        "longitude": 40.02139
    },
    {
        "cityId": "8631605",
        "name": "Tercan \u0130l\u00e7esi",
        "stateId": "315372",
        "latitude": 39.77812,
        "longitude": 40.38505
    },
    {
        "cityId": "8631606",
        "name": "\u00dcz\u00fcml\u00fc \u0130l\u00e7esi",
        "stateId": "315372",
        "latitude": 39.70943,
        "longitude": 39.70125
    },
    {
        "cityId": "8631607",
        "name": "Kemaliye \u0130l\u00e7esi",
        "stateId": "315372",
        "latitude": 39.27163,
        "longitude": 38.50588
    },
    {
        "cityId": "8631608",
        "name": "\u0130li\u00e7 \u0130l\u00e7esi",
        "stateId": "315372",
        "latitude": 39.45587,
        "longitude": 38.56409
    },
    {
        "cityId": "8631609",
        "name": "Refahiye \u0130l\u00e7esi",
        "stateId": "315372",
        "latitude": 39.90132,
        "longitude": 38.76745
    },
    {
        "cityId": "8631610",
        "name": "Kemah \u0130l\u00e7esi",
        "stateId": "315372",
        "latitude": 39.60123,
        "longitude": 39.03422
    }
]