[
    {
        "cityId": "8630864",
        "name": "Do\u011fubayaz\u0131t \u0130l\u00e7esi",
        "stateId": "325163",
        "latitude": 39.55601,
        "longitude": 44.08912
    },
    {
        "cityId": "8630865",
        "name": "Diyadin \u0130l\u00e7esi",
        "stateId": "325163",
        "latitude": 39.5488,
        "longitude": 43.6749
    },
    {
        "cityId": "8630866",
        "name": "Ele\u015fkirt \u0130l\u00e7esi",
        "stateId": "325163",
        "latitude": 39.81242,
        "longitude": 42.67955
    },
    {
        "cityId": "8630867",
        "name": "Ta\u015fl\u0131\u00e7ay \u0130l\u00e7esi",
        "stateId": "325163",
        "latitude": 39.64294,
        "longitude": 43.37683
    },
    {
        "cityId": "8630868",
        "name": "Patnos \u0130l\u00e7esi",
        "stateId": "325163",
        "latitude": 39.24297,
        "longitude": 42.86736
    },
    {
        "cityId": "8630869",
        "name": "Tutak \u0130l\u00e7esi",
        "stateId": "325163",
        "latitude": 39.55042,
        "longitude": 42.77572
    },
    {
        "cityId": "8630870",
        "name": "Hamur \u0130l\u00e7esi",
        "stateId": "325163",
        "latitude": 39.61917,
        "longitude": 42.9928
    },
    {
        "cityId": "11778423",
        "name": "A\u011fr\u0131",
        "stateId": "325163",
        "latitude": 39.713,
        "longitude": 43.05096
    }
]