[
    {
        "cityId": "8632131",
        "name": "Sar\u0131veliler \u0130l\u00e7esi",
        "stateId": "443187",
        "latitude": 36.70177,
        "longitude": 32.62647
    },
    {
        "cityId": "8632132",
        "name": "Ba\u015fyayla \u0130l\u00e7esi",
        "stateId": "443187",
        "latitude": 36.76219,
        "longitude": 32.68863
    },
    {
        "cityId": "8632133",
        "name": "Kaz\u0131mkarabekir \u0130l\u00e7esi",
        "stateId": "443187",
        "latitude": 37.24035,
        "longitude": 32.96413
    },
    {
        "cityId": "8632134",
        "name": "Ayranc\u0131 \u0130l\u00e7esi",
        "stateId": "443187",
        "latitude": 37.37111,
        "longitude": 33.69291
    },
    {
        "cityId": "8632136",
        "name": "Ermenek \u0130l\u00e7esi",
        "stateId": "443187",
        "latitude": 36.65058,
        "longitude": 32.89698
    }
]