[
    {
        "cityId": 7732993,
        "name": "Arsin",
        "stateId": 738647,
        "latitude": 40.86743,
        "longitude": 39.92938
    },
    {
        "cityId": 7732995,
        "name": "\u00c7ar\u015f\u0131ba\u015f\u0131",
        "stateId": 738647,
        "latitude": 41.04203,
        "longitude": 39.40035
    },
    {
        "cityId": 7732996,
        "name": "Merkez",
        "stateId": 738647,
        "latitude": 40.93874,
        "longitude": 39.73554
    },
    {
        "cityId": 7732997,
        "name": "Vakf\u0131kebir",
        "stateId": 738647,
        "latitude": 40.99562,
        "longitude": 39.32627
    },
    {
        "cityId": 7910998,
        "name": "Arakl\u0131",
        "stateId": 738647,
        "latitude": 40.74,
        "longitude": 39.96
    },
    {
        "cityId": 7911030,
        "name": "Ma\u00e7ka",
        "stateId": 738647,
        "latitude": 40.72127,
        "longitude": 39.59786
    },
    {
        "cityId": 8631456,
        "name": "\u00c7aykara \u0130l\u00e7esi",
        "stateId": 738647,
        "latitude": 40.74564,
        "longitude": 40.24191
    },
    {
        "cityId": 8631457,
        "name": "Hayrat \u0130l\u00e7esi",
        "stateId": 738647,
        "latitude": 40.89137,
        "longitude": 40.3676
    },
    {
        "cityId": 8631458,
        "name": "Of \u0130l\u00e7esi",
        "stateId": 738647,
        "latitude": 40.94694,
        "longitude": 40.26938
    },
    {
        "cityId": 8631459,
        "name": "Dernekpazar\u0131 \u0130l\u00e7esi",
        "stateId": 738647,
        "latitude": 40.79913,
        "longitude": 40.24725
    },
    {
        "cityId": 8631460,
        "name": "K\u00f6pr\u00fcba\u015f\u0131 \u0130l\u00e7esi",
        "stateId": 738647,
        "latitude": 40.80845,
        "longitude": 40.1228
    },
    {
        "cityId": 8631461,
        "name": "S\u00fcrmene \u0130l\u00e7esi",
        "stateId": 738647,
        "latitude": 40.91102,
        "longitude": 40.12009
    },
    {
        "cityId": 8631463,
        "name": "\u015ealpazar\u0131 \u0130l\u00e7esi",
        "stateId": 738647,
        "latitude": 40.94614,
        "longitude": 39.17804
    },
    {
        "cityId": 8631464,
        "name": "Tonya \u0130l\u00e7esi",
        "stateId": 738647,
        "latitude": 40.88523,
        "longitude": 39.28992
    },
    {
        "cityId": 8631465,
        "name": "D\u00fczk\u00f6y \u0130l\u00e7esi",
        "stateId": 738647,
        "latitude": 40.87241,
        "longitude": 39.42587
    },
    {
        "cityId": 8631466,
        "name": "Yomra \u0130l\u00e7esi",
        "stateId": 738647,
        "latitude": 40.9549,
        "longitude": 39.86567
    },
    {
        "cityId": 9549891,
        "name": "Ortahisar",
        "stateId": 738647,
        "latitude": 40.88029,
        "longitude": 39.88998
    },
    {
        "cityId": 9549892,
        "name": "Be\u015fikd\u00fcz\u00fc",
        "stateId": 738647,
        "latitude": 41.0511,
        "longitude": 39.229
    },
    {
        "cityId": 9550057,
        "name": "Ak\u00e7aabat",
        "stateId": 738647,
        "latitude": 41.0197,
        "longitude": 39.56293
    }
]