[
    {
        "cityId": "7732607",
        "name": "\u00c7orlu",
        "stateId": "738926",
        "latitude": 41.197,
        "longitude": 27.79109
    },
    {
        "cityId": "7732991",
        "name": "\u00c7erkezk\u00f6y",
        "stateId": "738926",
        "latitude": 41.28616,
        "longitude": 27.99969
    },
    {
        "cityId": "8632555",
        "name": "Marmara Ere\u011flisi \u0130l\u00e7esi",
        "stateId": "738926",
        "latitude": 40.98021,
        "longitude": 27.94102
    },
    {
        "cityId": "8632556",
        "name": "Hayrabolu \u0130l\u00e7esi",
        "stateId": "738926",
        "latitude": 41.22445,
        "longitude": 27.11951
    },
    {
        "cityId": "8632557",
        "name": "Muratl\u0131 \u0130l\u00e7esi",
        "stateId": "738926",
        "latitude": 41.18345,
        "longitude": 27.51454
    },
    {
        "cityId": "8632558",
        "name": "Saray \u0130l\u00e7esi",
        "stateId": "738926",
        "latitude": 41.45475,
        "longitude": 27.93734
    },
    {
        "cityId": "8632559",
        "name": "Malkara \u0130l\u00e7esi",
        "stateId": "738926",
        "latitude": 40.90052,
        "longitude": 26.91367
    },
    {
        "cityId": "8632560",
        "name": "\u015eark\u00f6y \u0130l\u00e7esi",
        "stateId": "738926",
        "latitude": 40.62513,
        "longitude": 27.10069
    },
    {
        "cityId": "9549876",
        "name": "Kapakl\u0131",
        "stateId": "738926",
        "latitude": 41.33864,
        "longitude": 27.97711
    },
    {
        "cityId": "9549878",
        "name": "S\u00fcleymanpa\u015fa",
        "stateId": "738926",
        "latitude": 40.9799,
        "longitude": 27.30377
    },
    {
        "cityId": "9564781",
        "name": "Ergene",
        "stateId": "738926",
        "latitude": 40.85953,
        "longitude": 27.27081
    }
]