[
    {
        "cityId": "7732953",
        "name": "Merkez",
        "stateId": "740352",
        "latitude": 40.7891,
        "longitude": 30.38225
    },
    {
        "cityId": "8632520",
        "name": "Akyaz\u0131 \u0130l\u00e7esi",
        "stateId": "740352",
        "latitude": 40.696,
        "longitude": 30.62803
    },
    {
        "cityId": "8632521",
        "name": "Tarakl\u0131 \u0130l\u00e7esi",
        "stateId": "740352",
        "latitude": 40.40685,
        "longitude": 30.50001
    },
    {
        "cityId": "8632522",
        "name": "Karap\u00fcr\u00e7ek \u0130l\u00e7esi",
        "stateId": "740352",
        "latitude": 40.65188,
        "longitude": 30.54509
    },
    {
        "cityId": "8632523",
        "name": "Geyve \u0130l\u00e7esi",
        "stateId": "740352",
        "latitude": 40.51701,
        "longitude": 30.29645
    },
    {
        "cityId": "8632524",
        "name": "Pamukova \u0130l\u00e7esi",
        "stateId": "740352",
        "latitude": 40.51806,
        "longitude": 30.17288
    },
    {
        "cityId": "8632525",
        "name": "Sapanca \u0130l\u00e7esi",
        "stateId": "740352",
        "latitude": 40.70222,
        "longitude": 30.27443
    },
    {
        "cityId": "8632526",
        "name": "Hendek \u0130l\u00e7esi",
        "stateId": "740352",
        "latitude": 40.80938,
        "longitude": 30.73915
    },
    {
        "cityId": "8632527",
        "name": "Karasu \u0130l\u00e7esi",
        "stateId": "740352",
        "latitude": 41.09983,
        "longitude": 30.68241
    },
    {
        "cityId": "8632528",
        "name": "Kocaali \u0130l\u00e7esi",
        "stateId": "740352",
        "latitude": 41.06361,
        "longitude": 30.85815
    },
    {
        "cityId": "8632529",
        "name": "Ferizli \u0130l\u00e7esi",
        "stateId": "740352",
        "latitude": 40.95092,
        "longitude": 30.48912
    },
    {
        "cityId": "8632530",
        "name": "S\u00f6\u011f\u00fctl\u00fc \u0130l\u00e7esi",
        "stateId": "740352",
        "latitude": 40.9161,
        "longitude": 30.47824
    },
    {
        "cityId": "8632531",
        "name": "Kaynarca \u0130l\u00e7esi",
        "stateId": "740352",
        "latitude": 41.04048,
        "longitude": 30.29619
    },
    {
        "cityId": "9549335",
        "name": "Adapazar\u0131",
        "stateId": "740352",
        "latitude": 40.78343,
        "longitude": 30.39986
    },
    {
        "cityId": "9549384",
        "name": "Serdivan",
        "stateId": "740352",
        "latitude": 40.76371,
        "longitude": 30.36784
    },
    {
        "cityId": "9549424",
        "name": "Erenler",
        "stateId": "740352",
        "latitude": 40.75564,
        "longitude": 30.41453
    },
    {
        "cityId": "9549457",
        "name": "Arifiye",
        "stateId": "740352",
        "latitude": 40.71327,
        "longitude": 30.36128
    }
]