[
    {
        "cityId": 10346885,
        "name": "L\u00e1rnaka",
        "stateId": 146398,
        "latitude": 34.90388,
        "longitude": 33.62153
    },
    {
        "cityId": 10346886,
        "name": "Arad\u00edppou",
        "stateId": 146398,
        "latitude": 34.95574,
        "longitude": 33.57655
    },
    {
        "cityId": 10346887,
        "name": "Dromolaxi\u00e1",
        "stateId": 146398,
        "latitude": 34.88471,
        "longitude": 33.58739
    },
    {
        "cityId": 10346888,
        "name": "Meneo\u00fa",
        "stateId": 146398,
        "latitude": 34.85693,
        "longitude": 33.60439
    },
    {
        "cityId": 10346889,
        "name": "Kelli\u00e1",
        "stateId": 146398,
        "latitude": 34.98683,
        "longitude": 33.62256
    },
    {
        "cityId": 10346890,
        "name": "Tro\u00falloi",
        "stateId": 146398,
        "latitude": 35.02586,
        "longitude": 33.62233
    },
    {
        "cityId": 10346891,
        "name": "Vor\u00f3klini",
        "stateId": 146398,
        "latitude": 34.98721,
        "longitude": 33.65749
    },
    {
        "cityId": 10346892,
        "name": "Avdeller\u00f3",
        "stateId": 146398,
        "latitude": 35.00589,
        "longitude": 33.56121
    },
    {
        "cityId": 10346893,
        "name": "P\u00fdla",
        "stateId": 146398,
        "latitude": 35.00243,
        "longitude": 33.69381
    },
    {
        "cityId": 10346894,
        "name": "Xylot\u00fdmvou",
        "stateId": 146398,
        "latitude": 35.01867,
        "longitude": 33.7424
    },
    {
        "cityId": 10346895,
        "name": "Orm\u00eddeia",
        "stateId": 146398,
        "latitude": 34.99607,
        "longitude": 33.78556
    },
    {
        "cityId": 10346896,
        "name": "Xylof\u00e1gou",
        "stateId": 146398,
        "latitude": 34.97593,
        "longitude": 33.84844
    },
    {
        "cityId": 10346897,
        "name": "P\u00e9rgamos",
        "stateId": 146398,
        "latitude": 35.04469,
        "longitude": 33.69527
    },
    {
        "cityId": 10346898,
        "name": "K\u00edti",
        "stateId": 146398,
        "latitude": 34.84689,
        "longitude": 33.57481
    },
    {
        "cityId": 10346899,
        "name": "Tersef\u00e1nou",
        "stateId": 146398,
        "latitude": 34.85937,
        "longitude": 33.54592
    },
    {
        "cityId": 10346900,
        "name": "Soft\u00e1des",
        "stateId": 146398,
        "latitude": 34.82277,
        "longitude": 33.54253
    },
    {
        "cityId": 10346901,
        "name": "Mazot\u00f3s",
        "stateId": 146398,
        "latitude": 34.79861,
        "longitude": 33.49354
    },
    {
        "cityId": 10346902,
        "name": "Alamin\u00f3s",
        "stateId": 146398,
        "latitude": 34.80043,
        "longitude": 33.44563
    },
    {
        "cityId": 10346903,
        "name": "Anafot\u00edda",
        "stateId": 146398,
        "latitude": 34.81414,
        "longitude": 33.46174
    },
    {
        "cityId": 10346904,
        "name": "K\u00f3rnos",
        "stateId": 146398,
        "latitude": 34.9052,
        "longitude": 33.3872
    },
    {
        "cityId": 10346905,
        "name": "Apl\u00e1nta",
        "stateId": 146398,
        "latitude": 34.82859,
        "longitude": 33.48075
    },
    {
        "cityId": 10346906,
        "name": "Kivis\u00edli",
        "stateId": 146398,
        "latitude": 33.563,
        "longitude": 35.163
    },
    {
        "cityId": 10346907,
        "name": "Kivis\u00edli",
        "stateId": 146398,
        "latitude": 34.82789,
        "longitude": 33.51285
    },
    {
        "cityId": 10346908,
        "name": "Alethrik\u00f3",
        "stateId": 146398,
        "latitude": 34.86445,
        "longitude": 33.49376
    },
    {
        "cityId": 10346909,
        "name": "Klavdi\u00e1",
        "stateId": 146398,
        "latitude": 34.89185,
        "longitude": 33.51507
    },
    {
        "cityId": 10346910,
        "name": "Anglis\u00eddes",
        "stateId": 146398,
        "latitude": 34.85669,
        "longitude": 33.45983
    },
    {
        "cityId": 10346911,
        "name": "Men\u00f3geia",
        "stateId": 146398,
        "latitude": 34.84718,
        "longitude": 33.4342
    },
    {
        "cityId": 10346912,
        "name": "Petrof\u00e1ni",
        "stateId": 146398,
        "latitude": 35.03681,
        "longitude": 33.50652
    },
    {
        "cityId": 10346913,
        "name": "Athi\u00e9nou",
        "stateId": 146398,
        "latitude": 35.05949,
        "longitude": 33.54254
    },
    {
        "cityId": 10346914,
        "name": "Melo\u00faseia",
        "stateId": 146398,
        "latitude": 35.07795,
        "longitude": 33.58668
    },
    {
        "cityId": 10346915,
        "name": "Tremetousi\u00e1",
        "stateId": 146398,
        "latitude": 35.08398,
        "longitude": 33.60575
    },
    {
        "cityId": 10346916,
        "name": "\u00c1rsos",
        "stateId": 146398,
        "latitude": 35.07747,
        "longitude": 33.6347
    },
    {
        "cityId": 10346917,
        "name": "Ag\u00eda \u00c1nna",
        "stateId": 146398,
        "latitude": 34.93872,
        "longitude": 33.48995
    },
    {
        "cityId": 10346918,
        "name": "Mosfilot\u00ed",
        "stateId": 146398,
        "latitude": 34.95255,
        "longitude": 33.43076
    },
    {
        "cityId": 10346919,
        "name": "Psevd\u00e1s",
        "stateId": 146398,
        "latitude": 34.95363,
        "longitude": 33.46956
    },
    {
        "cityId": 10346920,
        "name": "Del\u00edkipos",
        "stateId": 146398,
        "latitude": 34.92443,
        "longitude": 33.3391
    },
    {
        "cityId": 10346921,
        "name": "K\u00f3chi",
        "stateId": 146398,
        "latitude": 34.97312,
        "longitude": 33.51616
    },
    {
        "cityId": 10346922,
        "name": "Z\u00fdgi",
        "stateId": 146398,
        "latitude": 34.73315,
        "longitude": 33.33831
    },
    {
        "cityId": 10346923,
        "name": "Mar\u00ed",
        "stateId": 146398,
        "latitude": 34.73406,
        "longitude": 33.29112
    },
    {
        "cityId": 10346924,
        "name": "Kalavas\u00f3s",
        "stateId": 146398,
        "latitude": 34.76709,
        "longitude": 33.2927
    },
    {
        "cityId": 10346925,
        "name": "T\u00f3chni",
        "stateId": 146398,
        "latitude": 34.76926,
        "longitude": 33.31957
    },
    {
        "cityId": 10346926,
        "name": "Choirokoit\u00eda",
        "stateId": 146398,
        "latitude": 34.79891,
        "longitude": 33.33893
    },
    {
        "cityId": 10346927,
        "name": "Psematism\u00e9nos",
        "stateId": 146398,
        "latitude": 34.76378,
        "longitude": 33.3426
    },
    {
        "cityId": 10346928,
        "name": "Mar\u00f3ni",
        "stateId": 146398,
        "latitude": 34.7531,
        "longitude": 33.36701
    },
    {
        "cityId": 10346929,
        "name": "Skar\u00ednou",
        "stateId": 146398,
        "latitude": 34.82073,
        "longitude": 33.35391
    },
    {
        "cityId": 10346930,
        "name": "Kof\u00ednou",
        "stateId": 146398,
        "latitude": 34.83855,
        "longitude": 33.40004
    },
    {
        "cityId": 10346931,
        "name": "K\u00e1to L\u00e9fkara",
        "stateId": 146398,
        "latitude": 34.87001,
        "longitude": 33.34814
    },
    {
        "cityId": 10346932,
        "name": "P\u00e1no L\u00e9fkara",
        "stateId": 146398,
        "latitude": 34.86372,
        "longitude": 33.30568
    },
    {
        "cityId": 10346933,
        "name": "K\u00e1to Drys",
        "stateId": 146398,
        "latitude": 34.84013,
        "longitude": 33.29834
    },
    {
        "cityId": 10346934,
        "name": "V\u00e1vla",
        "stateId": 146398,
        "latitude": 34.83698,
        "longitude": 33.2737
    },
    {
        "cityId": 10346935,
        "name": "L\u00e1geia",
        "stateId": 146398,
        "latitude": 34.8417,
        "longitude": 33.24224
    },
    {
        "cityId": 10346936,
        "name": "Or\u00e1",
        "stateId": 146398,
        "latitude": 34.86057,
        "longitude": 33.2024
    },
    {
        "cityId": 10346937,
        "name": "Mel\u00edni",
        "stateId": 146398,
        "latitude": 34.86601,
        "longitude": 33.15223
    },
    {
        "cityId": 10346938,
        "name": "Odo\u00fa",
        "stateId": 146398,
        "latitude": 34.89111,
        "longitude": 33.15767
    },
    {
        "cityId": 10346939,
        "name": "\u00c1gioi Vavatsini\u00e1s",
        "stateId": 146398,
        "latitude": 34.88901,
        "longitude": 33.19175
    },
    {
        "cityId": 10346940,
        "name": "Vavatsini\u00e1",
        "stateId": 146398,
        "latitude": 34.88901,
        "longitude": 33.23316
    }
]