[
    {
        "cityId": "9644154",
        "name": "K\u0151szegi J\u00e1r\u00e1s",
        "stateId": "3043047",
        "latitude": 47.375,
        "longitude": 16.6565
    },
    {
        "cityId": "9644155",
        "name": "Szombathelyi J\u00e1r\u00e1s",
        "stateId": "3043047",
        "latitude": 47.21037,
        "longitude": 16.63954
    },
    {
        "cityId": "9644156",
        "name": "Szentgotth\u00e1rdi J\u00e1r\u00e1s",
        "stateId": "3043047",
        "latitude": 46.93674,
        "longitude": 16.30362
    },
    {
        "cityId": "9644157",
        "name": "K\u00f6rmendi J\u00e1r\u00e1s",
        "stateId": "3043047",
        "latitude": 46.92164,
        "longitude": 16.53291
    },
    {
        "cityId": "9644158",
        "name": "Vasv\u00e1ri J\u00e1r\u00e1s",
        "stateId": "3043047",
        "latitude": 47.03487,
        "longitude": 16.85939
    },
    {
        "cityId": "9644159",
        "name": "S\u00e1rv\u00e1ri J\u00e1r\u00e1s",
        "stateId": "3043047",
        "latitude": 47.23868,
        "longitude": 16.93299
    },
    {
        "cityId": "9644160",
        "name": "Celld\u00f6m\u00f6lki J\u00e1r\u00e1s",
        "stateId": "3043047",
        "latitude": 47.25001,
        "longitude": 17.13209
    }
]