[
    {
        "cityId": "9644763",
        "name": "Bicskei J\u00e1r\u00e1s",
        "stateId": "3053028",
        "latitude": 47.4338,
        "longitude": 18.56757
    },
    {
        "cityId": "9644764",
        "name": "Martonv\u00e1s\u00e1ri J\u00e1r\u00e1s",
        "stateId": "3053028",
        "latitude": 47.2904,
        "longitude": 18.79945
    },
    {
        "cityId": "9644765",
        "name": "G\u00e1rdonyi J\u00e1r\u00e1s",
        "stateId": "3053028",
        "latitude": 47.22785,
        "longitude": 18.63622
    },
    {
        "cityId": "9644766",
        "name": "Duna\u00fajv\u00e1rosi J\u00e1r\u00e1s",
        "stateId": "3053028",
        "latitude": 47.02801,
        "longitude": 18.82997
    },
    {
        "cityId": "9644767",
        "name": "Sz\u00e9kesfeh\u00e9rv\u00e1ri J\u00e1r\u00e1s",
        "stateId": "3053028",
        "latitude": 47.16531,
        "longitude": 18.41349
    },
    {
        "cityId": "9644768",
        "name": "S\u00e1rbog\u00e1rdi J\u00e1r\u00e1s",
        "stateId": "3053028",
        "latitude": 46.84036,
        "longitude": 18.60723
    },
    {
        "cityId": "9644769",
        "name": "Polg\u00e1rdi J\u00e1r\u00e1s",
        "stateId": "3053028",
        "latitude": 47.01275,
        "longitude": 18.28992
    },
    {
        "cityId": "9644770",
        "name": "Enyingi J\u00e1r\u00e1s",
        "stateId": "3053028",
        "latitude": 46.8724,
        "longitude": 18.30975
    },
    {
        "cityId": "9644771",
        "name": "M\u00f3ri J\u00e1r\u00e1s",
        "stateId": "3053028",
        "latitude": 47.34685,
        "longitude": 18.19838
    }
]