[
    {
        "cityId": "9644263",
        "name": "Bajai J\u00e1r\u00e1s",
        "stateId": "3055744",
        "latitude": 46.14507,
        "longitude": 19.01359
    },
    {
        "cityId": "9644264",
        "name": "B\u00e1csalm\u00e1si J\u00e1r\u00e1s",
        "stateId": "3055744",
        "latitude": 46.10167,
        "longitude": 19.33063
    },
    {
        "cityId": "9644265",
        "name": "J\u00e1noshalmai J\u00e1r\u00e1s",
        "stateId": "3055744",
        "latitude": 46.28283,
        "longitude": 19.31742
    },
    {
        "cityId": "9644266",
        "name": "Kiskunhalasi J\u00e1r\u00e1s",
        "stateId": "3055744",
        "latitude": 46.35832,
        "longitude": 19.53067
    },
    {
        "cityId": "9644267",
        "name": "Kiskunmajsai J\u00e1r\u00e1s",
        "stateId": "3055744",
        "latitude": 46.49608,
        "longitude": 19.72316
    },
    {
        "cityId": "9644268",
        "name": "Kalocsai J\u00e1r\u00e1s",
        "stateId": "3055744",
        "latitude": 46.55646,
        "longitude": 19.04211
    },
    {
        "cityId": "9644269",
        "name": "Kisk\u0151r\u00f6si J\u00e1r\u00e1s",
        "stateId": "3055744",
        "latitude": 46.63309,
        "longitude": 19.33726
    },
    {
        "cityId": "9644270",
        "name": "Kunszentmikl\u00f3si J\u00e1r\u00e1s",
        "stateId": "3055744",
        "latitude": 46.9481,
        "longitude": 19.15563
    },
    {
        "cityId": "9644271",
        "name": "Kecskem\u00e9ti J\u00e1r\u00e1s",
        "stateId": "3055744",
        "latitude": 46.88283,
        "longitude": 19.58701
    },
    {
        "cityId": "9644272",
        "name": "Tiszak\u00e9cskei J\u00e1r\u00e1s",
        "stateId": "3055744",
        "latitude": 46.86013,
        "longitude": 19.97298
    },
    {
        "cityId": "9644273",
        "name": "Kiskunf\u00e9legyh\u00e1zi J\u00e1r\u00e1s",
        "stateId": "3055744",
        "latitude": 46.65721,
        "longitude": 19.77006
    }
]