[
    {
        "cityId": 9644302,
        "name": "Tiszavasv\u00e1ri J\u00e1r\u00e1s",
        "stateId": 715593,
        "latitude": 47.98606,
        "longitude": 21.36545
    },
    {
        "cityId": 9644303,
        "name": "Ny\u00edregyh\u00e1zi J\u00e1r\u00e1s",
        "stateId": 715593,
        "latitude": 47.97691,
        "longitude": 21.64463
    },
    {
        "cityId": 9644304,
        "name": "Nagyk\u00e1ll\u00f3i J\u00e1r\u00e1s",
        "stateId": 715593,
        "latitude": 47.79994,
        "longitude": 21.84753
    },
    {
        "cityId": 9644305,
        "name": "Ny\u00edrb\u00e1tori J\u00e1r\u00e1s",
        "stateId": 715593,
        "latitude": 47.77553,
        "longitude": 22.11755
    },
    {
        "cityId": 9644306,
        "name": "M\u00e1t\u00e9szalkai J\u00e1r\u00e1s",
        "stateId": 715593,
        "latitude": 47.92961,
        "longitude": 22.31892
    },
    {
        "cityId": 9644307,
        "name": "Baktal\u00f3r\u00e1nth\u00e1zai J\u00e1r\u00e1s",
        "stateId": 715593,
        "latitude": 48.00436,
        "longitude": 22.02449
    },
    {
        "cityId": 9644308,
        "name": "Kemecsei J\u00e1r\u00e1s",
        "stateId": 715593,
        "latitude": 48.10048,
        "longitude": 21.88414
    },
    {
        "cityId": 9644309,
        "name": "Kisv\u00e1rdai J\u00e1r\u00e1s",
        "stateId": 715593,
        "latitude": 48.221,
        "longitude": 22.06415
    },
    {
        "cityId": 9644310,
        "name": "Z\u00e1honyi J\u00e1r\u00e1s",
        "stateId": 715593,
        "latitude": 48.34914,
        "longitude": 22.18925
    },
    {
        "cityId": 9644311,
        "name": "V\u00e1s\u00e1rosnam\u00e9nyi J\u00e1r\u00e1s",
        "stateId": 715593,
        "latitude": 48.17981,
        "longitude": 22.35859
    },
    {
        "cityId": 9644312,
        "name": "Feh\u00e9rgyarmati J\u00e1r\u00e1s",
        "stateId": 715593,
        "latitude": 48.00436,
        "longitude": 22.63014
    },
    {
        "cityId": 9644313,
        "name": "Csengeri J\u00e1r\u00e1s",
        "stateId": 715593,
        "latitude": 47.83045,
        "longitude": 22.5981
    },
    {
        "cityId": 9644314,
        "name": "Ibr\u00e1nyi J\u00e1r\u00e1s",
        "stateId": 715593,
        "latitude": 48.12794,
        "longitude": 21.69344
    }
]