[
    {
        "cityId": "443327",
        "name": "Apac District",
        "stateId": "8260674",
        "latitude": 1.902,
        "longitude": 32.6
    },
    {
        "cityId": "443328",
        "name": "Arua District",
        "stateId": "8260674",
        "latitude": 2.96667,
        "longitude": 31.16667
    },
    {
        "cityId": "443331",
        "name": "Gulu District",
        "stateId": "8260674",
        "latitude": 2.85604,
        "longitude": 32.43001
    },
    {
        "cityId": "443346",
        "name": "Kitgum District",
        "stateId": "8260674",
        "latitude": 3.406,
        "longitude": 33.336
    },
    {
        "cityId": "443347",
        "name": "Kotido District",
        "stateId": "8260674",
        "latitude": 3,
        "longitude": 34.1
    },
    {
        "cityId": "443349",
        "name": "Lira District",
        "stateId": "8260674",
        "latitude": 2.274,
        "longitude": 32.953
    },
    {
        "cityId": "443356",
        "name": "Moroto District",
        "stateId": "8260674",
        "latitude": 2.6389,
        "longitude": 34.64395
    },
    {
        "cityId": "443357",
        "name": "Moyo District",
        "stateId": "8260674",
        "latitude": 3.65,
        "longitude": 31.72
    },
    {
        "cityId": "443360",
        "name": "Nebbi District",
        "stateId": "8260674",
        "latitude": 2.46732,
        "longitude": 31.26293
    },
    {
        "cityId": "443782",
        "name": "Adjumani District",
        "stateId": "8260674",
        "latitude": 3.25,
        "longitude": 31.75
    },
    {
        "cityId": "448221",
        "name": "Nakapiripirit District",
        "stateId": "8260674",
        "latitude": 1.90718,
        "longitude": 34.59601
    },
    {
        "cityId": "448222",
        "name": "Pader District",
        "stateId": "8260674",
        "latitude": 2.956,
        "longitude": 32.8
    },
    {
        "cityId": "448225",
        "name": "Yumbe District",
        "stateId": "8260674",
        "latitude": 3.52354,
        "longitude": 31.28243
    },
    {
        "cityId": "7056273",
        "name": "Abim District",
        "stateId": "8260674",
        "latitude": 2.75,
        "longitude": 33.75
    },
    {
        "cityId": "7056275",
        "name": "Amolatar District",
        "stateId": "8260674",
        "latitude": 1.63333,
        "longitude": 32.83333
    },
    {
        "cityId": "7056278",
        "name": "Amuru District",
        "stateId": "8260674",
        "latitude": 3,
        "longitude": 32
    },
    {
        "cityId": "7056283",
        "name": "Dokolo District",
        "stateId": "8260674",
        "latitude": 1.93607,
        "longitude": 33.06137
    },
    {
        "cityId": "7056286",
        "name": "Kaabong District",
        "stateId": "8260674",
        "latitude": 3.58333,
        "longitude": 34
    },
    {
        "cityId": "7056289",
        "name": "Koboko District",
        "stateId": "8260674",
        "latitude": 3.5,
        "longitude": 31
    },
    {
        "cityId": "7056292",
        "name": "Maracha District",
        "stateId": "8260674",
        "latitude": 3.25091,
        "longitude": 30.92516
    },
    {
        "cityId": "7056295",
        "name": "Oyam District",
        "stateId": "8260674",
        "latitude": 2.38129,
        "longitude": 32.50071
    },
    {
        "cityId": "7869939",
        "name": "Nwoya District",
        "stateId": "8260674",
        "latitude": 2.50974,
        "longitude": 31.88448
    },
    {
        "cityId": "8030560",
        "name": "Amudat District",
        "stateId": "8260674",
        "latitude": 1.80626,
        "longitude": 34.9278
    },
    {
        "cityId": "8030561",
        "name": "Napak District",
        "stateId": "8260674",
        "latitude": 2.38153,
        "longitude": 34.16834
    },
    {
        "cityId": "8030562",
        "name": "Lamwo District",
        "stateId": "8260674",
        "latitude": 3.55004,
        "longitude": 32.75057
    },
    {
        "cityId": "8030563",
        "name": "Zombo District",
        "stateId": "8260674",
        "latitude": 2.52031,
        "longitude": 30.88824
    },
    {
        "cityId": "8030565",
        "name": "Kole District",
        "stateId": "8260674",
        "latitude": 2.29701,
        "longitude": 32.74402
    },
    {
        "cityId": "8030566",
        "name": "Agago District",
        "stateId": "8260674",
        "latitude": 2.92023,
        "longitude": 33.35336
    },
    {
        "cityId": "8030567",
        "name": "Otuke District",
        "stateId": "8260674",
        "latitude": 2.48372,
        "longitude": 33.34201
    },
    {
        "cityId": "8030568",
        "name": "Alebtong District",
        "stateId": "8260674",
        "latitude": 2.26925,
        "longitude": 33.24234
    }
]