[
    {
        "cityId": "1623079",
        "name": "Kabupaten Tulungagung",
        "stateId": "1642668",
        "latitude": -8.11667,
        "longitude": 111.91667
    },
    {
        "cityId": "1623178",
        "name": "Kabupaten Tuban",
        "stateId": "1642668",
        "latitude": -6.96667,
        "longitude": 111.9
    },
    {
        "cityId": "1623250",
        "name": "Kabupaten Trenggalek",
        "stateId": "1642668",
        "latitude": -8.16667,
        "longitude": 111.61667
    },
    {
        "cityId": "1625820",
        "name": "Kota Surabaya",
        "stateId": "1642668",
        "latitude": -7.26667,
        "longitude": 112.71667
    },
    {
        "cityId": "1627252",
        "name": "Kabupaten Sidoarjo",
        "stateId": "1642668",
        "latitude": -7.45,
        "longitude": 112.7
    },
    {
        "cityId": "1628896",
        "name": "Kabupaten Sampang",
        "stateId": "1642668",
        "latitude": -7.05,
        "longitude": 113.25
    },
    {
        "cityId": "1630632",
        "name": "Kota Probolinggo",
        "stateId": "1642668",
        "latitude": -7.78333,
        "longitude": 113.21667
    },
    {
        "cityId": "1630633",
        "name": "Kabupaten Probolinggo",
        "stateId": "1642668",
        "latitude": -7.86667,
        "longitude": 113.31667
    },
    {
        "cityId": "1630797",
        "name": "Kabupaten Ponorogo",
        "stateId": "1642668",
        "latitude": -7.93333,
        "longitude": 111.5
    },
    {
        "cityId": "1632031",
        "name": "Kota Pasuruan",
        "stateId": "1642668",
        "latitude": -7.65,
        "longitude": 112.9
    },
    {
        "cityId": "1632032",
        "name": "Kabupaten Pasuruan",
        "stateId": "1642668",
        "latitude": -7.73333,
        "longitude": 112.83333
    },
    {
        "cityId": "1632902",
        "name": "Kabupaten Situbondo",
        "stateId": "1642668",
        "latitude": -7.71667,
        "longitude": 114.05
    },
    {
        "cityId": "1632977",
        "name": "Kabupaten Pamekasan",
        "stateId": "1642668",
        "latitude": -7.06667,
        "longitude": 113.5
    },
    {
        "cityId": "1633438",
        "name": "Kabupaten Pacitan",
        "stateId": "1642668",
        "latitude": -8.13333,
        "longitude": 111.16667
    },
    {
        "cityId": "1634130",
        "name": "Kabupaten Nganjuk",
        "stateId": "1642668",
        "latitude": -7.6,
        "longitude": 111.93333
    },
    {
        "cityId": "1635109",
        "name": "Kota Mojokerto",
        "stateId": "1642668",
        "latitude": -7.46667,
        "longitude": 112.43333
    },
    {
        "cityId": "1635110",
        "name": "Kabupaten Mojokerto",
        "stateId": "1642668",
        "latitude": -7.55,
        "longitude": 112.5
    },
    {
        "cityId": "1636712",
        "name": "Kota Malang",
        "stateId": "1642668",
        "latitude": -7.975,
        "longitude": 112.63333
    },
    {
        "cityId": "1636713",
        "name": "Kabupaten Malang",
        "stateId": "1642668",
        "latitude": -8.16667,
        "longitude": 112.66667
    },
    {
        "cityId": "1636927",
        "name": "Kota Madiun",
        "stateId": "1642668",
        "latitude": -7.63333,
        "longitude": 111.53333
    },
    {
        "cityId": "1636929",
        "name": "Kabupaten Madiun",
        "stateId": "1642668",
        "latitude": -7.61667,
        "longitude": 111.65
    },
    {
        "cityId": "1637089",
        "name": "Kabupaten Lumajang",
        "stateId": "1642668",
        "latitude": -8.11667,
        "longitude": 113.15
    },
    {
        "cityId": "1640656",
        "name": "Kota Kediri",
        "stateId": "1642668",
        "latitude": -7.83333,
        "longitude": 112.01667
    },
    {
        "cityId": "1640657",
        "name": "Kabupaten Kediri",
        "stateId": "1642668",
        "latitude": -7.83333,
        "longitude": 112.16667
    },
    {
        "cityId": "1642413",
        "name": "Kabupaten Jombang",
        "stateId": "1642668",
        "latitude": -7.55,
        "longitude": 112.25
    },
    {
        "cityId": "1642587",
        "name": "Kabupaten Jember",
        "stateId": "1642668",
        "latitude": -8.25,
        "longitude": 113.65
    },
    {
        "cityId": "1648450",
        "name": "Kabupaten Bojonegoro",
        "stateId": "1642668",
        "latitude": -7.25,
        "longitude": 111.8
    },
    {
        "cityId": "1648578",
        "name": "Kota Blitar",
        "stateId": "1642668",
        "latitude": -8.1,
        "longitude": 112.16667
    },
    {
        "cityId": "1648579",
        "name": "Kabupaten Blitar",
        "stateId": "1642668",
        "latitude": -8.13333,
        "longitude": 112.25
    },
    {
        "cityId": "1650076",
        "name": "Kabupaten Banyuwangi",
        "stateId": "1642668",
        "latitude": -8.33333,
        "longitude": 114.2
    },
    {
        "cityId": "1650297",
        "name": "Kabupaten Bangkalan",
        "stateId": "1642668",
        "latitude": -7.05,
        "longitude": 112.93333
    },
    {
        "cityId": "6409167",
        "name": "Kabupaten Magetan",
        "stateId": "1642668",
        "latitude": -7.64472,
        "longitude": 111.35917
    },
    {
        "cityId": "6410477",
        "name": "Kabupaten Ngawi",
        "stateId": "1642668",
        "latitude": -7.47444,
        "longitude": 111.33444
    },
    {
        "cityId": "6775904",
        "name": "Gresik Regency",
        "stateId": "1642668",
        "latitude": -7.1933,
        "longitude": 112.553
    },
    {
        "cityId": "6829652",
        "name": "Kabupaten Bondowoso",
        "stateId": "1642668",
        "latitude": -7.9404,
        "longitude": 113.9834
    },
    {
        "cityId": "8080464",
        "name": "Kabupaten Lamongan",
        "stateId": "1642668",
        "latitude": -7.13333,
        "longitude": 112.31667
    },
    {
        "cityId": "8541464",
        "name": "Kabupaten Sumenep",
        "stateId": "1642668",
        "latitude": -7.11667,
        "longitude": 114.33333
    },
    {
        "cityId": "9849812",
        "name": "Kota Batu",
        "stateId": "1642668",
        "latitude": -7.83272,
        "longitude": 112.53751
    }
]