[
    {
        "cityId": 1625083,
        "name": "Kabupaten Tangerang",
        "stateId": 1923045,
        "latitude": -6.2,
        "longitude": 106.46667
    },
    {
        "cityId": 1627545,
        "name": "Kabupaten Serang",
        "stateId": 1923045,
        "latitude": -6.15,
        "longitude": 106
    },
    {
        "cityId": 1632822,
        "name": "Kabupaten Pandeglang",
        "stateId": 1923045,
        "latitude": -6.63333,
        "longitude": 105.75
    },
    {
        "cityId": 1638238,
        "name": "Kabupaten Lebak",
        "stateId": 1923045,
        "latitude": -6.65,
        "longitude": 106.21667
    },
    {
        "cityId": 6758625,
        "name": "Kota Cilegon",
        "stateId": 1923045,
        "latitude": -6.01667,
        "longitude": 106.01667
    },
    {
        "cityId": 9845383,
        "name": "Kota Serang",
        "stateId": 1923045,
        "latitude": -6.12563,
        "longitude": 106.14999
    },
    {
        "cityId": 9845480,
        "name": "Kota Tangerang Selatan",
        "stateId": 1923045,
        "latitude": -6.29373,
        "longitude": 106.71244
    },
    {
        "cityId": 9849891,
        "name": "Kota Tangerang",
        "stateId": 1923045,
        "latitude": -6.17944,
        "longitude": 106.62991
    }
]