[
    {
        "cityId": "1643475",
        "name": "Kabupaten Halmahera Tengah",
        "stateId": "1958070",
        "latitude": 0.48056,
        "longitude": 128.25
    },
    {
        "cityId": "7910927",
        "name": "Kabupaten Halmahera Selatan",
        "stateId": "1958070",
        "latitude": -0.3955,
        "longitude": 127.90833
    },
    {
        "cityId": "7910935",
        "name": "Kota Ternate",
        "stateId": "1958070",
        "latitude": 0.89618,
        "longitude": 127.31016
    },
    {
        "cityId": "9165708",
        "name": "Kabupaten Halmahera Barat",
        "stateId": "1958070",
        "latitude": 1.41709,
        "longitude": 127.55264
    },
    {
        "cityId": "9165798",
        "name": "Kabupaten Halmahera Utara",
        "stateId": "1958070",
        "latitude": 1.73194,
        "longitude": 128.00778
    },
    {
        "cityId": "9165995",
        "name": "Kabupaten Halmahera Timur",
        "stateId": "1958070",
        "latitude": 1.33517,
        "longitude": 128.48627
    },
    {
        "cityId": "9172043",
        "name": "Kabupaten Kepulauan Sula",
        "stateId": "1958070",
        "latitude": -1.8646,
        "longitude": 125.69046
    },
    {
        "cityId": "9828029",
        "name": "Kabupaten Pulau Taliabu",
        "stateId": "1958070",
        "latitude": -1.84578,
        "longitude": 124.78992
    },
    {
        "cityId": "9844899",
        "name": "Kabupaten Pulau Morotai",
        "stateId": "1958070",
        "latitude": 2.19924,
        "longitude": 128.40546
    },
    {
        "cityId": "9845501",
        "name": "Kota Tidore Kepulauan",
        "stateId": "1958070",
        "latitude": 0.60962,
        "longitude": 127.56981
    }
]