[
    {
        "cityId": 1822579,
        "name": "Sr\u014fk Pu\u014fk",
        "stateId": 1822213,
        "latitude": 13.44443,
        "longitude": 103.65917
    },
    {
        "cityId": 7647224,
        "name": "Siem Reap",
        "stateId": 1822213,
        "latitude": 13.31,
        "longitude": 103.85
    },
    {
        "cityId": 7873944,
        "name": "Angkor Chum",
        "stateId": 1822213,
        "latitude": 13.72133,
        "longitude": 103.71695
    },
    {
        "cityId": 7873945,
        "name": "Varin",
        "stateId": 1822213,
        "latitude": 13.83574,
        "longitude": 103.89968
    },
    {
        "cityId": 7873947,
        "name": "Svay Leu",
        "stateId": 1822213,
        "latitude": 13.69168,
        "longitude": 104.27446
    },
    {
        "cityId": 8403891,
        "name": "Sr\u014fk Prasat Bakong",
        "stateId": 1822213,
        "latitude": 13.21031,
        "longitude": 103.97689
    },
    {
        "cityId": 8541392,
        "name": "Sr\u014fk \u00c2ngk\u00f4r Thum",
        "stateId": 1822213,
        "latitude": 13.57881,
        "longitude": 103.85645
    },
    {
        "cityId": 9253786,
        "name": "Chong Kal",
        "stateId": 1822213,
        "latitude": 14.01766,
        "longitude": 103.58211
    },
    {
        "cityId": 9253801,
        "name": "Banteay Srei",
        "stateId": 1822213,
        "latitude": 13.57248,
        "longitude": 104.01763
    },
    {
        "cityId": 9253803,
        "name": "Chi Kraeng",
        "stateId": 1822213,
        "latitude": 13.20771,
        "longitude": 104.37154
    },
    {
        "cityId": 9253804,
        "name": "Kralanh",
        "stateId": 1822213,
        "latitude": 13.57414,
        "longitude": 103.48818
    },
    {
        "cityId": 9253806,
        "name": "Soutr Nkom",
        "stateId": 1822213,
        "latitude": 13.23223,
        "longitude": 104.12952
    },
    {
        "cityId": 9253807,
        "name": "Srei Snam",
        "stateId": 1822213,
        "latitude": 13.83515,
        "longitude": 103.56622
    }
]