[
    {
        "cityId": 1821743,
        "name": "Sr\u014fk Thm\u00e2 P\u00f4k",
        "stateId": 1899273,
        "latitude": 13.95,
        "longitude": 103
    },
    {
        "cityId": 8403556,
        "name": "Sr\u014fk Svay Ch\u00e9k",
        "stateId": 1899273,
        "latitude": 13.81305,
        "longitude": 102.95269
    },
    {
        "cityId": 8403557,
        "name": "Sr\u014fk Malai",
        "stateId": 1899273,
        "latitude": 13.49902,
        "longitude": 102.60164
    },
    {
        "cityId": 8403850,
        "name": "Sr\u014fk S\u00e2mp\u014fu Lun",
        "stateId": 1899273,
        "latitude": 13.3842,
        "longitude": 102.55135
    },
    {
        "cityId": 8403852,
        "name": "Sr\u014fk K\u00e2mri\u0115ng",
        "stateId": 1899273,
        "latitude": 13.13399,
        "longitude": 102.56976
    },
    {
        "cityId": 8403854,
        "name": "Sr\u014fk Ko\u0103s Kr\u00e2l\u00e2",
        "stateId": 1899273,
        "latitude": 12.7248,
        "longitude": 103.24437
    },
    {
        "cityId": 8403855,
        "name": "Sr\u014fk Rukh Kiri",
        "stateId": 1899273,
        "latitude": 12.66037,
        "longitude": 103.40407
    },
    {
        "cityId": 8403890,
        "name": "Kr\u014fng Pa\u00f4y P\u00eat",
        "stateId": 1899273,
        "latitude": 13.65685,
        "longitude": 102.59921
    },
    {
        "cityId": 8541391,
        "name": "Srok Phnum Proek",
        "stateId": 1899273,
        "latitude": 13.29294,
        "longitude": 102.51023
    },
    {
        "cityId": 8740317,
        "name": "Ou Chrov District",
        "stateId": 1899273,
        "latitude": 13.64699,
        "longitude": 102.60956
    },
    {
        "cityId": 8740323,
        "name": "Serei Saophoan",
        "stateId": 1899273,
        "latitude": 13.63849,
        "longitude": 103.01265
    },
    {
        "cityId": 9253711,
        "name": "Mongkol Borei",
        "stateId": 1899273,
        "latitude": 13.45531,
        "longitude": 102.99186
    },
    {
        "cityId": 9253715,
        "name": "Phnom Srok",
        "stateId": 1899273,
        "latitude": 13.82046,
        "longitude": 103.32064
    },
    {
        "cityId": 9253716,
        "name": "Preah Netr Preah",
        "stateId": 1899273,
        "latitude": 13.57271,
        "longitude": 103.24747
    },
    {
        "cityId": 9253732,
        "name": "Thma Puok",
        "stateId": 1899273,
        "latitude": 13.43754,
        "longitude": 103.73737
    }
]