[
    {
        "cityId": 11351453,
        "name": "Saphire",
        "stateId": 3576662,
        "latitude": 13.7567,
        "longitude": -61.01209
    },
    {
        "cityId": 11351462,
        "name": "Getrine",
        "stateId": 3576662,
        "latitude": 13.78192,
        "longitude": -61.00741
    },
    {
        "cityId": 11351513,
        "name": "Annus",
        "stateId": 3576662,
        "latitude": 13.77449,
        "longitude": -61.00511
    },
    {
        "cityId": 11351526,
        "name": "Banse",
        "stateId": 3576662,
        "latitude": 13.79211,
        "longitude": -60.99282
    },
    {
        "cityId": 11351528,
        "name": "Morne Le Blanc",
        "stateId": 3576662,
        "latitude": 13.75868,
        "longitude": -60.99913
    },
    {
        "cityId": 11351530,
        "name": "Kennedy Highway\/Laborie Bypass",
        "stateId": 3576662,
        "latitude": 13.7538,
        "longitude": -60.99594
    },
    {
        "cityId": 11351550,
        "name": "Macdomel",
        "stateId": 3576662,
        "latitude": 13.77497,
        "longitude": -60.98508
    },
    {
        "cityId": 11351556,
        "name": "H'Erelle",
        "stateId": 3576662,
        "latitude": 13.75599,
        "longitude": -60.98698
    },
    {
        "cityId": 11351580,
        "name": "Saltibus",
        "stateId": 3576662,
        "latitude": 13.81211,
        "longitude": -61.00982
    },
    {
        "cityId": 11351755,
        "name": "Banse La Grace",
        "stateId": 3576662,
        "latitude": 13.7815,
        "longitude": -60.9984
    },
    {
        "cityId": 11351794,
        "name": "Fond Berange",
        "stateId": 3576662,
        "latitude": 13.78238,
        "longitude": -61.00346
    },
    {
        "cityId": 11351811,
        "name": "Bongalo",
        "stateId": 3576662,
        "latitude": 13.76666,
        "longitude": -61.02991
    },
    {
        "cityId": 11351832,
        "name": "Beyar",
        "stateId": 3576662,
        "latitude": 13.77404,
        "longitude": -60.99074
    },
    {
        "cityId": 11351834,
        "name": "Balca\/En Leur Ba",
        "stateId": 3576662,
        "latitude": 13.77638,
        "longitude": -61.01931
    },
    {
        "cityId": 11351835,
        "name": "Balca",
        "stateId": 3576662,
        "latitude": 13.77117,
        "longitude": -61.02389
    },
    {
        "cityId": 11351836,
        "name": "Balembouche",
        "stateId": 3576662,
        "latitude": 13.75992,
        "longitude": -61.0284
    },
    {
        "cityId": 11351837,
        "name": "Daban",
        "stateId": 3576662,
        "latitude": 13.8049,
        "longitude": -61.00435
    },
    {
        "cityId": 11351838,
        "name": "Warwick\/Daban",
        "stateId": 3576662,
        "latitude": 13.81084,
        "longitude": -61.00047
    },
    {
        "cityId": 11351840,
        "name": "Gentil",
        "stateId": 3576662,
        "latitude": 13.76816,
        "longitude": -60.98877
    },
    {
        "cityId": 11351841,
        "name": "Gayabois",
        "stateId": 3576662,
        "latitude": 13.78643,
        "longitude": -61.01835
    },
    {
        "cityId": 11351844,
        "name": "Giraud",
        "stateId": 3576662,
        "latitude": 13.79254,
        "longitude": -61.00843
    },
    {
        "cityId": 11351845,
        "name": "La Haut",
        "stateId": 3576662,
        "latitude": 13.79207,
        "longitude": -61.00014
    },
    {
        "cityId": 11351846,
        "name": "La Perle",
        "stateId": 3576662,
        "latitude": 13.76483,
        "longitude": -61.02088
    },
    {
        "cityId": 11351848,
        "name": "Londonderry",
        "stateId": 3576662,
        "latitude": 13.77623,
        "longitude": -61.01362
    },
    {
        "cityId": 11351849,
        "name": "Piaye",
        "stateId": 3576662,
        "latitude": 13.75628,
        "longitude": -61.02279
    },
    {
        "cityId": 11351850,
        "name": "Tete Morne",
        "stateId": 3576662,
        "latitude": 13.7616,
        "longitude": -61.03397
    },
    {
        "cityId": 11351851,
        "name": "Morne Gomier",
        "stateId": 3576662,
        "latitude": 13.76552,
        "longitude": -60.99524
    },
    {
        "cityId": 11351854,
        "name": "Morne Lezard Estate",
        "stateId": 3576662,
        "latitude": 13.77717,
        "longitude": -61.02557
    },
    {
        "cityId": 11351855,
        "name": "Morne Paul",
        "stateId": 3576662,
        "latitude": 13.76614,
        "longitude": -61.0084
    },
    {
        "cityId": 11351856,
        "name": "Olibo",
        "stateId": 3576662,
        "latitude": 13.77628,
        "longitude": -60.99931
    },
    {
        "cityId": 11351858,
        "name": "Parc Estate",
        "stateId": 3576662,
        "latitude": 13.79639,
        "longitude": -61.01613
    },
    {
        "cityId": 11351864,
        "name": "Village",
        "stateId": 3576662,
        "latitude": 13.74927,
        "longitude": -60.99375
    }
]