[
    {
        "cityId": 7522272,
        "name": "Haljala vald",
        "stateId": 590854,
        "latitude": 59.45427,
        "longitude": 26.22015
    },
    {
        "cityId": 7522290,
        "name": "Kadrina vald",
        "stateId": 590854,
        "latitude": 59.37463,
        "longitude": 26.0415
    },
    {
        "cityId": 7522390,
        "name": "Tapa vald",
        "stateId": 590854,
        "latitude": 59.23821,
        "longitude": 25.84572
    },
    {
        "cityId": 7522422,
        "name": "Rakvere vald",
        "stateId": 590854,
        "latitude": 59.32457,
        "longitude": 26.29757
    },
    {
        "cityId": 7522423,
        "name": "Rakvere linn",
        "stateId": 590854,
        "latitude": 59.34529,
        "longitude": 26.36157
    },
    {
        "cityId": 7522478,
        "name": "Vinni vald",
        "stateId": 590854,
        "latitude": 59.23744,
        "longitude": 26.62261
    },
    {
        "cityId": 7522479,
        "name": "Viru-Nigula vald",
        "stateId": 590854,
        "latitude": 59.46387,
        "longitude": 26.58585
    },
    {
        "cityId": 7522485,
        "name": "V\u00e4ike-Maarja vald",
        "stateId": 590854,
        "latitude": 59.06556,
        "longitude": 26.31417
    }
]