[
    {
        "cityId": 7052927,
        "name": "Kh\u0101n-e Chah\u0101r B\u0101gh",
        "stateId": 1142226,
        "latitude": 37.11099,
        "longitude": 65.22969
    },
    {
        "cityId": 7052928,
        "name": "Alm\u0101r",
        "stateId": 1142226,
        "latitude": 35.95601,
        "longitude": 64.27835
    },
    {
        "cityId": 7052929,
        "name": "Andkh\u014dy",
        "stateId": 1142226,
        "latitude": 36.95,
        "longitude": 65.11667
    },
    {
        "cityId": 7052930,
        "name": "Bal Chir\u0101gh",
        "stateId": 1142226,
        "latitude": 35.88083,
        "longitude": 65.45338
    },
    {
        "cityId": 7052931,
        "name": "Dowlat\u0101b\u0101d",
        "stateId": 1142226,
        "latitude": 36.53634,
        "longitude": 65.0558
    },
    {
        "cityId": 7052932,
        "name": "Gurz\u012bw\u0101n",
        "stateId": 1142226,
        "latitude": 35.63236,
        "longitude": 65.28301
    },
    {
        "cityId": 7052933,
        "name": "Khw\u0101jah Sabz P\u014dsh",
        "stateId": 1142226,
        "latitude": 36.05864,
        "longitude": 64.96595
    },
    {
        "cityId": 7052934,
        "name": "K\u014dhist\u0101n",
        "stateId": 1142226,
        "latitude": 35.33406,
        "longitude": 64.9229
    },
    {
        "cityId": 7052935,
        "name": "Ma\u012bmanah",
        "stateId": 1142226,
        "latitude": 35.93333,
        "longitude": 64.75
    },
    {
        "cityId": 7052936,
        "name": "Pas\u0332h\u0332t\u016bn K\u014d\u1e6f",
        "stateId": 1142226,
        "latitude": 35.80994,
        "longitude": 64.77813
    },
    {
        "cityId": 7052946,
        "name": "Qa\u012b\u015f\u0101r",
        "stateId": 1142226,
        "latitude": 35.64137,
        "longitude": 64.27908
    },
    {
        "cityId": 7052947,
        "name": "Qaram Q\u014dl",
        "stateId": 1142226,
        "latitude": 36.79306,
        "longitude": 64.96312
    },
    {
        "cityId": 7052948,
        "name": "Qurgh\u0101n",
        "stateId": 1142226,
        "latitude": 37.03586,
        "longitude": 64.94235
    },
    {
        "cityId": 7052949,
        "name": "Sh\u012br\u012bn Tag\u0101b",
        "stateId": 1142226,
        "latitude": 36.2472,
        "longitude": 64.8218
    }
]