[
    {
        "cityId": "7053793",
        "name": "Chah\u0101r B\u014dlak",
        "stateId": "1147288",
        "latitude": 36.83326,
        "longitude": 66.63944
    },
    {
        "cityId": "7053794",
        "name": "Chah\u0101r Kent",
        "stateId": "1147288",
        "latitude": 36.36789,
        "longitude": 67.24029
    },
    {
        "cityId": "7053795",
        "name": "Chimt\u0101l",
        "stateId": "1147288",
        "latitude": 36.51784,
        "longitude": 66.60087
    },
    {
        "cityId": "7053796",
        "name": "Dehd\u0101d\u012b",
        "stateId": "1147288",
        "latitude": 36.63688,
        "longitude": 67.00735
    },
    {
        "cityId": "7053797",
        "name": "Dowlat\u0101b\u0101d",
        "stateId": "1147288",
        "latitude": 37.06425,
        "longitude": 66.798
    },
    {
        "cityId": "7053798",
        "name": "Kald\u0101r",
        "stateId": "1147288",
        "latitude": 37.12706,
        "longitude": 67.549
    },
    {
        "cityId": "7053799",
        "name": "Khulm",
        "stateId": "1147288",
        "latitude": 36.81453,
        "longitude": 67.74327
    },
    {
        "cityId": "7053800",
        "name": "Kishindeh",
        "stateId": "1147288",
        "latitude": 36.00518,
        "longitude": 66.92234
    },
    {
        "cityId": "7053801",
        "name": "M\u0101rmul",
        "stateId": "1147288",
        "latitude": 36.6347,
        "longitude": 67.33503
    },
    {
        "cityId": "7053805",
        "name": "Sh\u014dr Tepah",
        "stateId": "1147288",
        "latitude": 37.25645,
        "longitude": 66.85125
    },
    {
        "cityId": "7053806",
        "name": "Z\u0101r\u012b",
        "stateId": "1147288",
        "latitude": 35.84734,
        "longitude": 66.72616
    },
    {
        "cityId": "7732365",
        "name": "Nahri Shahi",
        "stateId": "1147288",
        "latitude": 36.84655,
        "longitude": 67.21497
    },
    {
        "cityId": "7732367",
        "name": "Sholgara",
        "stateId": "1147288",
        "latitude": 36.29404,
        "longitude": 66.90979
    },
    {
        "cityId": "8354719",
        "name": "Maz\u0101r-e Shar\u012bf",
        "stateId": "1147288",
        "latitude": 36.70974,
        "longitude": 67.11682
    },
    {
        "cityId": "11818971",
        "name": "Balkh District",
        "stateId": "1147288",
        "latitude": 36.75126,
        "longitude": 66.89095
    }
]