[
    {
        "cityId": "338829",
        "name": "Dire Dawa Zone",
        "stateId": "444186",
        "latitude": 9.567,
        "longitude": 42.014
    },
    {
        "cityId": "7732971",
        "name": "Shinile Zone",
        "stateId": "444186",
        "latitude": 10.17097,
        "longitude": 41.83748
    },
    {
        "cityId": "8643822",
        "name": "Liben zone",
        "stateId": "444186",
        "latitude": 4.75,
        "longitude": 40.5
    },
    {
        "cityId": "9410038",
        "name": "Afder Zone",
        "stateId": "444186",
        "latitude": 5.25,
        "longitude": 43
    },
    {
        "cityId": "10376670",
        "name": "Dollo",
        "stateId": "444186",
        "latitude": 7.25,
        "longitude": 46
    },
    {
        "cityId": "10395468",
        "name": "Gode Zone",
        "stateId": "444186",
        "latitude": 6,
        "longitude": 43.75
    },
    {
        "cityId": "10399848",
        "name": "Degehabur Zone",
        "stateId": "444186",
        "latitude": 8.25,
        "longitude": 43.75
    },
    {
        "cityId": "10400171",
        "name": "Fafan",
        "stateId": "444186",
        "latitude": 9.25,
        "longitude": 43
    },
    {
        "cityId": "11750832",
        "name": "Siti",
        "stateId": "444186",
        "latitude": 10.28236,
        "longitude": 41.85563
    },
    {
        "cityId": "11750833",
        "name": "Nogob",
        "stateId": "444186",
        "latitude": 7.7679,
        "longitude": 42.39308
    },
    {
        "cityId": "11750834",
        "name": "Doolo",
        "stateId": "444186",
        "latitude": 7.22086,
        "longitude": 45.99203
    },
    {
        "cityId": "11750835",
        "name": "Korahe",
        "stateId": "444186",
        "latitude": 6.66422,
        "longitude": 44.34131
    },
    {
        "cityId": "11750836",
        "name": "Shabelle",
        "stateId": "444186",
        "latitude": 6.11718,
        "longitude": 43.49676
    }
]