[
    {
        "cityId": 347750,
        "name": "Markaz Sumus\u0163\u0101 al Waqf",
        "stateId": 359171,
        "latitude": 28.95452,
        "longitude": 30.84821
    },
    {
        "cityId": 355594,
        "name": "Markaz Ihn\u0101siy\u0101 al Mad\u012bnah",
        "stateId": 359171,
        "latitude": 29.09069,
        "longitude": 30.94091
    },
    {
        "cityId": 358599,
        "name": "Markaz B\u016bsh",
        "stateId": 359171,
        "latitude": 29.15,
        "longitude": 31.11667
    },
    {
        "cityId": 358869,
        "name": "Markaz Bib\u0101",
        "stateId": 359171,
        "latitude": 28.94863,
        "longitude": 30.9724
    },
    {
        "cityId": 359172,
        "name": "Markaz Ban\u012b Suwayf",
        "stateId": 359171,
        "latitude": 29.09122,
        "longitude": 31.07098
    },
    {
        "cityId": 360466,
        "name": "Markaz al W\u0101si\u0163\u00e1",
        "stateId": 359171,
        "latitude": 29.30962,
        "longitude": 31.17455
    },
    {
        "cityId": 361330,
        "name": "Markaz al Fashn",
        "stateId": 359171,
        "latitude": 28.79737,
        "longitude": 30.85068
    },
    {
        "cityId": 10371146,
        "name": "Markaz N\u0101\u015fir",
        "stateId": 359171,
        "latitude": 29.17198,
        "longitude": 31.10058
    }
]