[
    {
        "cityId": "10295370",
        "name": "Raivavae",
        "stateId": "4034366",
        "latitude": -23.86334,
        "longitude": -147.67221
    },
    {
        "cityId": "10295371",
        "name": "Rapa",
        "stateId": "4034366",
        "latitude": -27.60116,
        "longitude": -144.32087
    },
    {
        "cityId": "10295372",
        "name": "Rimatara",
        "stateId": "4034366",
        "latitude": -22.64037,
        "longitude": -152.80794
    },
    {
        "cityId": "10295374",
        "name": "Rurutu",
        "stateId": "4034366",
        "latitude": -22.45659,
        "longitude": -151.34731
    },
    {
        "cityId": "10295375",
        "name": "Tubuai",
        "stateId": "4034366",
        "latitude": -23.36492,
        "longitude": -149.48316
    }
]