[
    {
        "cityId": 3832079,
        "name": "Departamento de Zonda",
        "stateId": 3837152,
        "latitude": -31.6826,
        "longitude": -68.89938
    },
    {
        "cityId": 3833107,
        "name": "Departamento de Veinticinco de Mayo",
        "stateId": 3837152,
        "latitude": -31.83333,
        "longitude": -67.83333
    },
    {
        "cityId": 3833221,
        "name": "Departamento de Valle F\u00e9rtil",
        "stateId": 3837152,
        "latitude": -30.58333,
        "longitude": -67.5
    },
    {
        "cityId": 3833446,
        "name": "Departamento de Ull\u00fam",
        "stateId": 3837152,
        "latitude": -31,
        "longitude": -68.91667
    },
    {
        "cityId": 3835706,
        "name": "Departamento de Sarmiento",
        "stateId": 3837152,
        "latitude": -32,
        "longitude": -68.66667
    },
    {
        "cityId": 3836188,
        "name": "Departamento de Santa Luc\u00eda",
        "stateId": 3837152,
        "latitude": -31.53333,
        "longitude": -68.46667
    },
    {
        "cityId": 3836985,
        "name": "Departamento de San Mart\u00edn",
        "stateId": 3837152,
        "latitude": -31.5,
        "longitude": -68.25
    },
    {
        "cityId": 3838750,
        "name": "Departamento de Rivadavia",
        "stateId": 3837152,
        "latitude": -31.5645,
        "longitude": -68.65219
    },
    {
        "cityId": 3839304,
        "name": "Departamento de Rawson",
        "stateId": 3837152,
        "latitude": -31.7,
        "longitude": -68.46667
    },
    {
        "cityId": 3840858,
        "name": "Departamento de Pocito",
        "stateId": 3837152,
        "latitude": -31.80712,
        "longitude": -68.58531
    },
    {
        "cityId": 3842876,
        "name": "Departamento de Nueve de Julio",
        "stateId": 3837152,
        "latitude": -31.65072,
        "longitude": -68.38925
    },
    {
        "cityId": 3853596,
        "name": "Departamento de J\u00e1chal",
        "stateId": 3837152,
        "latitude": -30.5,
        "longitude": -68.5
    },
    {
        "cityId": 3853914,
        "name": "Departamento de Iglesia",
        "stateId": 3837152,
        "latitude": -29.33333,
        "longitude": -69.58333
    },
    {
        "cityId": 3861415,
        "name": "Departamento de Chimbas",
        "stateId": 3837152,
        "latitude": -31.48738,
        "longitude": -68.52691
    },
    {
        "cityId": 3862239,
        "name": "Departamento de Caucete",
        "stateId": 3837152,
        "latitude": -31.45,
        "longitude": -67.66667
    },
    {
        "cityId": 3862743,
        "name": "Departamento de Capital",
        "stateId": 3837152,
        "latitude": -31.53333,
        "longitude": -68.53333
    },
    {
        "cityId": 3863361,
        "name": "Departamento de Calingasta",
        "stateId": 3837152,
        "latitude": -31.5,
        "longitude": -69.75
    },
    {
        "cityId": 3865769,
        "name": "Departamento de Angaco",
        "stateId": 3837152,
        "latitude": -31.2,
        "longitude": -68.13333
    },
    {
        "cityId": 3866424,
        "name": "Departamento de Albard\u00f3n",
        "stateId": 3837152,
        "latitude": -31.28333,
        "longitude": -68.41667
    }
]