[
    {
        "cityId": "3833075",
        "name": "Departamento de General Angel Pe\u00f1aloza",
        "stateId": "3848949",
        "latitude": -30.25,
        "longitude": -66.66667
    },
    {
        "cityId": "3837918",
        "name": "Departamento de San Blas de los Sauces",
        "stateId": "3848949",
        "latitude": -28.5,
        "longitude": -67.08333
    },
    {
        "cityId": "3838186",
        "name": "Departamento de Sanagasta",
        "stateId": "3848949",
        "latitude": -29.2,
        "longitude": -67.08333
    },
    {
        "cityId": "3838749",
        "name": "Departamento de General Juan F. Quiroga",
        "stateId": "3848949",
        "latitude": -30.8,
        "longitude": -66.615
    },
    {
        "cityId": "3853854",
        "name": "Departamento de Independencia",
        "stateId": "3848949",
        "latitude": -30.16667,
        "longitude": -67.41667
    },
    {
        "cityId": "3854983",
        "name": "Departamento de Chamical",
        "stateId": "3848949",
        "latitude": -30.25,
        "longitude": -65.83333
    },
    {
        "cityId": "3855050",
        "name": "Departamento de Vinchina",
        "stateId": "3848949",
        "latitude": -28.2,
        "longitude": -68.66667
    },
    {
        "cityId": "3855054",
        "name": "Departamento de General San Mart\u00edn",
        "stateId": "3848949",
        "latitude": -31.5,
        "longitude": -66.08333
    },
    {
        "cityId": "3855063",
        "name": "Departamento de Rosario Vera Pe\u00f1aloza",
        "stateId": "3848949",
        "latitude": -31.41667,
        "longitude": -66.66667
    },
    {
        "cityId": "3855082",
        "name": "Departamento de General Ocampo",
        "stateId": "3848949",
        "latitude": -31,
        "longitude": -66.25
    },
    {
        "cityId": "3855099",
        "name": "Departamento de Coronel Felipe Varela",
        "stateId": "3848949",
        "latitude": -29.5,
        "longitude": -68.33333
    },
    {
        "cityId": "3855103",
        "name": "Departamento de General Lamadrid",
        "stateId": "3848949",
        "latitude": -28.83333,
        "longitude": -68.66667
    },
    {
        "cityId": "3855127",
        "name": "Departamento de General Belgrano",
        "stateId": "3848949",
        "latitude": -30.58333,
        "longitude": -66
    },
    {
        "cityId": "3855660",
        "name": "Departamento de Famatina",
        "stateId": "3848949",
        "latitude": -28.66667,
        "longitude": -67.58333
    },
    {
        "cityId": "3861443",
        "name": "Departamento de Chilecito",
        "stateId": "3848949",
        "latitude": -29.41667,
        "longitude": -67.5
    },
    {
        "cityId": "3862292",
        "name": "Departamento de Castro Barros",
        "stateId": "3848949",
        "latitude": -28.83333,
        "longitude": -66.91667
    },
    {
        "cityId": "3862745",
        "name": "Departamento de Capital",
        "stateId": "3848949",
        "latitude": -29.33333,
        "longitude": -66.33333
    },
    {
        "cityId": "3865578",
        "name": "Departamento de Arauco",
        "stateId": "3848949",
        "latitude": -28.5,
        "longitude": -66.83333
    }
]