[
    {
        "cityId": "3834535",
        "name": "Departamento de Telsen",
        "stateId": "3861244",
        "latitude": -42.41667,
        "longitude": -67.16667
    },
    {
        "cityId": "3834560",
        "name": "Departamento de Tehuelches",
        "stateId": "3861244",
        "latitude": -44.22132,
        "longitude": -70.2526
    },
    {
        "cityId": "3835705",
        "name": "Departamento de Sarmiento",
        "stateId": "3861244",
        "latitude": -45.33333,
        "longitude": -69
    },
    {
        "cityId": "3838795",
        "name": "Departamento de R\u00edo Senguerr",
        "stateId": "3861244",
        "latitude": -45.33333,
        "longitude": -70.83333
    },
    {
        "cityId": "3839303",
        "name": "Departamento de Rawson",
        "stateId": "3861244",
        "latitude": -43.12342,
        "longitude": -65.10179
    },
    {
        "cityId": "3841892",
        "name": "Departamento de Paso de Indios",
        "stateId": "3861244",
        "latitude": -44,
        "longitude": -68.83333
    },
    {
        "cityId": "3844763",
        "name": "Departamento de M\u00e1rtires",
        "stateId": "3861244",
        "latitude": -43.83333,
        "longitude": -67.16667
    },
    {
        "cityId": "3849745",
        "name": "Departamento de Langui\u00f1eo",
        "stateId": "3861244",
        "latitude": -43.33333,
        "longitude": -70.66667
    },
    {
        "cityId": "3855185",
        "name": "Departamento de Gastre",
        "stateId": "3861244",
        "latitude": -42.83333,
        "longitude": -68.66667
    },
    {
        "cityId": "3855282",
        "name": "Departamento de Gaim\u00e1n",
        "stateId": "3861244",
        "latitude": -43.33333,
        "longitude": -66.33333
    },
    {
        "cityId": "3855298",
        "name": "Departamento de Futaleuf\u00fa",
        "stateId": "3861244",
        "latitude": -43.08333,
        "longitude": -71.41667
    },
    {
        "cityId": "3855504",
        "name": "Departamento de Florentino Ameghino",
        "stateId": "3861244",
        "latitude": -44.41667,
        "longitude": -66.16667
    },
    {
        "cityId": "3856121",
        "name": "Departamento de Escalante",
        "stateId": "3861244",
        "latitude": -45.33333,
        "longitude": -67.33333
    },
    {
        "cityId": "3859556",
        "name": "Departamento de Cushamen",
        "stateId": "3861244",
        "latitude": -42.5,
        "longitude": -70.83333
    },
    {
        "cityId": "3864255",
        "name": "Departamento de Biedma",
        "stateId": "3861244",
        "latitude": -42.41667,
        "longitude": -65
    }
]