[
    {
        "cityId": "8617768",
        "name": "Maliana",
        "stateId": "1648513",
        "latitude": -8.98333,
        "longitude": 125.21667
    },
    {
        "cityId": "8617807",
        "name": "Atabae",
        "stateId": "1648513",
        "latitude": -8.80954,
        "longitude": 125.1585
    },
    {
        "cityId": "8617808",
        "name": "Balibo",
        "stateId": "1648513",
        "latitude": -8.97145,
        "longitude": 125.043
    },
    {
        "cityId": "8617809",
        "name": "Bobonaro",
        "stateId": "1648513",
        "latitude": -9.03194,
        "longitude": 125.325
    },
    {
        "cityId": "8617810",
        "name": "Cailaco",
        "stateId": "1648513",
        "latitude": -8.9,
        "longitude": 125.28
    },
    {
        "cityId": "8617811",
        "name": "Lolotoe",
        "stateId": "1648513",
        "latitude": -9.16667,
        "longitude": 125.26667
    }
]