[
    {
        "cityId": 147212,
        "name": "Shahbuz Rayon",
        "stateId": 147435,
        "latitude": 39.41667,
        "longitude": 45.58333
    },
    {
        "cityId": 147365,
        "name": "Ordubad Rayon",
        "stateId": 147435,
        "latitude": 39.08333,
        "longitude": 45.91667
    },
    {
        "cityId": 147997,
        "name": "Sharur Rayon",
        "stateId": 147435,
        "latitude": 39.5,
        "longitude": 45.08333
    },
    {
        "cityId": 148132,
        "name": "Julfa Rayon",
        "stateId": 147435,
        "latitude": 39.16667,
        "longitude": 45.66667
    },
    {
        "cityId": 148412,
        "name": "Nakhchivan City",
        "stateId": 147435,
        "latitude": 39.20938,
        "longitude": 45.41748
    },
    {
        "cityId": 409387,
        "name": "Sadarak Rayon",
        "stateId": 147435,
        "latitude": 39.7,
        "longitude": 44.86667
    },
    {
        "cityId": 7669114,
        "name": "Babek Rayon",
        "stateId": 147435,
        "latitude": 39.29,
        "longitude": 45.39
    },
    {
        "cityId": 8014931,
        "name": "Kangarli Rayon",
        "stateId": 147435,
        "latitude": 39.42081,
        "longitude": 45.13527
    }
]