[
    {
        "cityId": "597229",
        "name": "Marijampol\u0117s Rajonas",
        "stateId": "864479",
        "latitude": 54.56667,
        "longitude": 23.35
    },
    {
        "cityId": "597233",
        "name": "Marijampol\u0117 Municipality",
        "stateId": "864479",
        "latitude": 54.56667,
        "longitude": 23.35
    },
    {
        "cityId": "864497",
        "name": "Sakiai",
        "stateId": "864479",
        "latitude": 54.95,
        "longitude": 23.05
    },
    {
        "cityId": "864498",
        "name": "Vilkavi\u0161kis District Municipality",
        "stateId": "864479",
        "latitude": 54.65,
        "longitude": 23.03333
    },
    {
        "cityId": "9610085",
        "name": "Kalvarija Municipality",
        "stateId": "864479",
        "latitude": 54.41468,
        "longitude": 23.22484
    },
    {
        "cityId": "9610102",
        "name": "Kazl\u0173 R\u016bda Municipality",
        "stateId": "864479",
        "latitude": 54.74751,
        "longitude": 23.49272
    }
]