[
    {
        "cityId": "2745391",
        "name": "Gemeente Vlissingen",
        "stateId": "2744011",
        "latitude": 51.45914,
        "longitude": 3.62325
    },
    {
        "cityId": "2745738",
        "name": "Gemeente Veere",
        "stateId": "2744011",
        "latitude": 51.53902,
        "longitude": 3.55688
    },
    {
        "cityId": "2746350",
        "name": "Gemeente Tholen",
        "stateId": "2744011",
        "latitude": 51.58336,
        "longitude": 4.13373
    },
    {
        "cityId": "2746421",
        "name": "Gemeente Terneuzen",
        "stateId": "2744011",
        "latitude": 51.2855,
        "longitude": 3.82817
    },
    {
        "cityId": "2747114",
        "name": "Gemeente Sluis",
        "stateId": "2744011",
        "latitude": 51.3349,
        "longitude": 3.51974
    },
    {
        "cityId": "2748254",
        "name": "Gemeente Reimerswaal",
        "stateId": "2744011",
        "latitude": 51.4204,
        "longitude": 4.13169
    },
    {
        "cityId": "2750894",
        "name": "Gemeente Middelburg",
        "stateId": "2744011",
        "latitude": 51.49719,
        "longitude": 3.65459
    },
    {
        "cityId": "2753069",
        "name": "Gemeente Kapelle",
        "stateId": "2744011",
        "latitude": 51.48223,
        "longitude": 3.96524
    },
    {
        "cityId": "2753437",
        "name": "Gemeente Hulst",
        "stateId": "2744011",
        "latitude": 51.31897,
        "longitude": 4.0869
    },
    {
        "cityId": "2755475",
        "name": "Gemeente Goes",
        "stateId": "2744011",
        "latitude": 51.515,
        "longitude": 3.83949
    },
    {
        "cityId": "2758588",
        "name": "Gemeente Borsele",
        "stateId": "2744011",
        "latitude": 51.44191,
        "longitude": 3.81127
    },
    {
        "cityId": "6544251",
        "name": "Schouwen-Duiveland",
        "stateId": "2744011",
        "latitude": 51.69294,
        "longitude": 3.88676
    },
    {
        "cityId": "6544253",
        "name": "Gemeente Noord-Beveland",
        "stateId": "2744011",
        "latitude": 51.57226,
        "longitude": 3.78353
    }
]