[
    {
        "stateId": "2597271",
        "name": "Alibori",
        "countryId": "2395170",
        "latitude": 11.33333,
        "longitude": 2.91667
    },
    {
        "stateId": "2395524",
        "name": "Atakora Department",
        "countryId": "2395170",
        "latitude": 10.75,
        "longitude": 1.66667
    },
    {
        "stateId": "2395504",
        "name": "Atlantique Department",
        "countryId": "2395170",
        "latitude": 6.66667,
        "longitude": 2.25
    },
    {
        "stateId": "2394992",
        "name": "Borgou Department",
        "countryId": "2395170",
        "latitude": 9.75,
        "longitude": 2.75
    },
    {
        "stateId": "2597272",
        "name": "Collines Department",
        "countryId": "2395170",
        "latitude": 8,
        "longitude": 2.16667
    },
    {
        "stateId": "2597274",
        "name": "Donga",
        "countryId": "2395170",
        "latitude": 9.33333,
        "longitude": 1.78333
    },
    {
        "stateId": "2392325",
        "name": "D\u00e9partement de l\u2019Ou\u00e9m\u00e9",
        "countryId": "2395170",
        "latitude": 6.61667,
        "longitude": 2.51667
    },
    {
        "stateId": "2597273",
        "name": "Kouffo Department",
        "countryId": "2395170",
        "latitude": 7.08333,
        "longitude": 1.83333
    },
    {
        "stateId": "2597275",
        "name": "Littoral",
        "countryId": "2395170",
        "latitude": 6.36667,
        "longitude": 2.41667
    },
    {
        "stateId": "2392716",
        "name": "Mono",
        "countryId": "2395170",
        "latitude": 6.58333,
        "longitude": 1.83333
    },
    {
        "stateId": "2597277",
        "name": "Plateau Department",
        "countryId": "2395170",
        "latitude": 7.16667,
        "longitude": 2.58333
    },
    {
        "stateId": "2390719",
        "name": "Zou Department",
        "countryId": "2395170",
        "latitude": 7.25,
        "longitude": 2.16667
    }
]