[
    {
        "stateId": "240591",
        "name": "Bamingui-Bangoran",
        "countryId": "239880",
        "latitude": 8.41667,
        "longitude": 20.66667
    },
    {
        "stateId": "240396",
        "name": "Basse-Kotto",
        "countryId": "239880",
        "latitude": 5,
        "longitude": 21.36667
    },
    {
        "stateId": "2596686",
        "name": "Commune de Bangui",
        "countryId": "239880",
        "latitude": 4.38333,
        "longitude": 18.56667
    },
    {
        "stateId": "238639",
        "name": "Haut-Mbomou",
        "countryId": "239880",
        "latitude": 6.33333,
        "longitude": 25.66667
    },
    {
        "stateId": "238640",
        "name": "Haute-Kotto",
        "countryId": "239880",
        "latitude": 7.41667,
        "longitude": 23
    },
    {
        "stateId": "2385105",
        "name": "Lobaye",
        "countryId": "239880",
        "latitude": 4.16667,
        "longitude": 17.66667
    },
    {
        "stateId": "2386161",
        "name": "Mamb\u00e9r\u00e9-Kad\u00e9\u00ef",
        "countryId": "239880",
        "latitude": 4.5,
        "longitude": 16
    },
    {
        "stateId": "237556",
        "name": "Mbomou",
        "countryId": "239880",
        "latitude": 5.5,
        "longitude": 23.33333
    },
    {
        "stateId": "2383765",
        "name": "Ombella-Mpoko",
        "countryId": "239880",
        "latitude": 5.08333,
        "longitude": 18
    },
    {
        "stateId": "236887",
        "name": "Ouaka",
        "countryId": "239880",
        "latitude": 6.25,
        "longitude": 20.75
    },
    {
        "stateId": "2383653",
        "name": "Ouham",
        "countryId": "239880",
        "latitude": 7,
        "longitude": 18
    },
    {
        "stateId": "2385836",
        "name": "Pr\u00e9fecture de la K\u00e9mo",
        "countryId": "239880",
        "latitude": 5.86667,
        "longitude": 19.2
    },
    {
        "stateId": "2386243",
        "name": "Pr\u00e9fecture de la Nana-Gr\u00e9bizi",
        "countryId": "239880",
        "latitude": 7.08333,
        "longitude": 19.33333
    },
    {
        "stateId": "2384205",
        "name": "Pr\u00e9fecture de la Nana-Mamb\u00e9r\u00e9",
        "countryId": "239880",
        "latitude": 5.97122,
        "longitude": 15.26276
    },
    {
        "stateId": "2383204",
        "name": "Pr\u00e9fecture de la Sangha-Mba\u00e9r\u00e9",
        "countryId": "239880",
        "latitude": 3.5,
        "longitude": 16.16667
    },
    {
        "stateId": "2383650",
        "name": "Pr\u00e9fecture de l\u2019Ouham-Pend\u00e9",
        "countryId": "239880",
        "latitude": 6.75,
        "longitude": 16.08333
    },
    {
        "stateId": "236178",
        "name": "Vakaga",
        "countryId": "239880",
        "latitude": 9.83333,
        "longitude": 22.5
    }
]