[
    {
        "stateId": "1818058",
        "name": "Anhui Sheng",
        "countryId": "1814991",
        "latitude": 31.91667,
        "longitude": 117.16667
    },
    {
        "stateId": "2038349",
        "name": "Beijing Shi",
        "countryId": "1814991",
        "latitude": 39.91691,
        "longitude": 116.39706
    },
    {
        "stateId": "1814905",
        "name": "Chongqing Shi",
        "countryId": "1814991",
        "latitude": 30.08333,
        "longitude": 107.83333
    },
    {
        "stateId": "1811017",
        "name": "Fujian Sheng",
        "countryId": "1814991",
        "latitude": 26.25,
        "longitude": 118
    },
    {
        "stateId": "1810676",
        "name": "Gansu Sheng",
        "countryId": "1814991",
        "latitude": 37.75,
        "longitude": 102.75
    },
    {
        "stateId": "1809935",
        "name": "Guangdong Sheng",
        "countryId": "1814991",
        "latitude": 23.5,
        "longitude": 113.25
    },
    {
        "stateId": "1809867",
        "name": "Guangxi Zhuangzu Zizhiqu",
        "countryId": "1814991",
        "latitude": 24,
        "longitude": 109
    },
    {
        "stateId": "1809445",
        "name": "Guizhou Sheng",
        "countryId": "1814991",
        "latitude": 27,
        "longitude": 107
    },
    {
        "stateId": "1809054",
        "name": "Hainan Sheng",
        "countryId": "1814991",
        "latitude": 19.25,
        "longitude": 109.75
    },
    {
        "stateId": "1808773",
        "name": "Hebei Sheng",
        "countryId": "1814991",
        "latitude": 39,
        "longitude": 115.66667
    },
    {
        "stateId": "2036965",
        "name": "Heilongjiang Sheng",
        "countryId": "1814991",
        "latitude": 47.75,
        "longitude": 128
    },
    {
        "stateId": "1808520",
        "name": "Henan Sheng",
        "countryId": "1814991",
        "latitude": 34,
        "longitude": 113.66667
    },
    {
        "stateId": "1806949",
        "name": "Hubei Sheng",
        "countryId": "1814991",
        "latitude": 31,
        "longitude": 112.25
    },
    {
        "stateId": "1806691",
        "name": "Hunan Sheng",
        "countryId": "1814991",
        "latitude": 27.66667,
        "longitude": 111.75
    },
    {
        "stateId": "2035607",
        "name": "Inner Mongolia Autonomous Region",
        "countryId": "1814991",
        "latitude": 43.5,
        "longitude": 114.75
    },
    {
        "stateId": "1806260",
        "name": "Jiangsu Sheng",
        "countryId": "1814991",
        "latitude": 33,
        "longitude": 119.83333
    },
    {
        "stateId": "1806222",
        "name": "Jiangxi Sheng",
        "countryId": "1814991",
        "latitude": 27.66667,
        "longitude": 115.66667
    },
    {
        "stateId": "2036500",
        "name": "Jilin Sheng",
        "countryId": "1814991",
        "latitude": 43.58333,
        "longitude": 126.16667
    },
    {
        "stateId": "2036115",
        "name": "Liaoning Sheng",
        "countryId": "1814991",
        "latitude": 41.25,
        "longitude": 122.66667
    },
    {
        "stateId": "1799355",
        "name": "Ningxia Huizu Zizhiqu",
        "countryId": "1814991",
        "latitude": 37.25,
        "longitude": 106
    },
    {
        "stateId": "1280239",
        "name": "Qinghai Sheng",
        "countryId": "1814991",
        "latitude": 36,
        "longitude": 96
    },
    {
        "stateId": "1796480",
        "name": "Shaanxi",
        "countryId": "1814991",
        "latitude": 36,
        "longitude": 109
    },
    {
        "stateId": "1796328",
        "name": "Shandong Sheng",
        "countryId": "1814991",
        "latitude": 36.33333,
        "longitude": 118.25
    },
    {
        "stateId": "1796231",
        "name": "Shanghai Shi",
        "countryId": "1814991",
        "latitude": 31.16667,
        "longitude": 121.41667
    },
    {
        "stateId": "1795912",
        "name": "Shanxi Sheng",
        "countryId": "1814991",
        "latitude": 37.66667,
        "longitude": 112.25
    },
    {
        "stateId": "1794299",
        "name": "Sichuan Sheng",
        "countryId": "1814991",
        "latitude": 30.5,
        "longitude": 102.66667
    },
    {
        "stateId": "1792943",
        "name": "Tianjin Shi",
        "countryId": "1814991",
        "latitude": 39.33333,
        "longitude": 117.33333
    },
    {
        "stateId": "1279685",
        "name": "Tibet Autonomous Region",
        "countryId": "1814991",
        "latitude": 31.66667,
        "longitude": 88
    },
    {
        "stateId": "1529047",
        "name": "Xinjiang Uygur Zizhiqu",
        "countryId": "1814991",
        "latitude": 41.5,
        "longitude": 85.5
    },
    {
        "stateId": "1785694",
        "name": "Yunnan Sheng",
        "countryId": "1814991",
        "latitude": 25,
        "longitude": 101.5
    },
    {
        "stateId": "1784764",
        "name": "Zhejiang Sheng",
        "countryId": "1814991",
        "latitude": 29.16667,
        "longitude": 120
    }
]