[
    {
        "stateId": "4043524",
        "name": "Agana Heights Municipality",
        "countryId": "4043988",
        "latitude": 13.46559,
        "longitude": 144.74773
    },
    {
        "stateId": "4043725",
        "name": "Agat Municipality",
        "countryId": "4043988",
        "latitude": 13.35619,
        "longitude": 144.66938
    },
    {
        "stateId": "4043691",
        "name": "Asan-Maina Municipality",
        "countryId": "4043988",
        "latitude": 13.47214,
        "longitude": 144.7164
    },
    {
        "stateId": "4043885",
        "name": "Barrigada Municipality",
        "countryId": "4043988",
        "latitude": 13.46906,
        "longitude": 144.7988
    },
    {
        "stateId": "4043614",
        "name": "Chalan Pago-Ordot Municipality",
        "countryId": "4043988",
        "latitude": 13.4474,
        "longitude": 144.75888
    },
    {
        "stateId": "4043877",
        "name": "Dededo Municipality",
        "countryId": "4043988",
        "latitude": 13.51776,
        "longitude": 144.83898
    },
    {
        "stateId": "4044019",
        "name": "Hag\u00e5t\u00f1a Municipality",
        "countryId": "4043988",
        "latitude": 13.47279,
        "longitude": 144.75788
    },
    {
        "stateId": "4044041",
        "name": "Inarajan Municipality",
        "countryId": "4043988",
        "latitude": 13.29414,
        "longitude": 144.73479
    },
    {
        "stateId": "4043416",
        "name": "Mangilao Municipality",
        "countryId": "4043988",
        "latitude": 13.44766,
        "longitude": 144.80071
    },
    {
        "stateId": "4043396",
        "name": "Merizo Municipality",
        "countryId": "4043988",
        "latitude": 13.27125,
        "longitude": 144.67464
    },
    {
        "stateId": "4044148",
        "name": "Mongmong-Toto-Maite Municipality",
        "countryId": "4043988",
        "latitude": 13.46857,
        "longitude": 144.78191
    },
    {
        "stateId": "4038478",
        "name": "Piti Municipality",
        "countryId": "4043988",
        "latitude": 13.46256,
        "longitude": 144.69282
    },
    {
        "stateId": "4038555",
        "name": "Santa Rita Municipality",
        "countryId": "4043988",
        "latitude": 13.38609,
        "longitude": 144.67208
    },
    {
        "stateId": "4038590",
        "name": "Sinajana Municipality",
        "countryId": "4043988",
        "latitude": 13.46334,
        "longitude": 144.75381
    },
    {
        "stateId": "4038652",
        "name": "Talofofo Municipality",
        "countryId": "4043988",
        "latitude": 13.35522,
        "longitude": 144.7588
    },
    {
        "stateId": "4038661",
        "name": "Tamuning-Tumon-Harmon Municipality",
        "countryId": "4043988",
        "latitude": 13.48759,
        "longitude": 144.78094
    },
    {
        "stateId": "4038739",
        "name": "Umatac Municipality",
        "countryId": "4043988",
        "latitude": 13.30739,
        "longitude": 144.66909
    },
    {
        "stateId": "4038796",
        "name": "Yigo Municipality",
        "countryId": "4043988",
        "latitude": 13.53603,
        "longitude": 144.88913
    },
    {
        "stateId": "4038811",
        "name": "Yona Municipality",
        "countryId": "4043988",
        "latitude": 13.40972,
        "longitude": 144.77714
    }
]