[
    {
        "stateId": "2045265",
        "name": "Chagang-do",
        "countryId": "1873107",
        "latitude": 40.75,
        "longitude": 126.5
    },
    {
        "stateId": "2044245",
        "name": "Hambuk",
        "countryId": "1873107",
        "latitude": 41.83333,
        "longitude": 129.41667
    },
    {
        "stateId": "1877450",
        "name": "Hamnam",
        "countryId": "1873107",
        "latitude": 40.23333,
        "longitude": 127.75
    },
    {
        "stateId": "1876888",
        "name": "Hwanghae-bukto",
        "countryId": "1873107",
        "latitude": 38.56667,
        "longitude": 126.3
    },
    {
        "stateId": "1876884",
        "name": "Hwanghae-namdo",
        "countryId": "1873107",
        "latitude": 38.2,
        "longitude": 125.53333
    },
    {
        "stateId": "1876101",
        "name": "Kangw\u014fn-do",
        "countryId": "1873107",
        "latitude": 38.73333,
        "longitude": 127.45
    },
    {
        "stateId": "1871856",
        "name": "Pyongyang",
        "countryId": "1873107",
        "latitude": 38.98528,
        "longitude": 125.92778
    },
    {
        "stateId": "1871954",
        "name": "P\u2019y\u014fngan-bukto",
        "countryId": "1873107",
        "latitude": 40.05,
        "longitude": 125.26667
    },
    {
        "stateId": "1871952",
        "name": "P\u2019y\u014fngan-namdo",
        "countryId": "1873107",
        "latitude": 39.5,
        "longitude": 126.16667
    },
    {
        "stateId": "2054927",
        "name": "Rason",
        "countryId": "1873107",
        "latitude": 42.33611,
        "longitude": 130.36639
    },
    {
        "stateId": "2039332",
        "name": "Ryanggang",
        "countryId": "1873107",
        "latitude": 41.2,
        "longitude": 128.2
    }
]