[
    {
        "stateId": 10375969,
        "name": "Bodden Town",
        "countryId": 3580718,
        "latitude": 19.2821,
        "longitude": -81.25797
    },
    {
        "stateId": 10375971,
        "name": "East End",
        "countryId": 3580718,
        "latitude": 19.29976,
        "longitude": -81.11052
    },
    {
        "stateId": 10346796,
        "name": "George Town",
        "countryId": 3580718,
        "latitude": 19.28908,
        "longitude": -81.36981
    },
    {
        "stateId": 10375970,
        "name": "North Side",
        "countryId": 3580718,
        "latitude": 19.34824,
        "longitude": -81.20849
    },
    {
        "stateId": 10375972,
        "name": "Sister Island",
        "countryId": 3580718,
        "latitude": 19.72195,
        "longitude": -79.78958
    },
    {
        "stateId": 10375968,
        "name": "West Bay",
        "countryId": 3580718,
        "latitude": 19.38039,
        "longitude": -81.38869
    }
]