[
    {
        "stateId": 7628345,
        "name": "Aglonas Novads",
        "countryId": 458258,
        "latitude": 56.10667,
        "longitude": 27.10056
    },
    {
        "stateId": 461613,
        "name": "Aizkraukles novads",
        "countryId": 458258,
        "latitude": 56.60184,
        "longitude": 25.25208
    },
    {
        "stateId": 7628305,
        "name": "Aizputes Novads",
        "countryId": 458258,
        "latitude": 56.71667,
        "longitude": 21.56889
    },
    {
        "stateId": 7628338,
        "name": "Akn\u012bstes Novads",
        "countryId": 458258,
        "latitude": 56.14639,
        "longitude": 25.80889
    },
    {
        "stateId": 7628368,
        "name": "Alojas Novads",
        "countryId": 458258,
        "latitude": 57.80083,
        "longitude": 24.83528
    },
    {
        "stateId": 7628299,
        "name": "Alsungas Novads",
        "countryId": 458258,
        "latitude": 56.97556,
        "longitude": 21.55444
    },
    {
        "stateId": 461525,
        "name": "Al\u016bksnes Novads",
        "countryId": 458258,
        "latitude": 57.41667,
        "longitude": 27
    },
    {
        "stateId": 7628375,
        "name": "Amatas Novads",
        "countryId": 458258,
        "latitude": 57.10167,
        "longitude": 25.31556
    },
    {
        "stateId": 7628384,
        "name": "Apes Novads",
        "countryId": 458258,
        "latitude": 57.46694,
        "longitude": 26.52056
    },
    {
        "stateId": 7628312,
        "name": "Auces Novads",
        "countryId": 458258,
        "latitude": 56.46306,
        "longitude": 22.96278
    },
    {
        "stateId": 7628318,
        "name": "Bab\u012btes Novads",
        "countryId": 458258,
        "latitude": 56.88889,
        "longitude": 23.76611
    },
    {
        "stateId": 7628324,
        "name": "Baldones Novads",
        "countryId": 458258,
        "latitude": 56.73111,
        "longitude": 24.3725
    },
    {
        "stateId": 7628349,
        "name": "Baltinavas Novads",
        "countryId": 458258,
        "latitude": 56.91694,
        "longitude": 27.61
    },
    {
        "stateId": 461160,
        "name": "Balvu Novads",
        "countryId": 458258,
        "latitude": 57.03254,
        "longitude": 27.43968
    },
    {
        "stateId": 461112,
        "name": "Bauskas Novads",
        "countryId": 458258,
        "latitude": 56.5,
        "longitude": 24.33333
    },
    {
        "stateId": 7628379,
        "name": "Bever\u012bnas Novads",
        "countryId": 458258,
        "latitude": 57.52306,
        "longitude": 25.59444
    },
    {
        "stateId": 7628309,
        "name": "Broc\u0113nu Novads",
        "countryId": 458258,
        "latitude": 56.71417,
        "longitude": 22.65667
    },
    {
        "stateId": 7628372,
        "name": "Burtnieku Novads",
        "countryId": 458258,
        "latitude": 57.70056,
        "longitude": 25.35528
    },
    {
        "stateId": 7628326,
        "name": "Carnikavas Novads",
        "countryId": 458258,
        "latitude": 57.11722,
        "longitude": 24.24583
    },
    {
        "stateId": 7628353,
        "name": "Cesvaines Novads",
        "countryId": 458258,
        "latitude": 57.0075,
        "longitude": 26.27667
    },
    {
        "stateId": 7628346,
        "name": "Ciblas Novads",
        "countryId": 458258,
        "latitude": 56.59278,
        "longitude": 27.86944
    },
    {
        "stateId": 460569,
        "name": "C\u0113su Novads",
        "countryId": 458258,
        "latitude": 57.24225,
        "longitude": 25.4132
    },
    {
        "stateId": 7628350,
        "name": "Dagdas Novads",
        "countryId": 458258,
        "latitude": 56.12028,
        "longitude": 27.64444
    },
    {
        "stateId": 460414,
        "name": "Daugavpils",
        "countryId": 458258,
        "latitude": 55.88139,
        "longitude": 26.53889
    },
    {
        "stateId": 460410,
        "name": "Daugavpils municipality",
        "countryId": 458258,
        "latitude": 55.94666,
        "longitude": 26.55481
    },
    {
        "stateId": 460311,
        "name": "Dobeles novads",
        "countryId": 458258,
        "latitude": 56.58333,
        "longitude": 23.16667
    },
    {
        "stateId": 7628298,
        "name": "Dundagas Novads",
        "countryId": 458258,
        "latitude": 57.56667,
        "longitude": 22.39472
    },
    {
        "stateId": 7628304,
        "name": "Durbes Novads",
        "countryId": 458258,
        "latitude": 56.6075,
        "longitude": 21.39528
    },
    {
        "stateId": 7628314,
        "name": "Engures Novads",
        "countryId": 458258,
        "latitude": 57.0275,
        "longitude": 23.28389
    },
    {
        "stateId": 7628328,
        "name": "Garkalne Municipality",
        "countryId": 458258,
        "latitude": 57.01778,
        "longitude": 24.37056
    },
    {
        "stateId": 7628303,
        "name": "Grobi\u0146as Novads",
        "countryId": 458258,
        "latitude": 56.48694,
        "longitude": 21.23556
    },
    {
        "stateId": 459664,
        "name": "Gulbenes novads",
        "countryId": 458258,
        "latitude": 57.16667,
        "longitude": 26.66667
    },
    {
        "stateId": 7628321,
        "name": "Iecavas Novads",
        "countryId": 458258,
        "latitude": 56.60944,
        "longitude": 24.20667
    },
    {
        "stateId": 7628358,
        "name": "Ik\u0161\u0137iles Novads",
        "countryId": 458258,
        "latitude": 56.86028,
        "longitude": 24.58361
    },
    {
        "stateId": 7628339,
        "name": "Il\u016bkstes Novads",
        "countryId": 458258,
        "latitude": 56.01167,
        "longitude": 26.14833
    },
    {
        "stateId": 7628360,
        "name": "In\u010dukalna Novads",
        "countryId": 458258,
        "latitude": 57.10222,
        "longitude": 24.65083
    },
    {
        "stateId": 7628333,
        "name": "Jaunjelgavas Novads",
        "countryId": 458258,
        "latitude": 56.51417,
        "longitude": 25.29583
    },
    {
        "stateId": 7628381,
        "name": "Jaunpiebalgas Novads",
        "countryId": 458258,
        "latitude": 57.15,
        "longitude": 25.97361
    },
    {
        "stateId": 7628313,
        "name": "Jaunpils Novads",
        "countryId": 458258,
        "latitude": 56.75917,
        "longitude": 22.92694
    },
    {
        "stateId": 459281,
        "name": "Jelgava",
        "countryId": 458258,
        "latitude": 56.65111,
        "longitude": 23.71639
    },
    {
        "stateId": 459278,
        "name": "Jelgavas novads",
        "countryId": 458258,
        "latitude": 56.58333,
        "longitude": 23.75
    },
    {
        "stateId": 7628337,
        "name": "J\u0113kabpils",
        "countryId": 458258,
        "latitude": 56.50111,
        "longitude": 25.86917
    },
    {
        "stateId": 459282,
        "name": "J\u0113kabpils Municipality",
        "countryId": 458258,
        "latitude": 56.33333,
        "longitude": 25.83333
    },
    {
        "stateId": 459202,
        "name": "J\u016brmala",
        "countryId": 458258,
        "latitude": 56.95198,
        "longitude": 23.69531
    },
    {
        "stateId": 7628311,
        "name": "Kandavas Novads",
        "countryId": 458258,
        "latitude": 56.95667,
        "longitude": 22.705
    },
    {
        "stateId": 7628374,
        "name": "Koc\u0113nu Novads",
        "countryId": 458258,
        "latitude": 57.5375,
        "longitude": 25.19056
    },
    {
        "stateId": 7628357,
        "name": "Kokneses Novads",
        "countryId": 458258,
        "latitude": 56.71028,
        "longitude": 25.46333
    },
    {
        "stateId": 7628361,
        "name": "Krimuldas Novads",
        "countryId": 458258,
        "latitude": 57.21306,
        "longitude": 24.79306
    },
    {
        "stateId": 7628355,
        "name": "Krustpils Novads",
        "countryId": 458258,
        "latitude": 56.54917,
        "longitude": 26.17278
    },
    {
        "stateId": 458621,
        "name": "Kr\u0101slavas novads",
        "countryId": 458258,
        "latitude": 55.92265,
        "longitude": 27.31983
    },
    {
        "stateId": 458459,
        "name": "Kuld\u012bgas novads",
        "countryId": 458258,
        "latitude": 56.83333,
        "longitude": 22
    },
    {
        "stateId": 7628351,
        "name": "K\u0101rsavas Novads",
        "countryId": 458258,
        "latitude": 56.76333,
        "longitude": 27.67639
    },
    {
        "stateId": 7628331,
        "name": "Lielv\u0101rdes Novads",
        "countryId": 458258,
        "latitude": 56.7175,
        "longitude": 24.95556
    },
    {
        "stateId": 457955,
        "name": "Liep\u0101ja",
        "countryId": 458258,
        "latitude": 56.54194,
        "longitude": 21.03667
    },
    {
        "stateId": 457889,
        "name": "Limba\u017eu novads",
        "countryId": 458258,
        "latitude": 57.58333,
        "longitude": 24.66667
    },
    {
        "stateId": 7628354,
        "name": "Lub\u0101nas Novads",
        "countryId": 458258,
        "latitude": 56.9275,
        "longitude": 26.73556
    },
    {
        "stateId": 457773,
        "name": "Ludzas novads",
        "countryId": 458258,
        "latitude": 56.5,
        "longitude": 27.75
    },
    {
        "stateId": 7628363,
        "name": "L\u012bgatnes Novads",
        "countryId": 458258,
        "latitude": 57.18917,
        "longitude": 25.05917
    },
    {
        "stateId": 7628341,
        "name": "L\u012bv\u0101nu Novads",
        "countryId": 458258,
        "latitude": 56.37139,
        "longitude": 26.35056
    },
    {
        "stateId": 457712,
        "name": "Madona Municipality",
        "countryId": 458258,
        "latitude": 56.83333,
        "longitude": 26.25
    },
    {
        "stateId": 7628371,
        "name": "Mazsalacas Novads",
        "countryId": 458258,
        "latitude": 57.91194,
        "longitude": 25.03306
    },
    {
        "stateId": 7628364,
        "name": "M\u0101lpils Novads",
        "countryId": 458258,
        "latitude": 56.99444,
        "longitude": 24.97306
    },
    {
        "stateId": 7628319,
        "name": "M\u0101rupes Novads",
        "countryId": 458258,
        "latitude": 56.88639,
        "longitude": 23.95889
    },
    {
        "stateId": 8299767,
        "name": "M\u0113rsraga Novads",
        "countryId": 458258,
        "latitude": 57.3333,
        "longitude": 23.0333
    },
    {
        "stateId": 7628369,
        "name": "Nauk\u0161\u0113nu Novads",
        "countryId": 458258,
        "latitude": 57.915,
        "longitude": 25.45028
    },
    {
        "stateId": 7628334,
        "name": "Neretas Novads",
        "countryId": 458258,
        "latitude": 56.31528,
        "longitude": 25.155
    },
    {
        "stateId": 7628301,
        "name": "N\u012bcas Novads",
        "countryId": 458258,
        "latitude": 56.34917,
        "longitude": 21.09
    },
    {
        "stateId": 457061,
        "name": "Ogres novads",
        "countryId": 458258,
        "latitude": 56.87581,
        "longitude": 25.10307
    },
    {
        "stateId": 7628320,
        "name": "Olaines Novads",
        "countryId": 458258,
        "latitude": 56.79139,
        "longitude": 23.94806
    },
    {
        "stateId": 7628316,
        "name": "Ozolnieku Novads",
        "countryId": 458258,
        "latitude": 56.65139,
        "longitude": 23.92806
    },
    {
        "stateId": 456528,
        "name": "Prei\u013ci Municipality",
        "countryId": 458258,
        "latitude": 56.27326,
        "longitude": 26.6939
    },
    {
        "stateId": 7628306,
        "name": "Priekules Novads",
        "countryId": 458258,
        "latitude": 56.4325,
        "longitude": 21.565
    },
    {
        "stateId": 7628376,
        "name": "Prieku\u013ci Municipality",
        "countryId": 458258,
        "latitude": 57.35417,
        "longitude": 25.46361
    },
    {
        "stateId": 7628373,
        "name": "P\u0101rgaujas Novads",
        "countryId": 458258,
        "latitude": 57.36833,
        "longitude": 25.06611
    },
    {
        "stateId": 7628300,
        "name": "P\u0101vilostas Novads",
        "countryId": 458258,
        "latitude": 56.80639,
        "longitude": 21.22389
    },
    {
        "stateId": 7628356,
        "name": "P\u013cavi\u0146u Novads",
        "countryId": 458258,
        "latitude": 56.67861,
        "longitude": 25.7225
    },
    {
        "stateId": 7628377,
        "name": "Raunas Novads",
        "countryId": 458258,
        "latitude": 57.33222,
        "longitude": 25.65639
    },
    {
        "stateId": 7628344,
        "name": "Riebi\u0146u Novads",
        "countryId": 458258,
        "latitude": 56.35806,
        "longitude": 26.82556
    },
    {
        "stateId": 7628310,
        "name": "Rojas Novads",
        "countryId": 458258,
        "latitude": 57.5,
        "longitude": 22.73333
    },
    {
        "stateId": 7628359,
        "name": "Ropa\u017eu Novads",
        "countryId": 458258,
        "latitude": 56.96639,
        "longitude": 24.59639
    },
    {
        "stateId": 7628302,
        "name": "Rucavas Novads",
        "countryId": 458258,
        "latitude": 56.21167,
        "longitude": 21.20972
    },
    {
        "stateId": 7628352,
        "name": "Rug\u0101ju Novads",
        "countryId": 458258,
        "latitude": 56.9825,
        "longitude": 27.0975
    },
    {
        "stateId": 7628317,
        "name": "Rund\u0101les Novads",
        "countryId": 458258,
        "latitude": 56.41056,
        "longitude": 23.97472
    },
    {
        "stateId": 456203,
        "name": "R\u0113zekne",
        "countryId": 458258,
        "latitude": 56.51028,
        "longitude": 27.34
    },
    {
        "stateId": 456197,
        "name": "R\u0113zeknes Novads",
        "countryId": 458258,
        "latitude": 56.5,
        "longitude": 27.16667
    },
    {
        "stateId": 456173,
        "name": "R\u012bga",
        "countryId": 458258,
        "latitude": 56.97778,
        "longitude": 24.12167
    },
    {
        "stateId": 7628370,
        "name": "R\u016bjienas Novads",
        "countryId": 458258,
        "latitude": 57.93528,
        "longitude": 25.22417
    },
    {
        "stateId": 7628367,
        "name": "Salacgr\u012bvas Novads",
        "countryId": 458258,
        "latitude": 57.74028,
        "longitude": 24.45194
    },
    {
        "stateId": 7628336,
        "name": "Salas Novads",
        "countryId": 458258,
        "latitude": 56.48222,
        "longitude": 25.70639
    },
    {
        "stateId": 7628323,
        "name": "Salaspils Novads",
        "countryId": 458258,
        "latitude": 56.87444,
        "longitude": 24.35056
    },
    {
        "stateId": 455888,
        "name": "Saldus Municipality",
        "countryId": 458258,
        "latitude": 56.66667,
        "longitude": 22.5
    },
    {
        "stateId": 7628366,
        "name": "Saulkrastu Novads",
        "countryId": 458258,
        "latitude": 57.25139,
        "longitude": 24.42611
    },
    {
        "stateId": 7628362,
        "name": "Siguldas Novads",
        "countryId": 458258,
        "latitude": 57.12972,
        "longitude": 24.86389
    },
    {
        "stateId": 7628308,
        "name": "Skrundas Novads",
        "countryId": 458258,
        "latitude": 56.66111,
        "longitude": 21.98889
    },
    {
        "stateId": 7628332,
        "name": "Skr\u012bveru Novads",
        "countryId": 458258,
        "latitude": 56.6725,
        "longitude": 25.09694
    },
    {
        "stateId": 7628380,
        "name": "Smiltenes Novads",
        "countryId": 458258,
        "latitude": 57.40667,
        "longitude": 26.01083
    },
    {
        "stateId": 7628325,
        "name": "Stopi\u0146u Novads",
        "countryId": 458258,
        "latitude": 56.93778,
        "longitude": 24.32361
    },
    {
        "stateId": 7628378,
        "name": "Stren\u010du Novads",
        "countryId": 458258,
        "latitude": 57.62611,
        "longitude": 25.78306
    },
    {
        "stateId": 7628365,
        "name": "S\u0113jas Novads",
        "countryId": 458258,
        "latitude": 57.21222,
        "longitude": 24.54611
    },
    {
        "stateId": 454968,
        "name": "Talsi Municipality",
        "countryId": 458258,
        "latitude": 57.33333,
        "longitude": 22.58333
    }
]