[
    {
        "stateId": "2219944",
        "name": "Al Jufrah",
        "countryId": "2215636",
        "latitude": 28,
        "longitude": 17.41667
    },
    {
        "stateId": "88932",
        "name": "Al Kufrah",
        "countryId": "2215636",
        "latitude": 24.0333,
        "longitude": 21.5
    },
    {
        "stateId": "88904",
        "name": "Al Marj",
        "countryId": "2215636",
        "latitude": 31.93333,
        "longitude": 21.31667
    },
    {
        "stateId": "7602691",
        "name": "Al Marqab",
        "countryId": "2215636",
        "latitude": 32.5,
        "longitude": 14
    },
    {
        "stateId": "87204",
        "name": "Darnah",
        "countryId": "2215636",
        "latitude": 32.05,
        "longitude": 22.53333
    },
    {
        "stateId": "7602689",
        "name": "Jabal al Gharbi District",
        "countryId": "2215636",
        "latitude": 30.46666,
        "longitude": 13
    },
    {
        "stateId": "2214602",
        "name": "Murzuq",
        "countryId": "2215636",
        "latitude": 25.18333,
        "longitude": 15.48333
    },
    {
        "stateId": "88318",
        "name": "Sha\u2018b\u012byat Bangh\u0101z\u012b",
        "countryId": "2215636",
        "latitude": 32.08723,
        "longitude": 20.18738
    },
    {
        "stateId": "2217350",
        "name": "Sha\u2018b\u012byat Gh\u0101t",
        "countryId": "2215636",
        "latitude": 26.1,
        "longitude": 10.33333
    },
    {
        "stateId": "2214845",
        "name": "Sha\u2018b\u012byat Mi\u015fr\u0101tah",
        "countryId": "2215636",
        "latitude": 32.31035,
        "longitude": 15.07324
    },
    {
        "stateId": "2214432",
        "name": "Sha\u2018b\u012byat N\u0101l\u016bt",
        "countryId": "2215636",
        "latitude": 30.33333,
        "longitude": 10.85
    },
    {
        "stateId": "2212774",
        "name": "Sha\u2018b\u012byat Sabh\u0101",
        "countryId": "2215636",
        "latitude": 27.18332,
        "longitude": 15.01664
    },
    {
        "stateId": "7602693",
        "name": "Sha\u2018b\u012byat W\u0101d\u012b al \u1e28ay\u0101t",
        "countryId": "2215636",
        "latitude": 26.55,
        "longitude": 12.85
    },
    {
        "stateId": "2219413",
        "name": "Sha\u2018b\u012byat W\u0101d\u012b ash Sh\u0101\u0163i\u2019",
        "countryId": "2215636",
        "latitude": 27.88333,
        "longitude": 12.75
    },
    {
        "stateId": "7602688",
        "name": "Sha\u2018b\u012byat al Bu\u0163n\u0101n",
        "countryId": "2215636",
        "latitude": 30.23333,
        "longitude": 24.16667
    },
    {
        "stateId": "443289",
        "name": "Sha\u2018b\u012byat al Jabal al Akh\u1e11ar",
        "countryId": "2215636",
        "latitude": 32.2,
        "longitude": 21.75
    },
    {
        "stateId": "7602690",
        "name": "Sha\u2018b\u012byat al Jaf\u0101rah",
        "countryId": "2215636",
        "latitude": 32.65,
        "longitude": 13
    },
    {
        "stateId": "7602692",
        "name": "Sha\u2018b\u012byat al W\u0101\u1e29\u0101t",
        "countryId": "2215636",
        "latitude": 28.93333,
        "longitude": 21.2
    },
    {
        "stateId": "2593778",
        "name": "Sha\u2018b\u012byat an Nuq\u0101\u0163 al Khams",
        "countryId": "2215636",
        "latitude": 32.71667,
        "longitude": 11.81667
    },
    {
        "stateId": "2218972",
        "name": "Sha\u2018b\u012byat az Z\u0101wiyah",
        "countryId": "2215636",
        "latitude": 32.66667,
        "longitude": 12.58333
    },
    {
        "stateId": "2210553",
        "name": "Surt",
        "countryId": "2215636",
        "latitude": 30.33333,
        "longitude": 16.5
    },
    {
        "stateId": "2210245",
        "name": "Tripoli",
        "countryId": "2215636",
        "latitude": 32.88972,
        "longitude": 13.18472
    }
]