[
    {
        "stateId": 617715,
        "name": "Anenii Noi",
        "countryId": 617790,
        "latitude": 46.91667,
        "longitude": 29.25
    },
    {
        "stateId": 618565,
        "name": "Basarabeasca",
        "countryId": 617790,
        "latitude": 46.41667,
        "longitude": 28.91667
    },
    {
        "stateId": 618511,
        "name": "Briceni",
        "countryId": 617790,
        "latitude": 48.25,
        "longitude": 27
    },
    {
        "stateId": 618142,
        "name": "Cantemir",
        "countryId": 617790,
        "latitude": 46.25,
        "longitude": 28.33333
    },
    {
        "stateId": 618430,
        "name": "Cimi\u015flia",
        "countryId": 617790,
        "latitude": 46.58333,
        "longitude": 28.83333
    },
    {
        "stateId": 617962,
        "name": "Criuleni",
        "countryId": 617790,
        "latitude": 47.15861,
        "longitude": 29.03065
    },
    {
        "stateId": 618381,
        "name": "Dondu\u015feni",
        "countryId": 617790,
        "latitude": 48.2677,
        "longitude": 27.68616
    },
    {
        "stateId": 618331,
        "name": "Flore\u015fti",
        "countryId": 617790,
        "latitude": 47.87398,
        "longitude": 28.37775
    },
    {
        "stateId": 618345,
        "name": "F\u0103le\u015fti",
        "countryId": 617790,
        "latitude": 47.58333,
        "longitude": 27.75
    },
    {
        "stateId": 618260,
        "name": "Glodeni",
        "countryId": 617790,
        "latitude": 47.75,
        "longitude": 27.5
    },
    {
        "stateId": 858895,
        "name": "G\u0103g\u0103uzia",
        "countryId": 617790,
        "latitude": 46.16667,
        "longitude": 28.66667
    },
    {
        "stateId": 858803,
        "name": "H\u00eence\u015fti",
        "countryId": 617790,
        "latitude": 46.83333,
        "longitude": 28.41667
    },
    {
        "stateId": 617991,
        "name": "Ialoveni",
        "countryId": 617790,
        "latitude": 46.83333,
        "longitude": 28.83333
    },
    {
        "stateId": 617903,
        "name": "Leova",
        "countryId": 617790,
        "latitude": 46.5,
        "longitude": 28.41667
    },
    {
        "stateId": 861487,
        "name": "Municipiul Bender",
        "countryId": 617790,
        "latitude": 46.83333,
        "longitude": 29.45
    },
    {
        "stateId": 873909,
        "name": "Municipiul B\u0103l\u0163i",
        "countryId": 617790,
        "latitude": 47.78333,
        "longitude": 27.91667
    },
    {
        "stateId": 618069,
        "name": "Municipiul Chi\u015fin\u0103u",
        "countryId": 617790,
        "latitude": 47,
        "longitude": 28.83333
    },
    {
        "stateId": 617754,
        "name": "Nisporeni",
        "countryId": 617790,
        "latitude": 47.08333,
        "longitude": 28.16667
    },
    {
        "stateId": 617639,
        "name": "Orhei",
        "countryId": 617790,
        "latitude": 47.41667,
        "longitude": 28.83333
    },
    {
        "stateId": 618164,
        "name": "Raionul Cahul",
        "countryId": 617790,
        "latitude": 45.83333,
        "longitude": 28.33333
    },
    {
        "stateId": 618162,
        "name": "Raionul C\u0103l\u0103ra\u015fi",
        "countryId": 617790,
        "latitude": 47.29365,
        "longitude": 28.30836
    },
    {
        "stateId": 618119,
        "name": "Raionul C\u0103u\u015feni",
        "countryId": 617790,
        "latitude": 46.61884,
        "longitude": 29.3135
    },
    {
        "stateId": 618369,
        "name": "Raionul Drochia",
        "countryId": 617790,
        "latitude": 48.08333,
        "longitude": 27.83333
    },
    {
        "stateId": 618363,
        "name": "Raionul Dub\u0103sari",
        "countryId": 617790,
        "latitude": 47.25,
        "longitude": 29.11667
    },
    {
        "stateId": 617077,
        "name": "Raionul Edine\u0163",
        "countryId": 617790,
        "latitude": 48.16667,
        "longitude": 27.25
    },
    {
        "stateId": 617656,
        "name": "Raionul Ocni\u0163a",
        "countryId": 617790,
        "latitude": 48.41667,
        "longitude": 27.5
    },
    {
        "stateId": 617366,
        "name": "Raionul Soroca",
        "countryId": 617790,
        "latitude": 48.16667,
        "longitude": 28.25
    },
    {
        "stateId": 617301,
        "name": "Raionul Str\u0103\u015feni",
        "countryId": 617790,
        "latitude": 47.16667,
        "longitude": 28.58333
    },
    {
        "stateId": 617181,
        "name": "Raionul Ungheni",
        "countryId": 617790,
        "latitude": 47.33333,
        "longitude": 27.91667
    },
    {
        "stateId": 617283,
        "name": "Raionul \u015etefan Vod\u0103",
        "countryId": 617790,
        "latitude": 46.5,
        "longitude": 29.66667
    },
    {
        "stateId": 617501,
        "name": "Rezina",
        "countryId": 617790,
        "latitude": 47.66667,
        "longitude": 28.83333
    },
    {
        "stateId": 617483,
        "name": "R\u00ee\u015fcani",
        "countryId": 617790,
        "latitude": 47.92778,
        "longitude": 27.53509
    },
    {
        "stateId": 617913,
        "name": "S\u00eengerei",
        "countryId": 617790,
        "latitude": 47.66667,
        "longitude": 28.16667
    },
    {
        "stateId": 617264,
        "name": "Taraclia",
        "countryId": 617790,
        "latitude": 45.91667,
        "longitude": 28.58333
    },
    {
        "stateId": 617255,
        "name": "Telene\u015fti",
        "countryId": 617790,
        "latitude": 47.58333,
        "longitude": 28.5
    },
    {
        "stateId": 858889,
        "name": "Unitatea Teritorial\u0103 din St\u00eenga Nistrului",
        "countryId": 617790,
        "latitude": 47.36667,
        "longitude": 29.25
    },
    {
        "stateId": 858808,
        "name": "\u015eold\u0103ne\u015fti",
        "countryId": 617790,
        "latitude": 47.83333,
        "longitude": 28.66667
    }
]