[
    {
        "stateId": 3343959,
        "name": "Andrijevica",
        "countryId": 3194884,
        "latitude": 42.71833,
        "longitude": 19.75861
    },
    {
        "stateId": 3204508,
        "name": "Bar",
        "countryId": 3194884,
        "latitude": 42.16667,
        "longitude": 19.16667
    },
    {
        "stateId": 3199070,
        "name": "Berane",
        "countryId": 3194884,
        "latitude": 42.83907,
        "longitude": 19.87066
    },
    {
        "stateId": 3204173,
        "name": "Bijelo Polje",
        "countryId": 3194884,
        "latitude": 43.04472,
        "longitude": 19.74333
    },
    {
        "stateId": 3203104,
        "name": "Budva",
        "countryId": 3194884,
        "latitude": 42.3,
        "longitude": 18.84139
    },
    {
        "stateId": 3202640,
        "name": "Cetinje",
        "countryId": 3194884,
        "latitude": 42.4,
        "longitude": 18.91972
    },
    {
        "stateId": 3202193,
        "name": "Danilovgrad",
        "countryId": 3194884,
        "latitude": 42.55861,
        "longitude": 19.09111
    },
    {
        "stateId": 11497642,
        "name": "Gusinje",
        "countryId": 3194884,
        "latitude": 42.55714,
        "longitude": 19.83368
    },
    {
        "stateId": 3199393,
        "name": "Herceg Novi",
        "countryId": 3194884,
        "latitude": 42.50667,
        "longitude": 18.5375
    },
    {
        "stateId": 3197537,
        "name": "Kotor",
        "countryId": 3194884,
        "latitude": 42.43333,
        "longitude": 18.76667
    },
    {
        "stateId": 3194925,
        "name": "Mojkovac",
        "countryId": 3194884,
        "latitude": 42.95917,
        "longitude": 19.58833
    },
    {
        "stateId": 3197895,
        "name": "Op\u0161tina Kola\u0161in",
        "countryId": 3194884,
        "latitude": 42.83722,
        "longitude": 19.51556
    },
    {
        "stateId": 3194493,
        "name": "Op\u0161tina Nik\u0161i\u0107",
        "countryId": 3194884,
        "latitude": 42.79944,
        "longitude": 18.92028
    },
    {
        "stateId": 3193227,
        "name": "Op\u0161tina Plav",
        "countryId": 3194884,
        "latitude": 42.58611,
        "longitude": 19.92833
    },
    {
        "stateId": 3193129,
        "name": "Op\u0161tina Plu\u017eine",
        "countryId": 3194884,
        "latitude": 43.17417,
        "longitude": 18.81694
    },
    {
        "stateId": 786233,
        "name": "Op\u0161tina Ro\u017eaje",
        "countryId": 3194884,
        "latitude": 42.84278,
        "longitude": 20.15028
    },
    {
        "stateId": 3191221,
        "name": "Op\u0161tina \u0160avnik",
        "countryId": 3194884,
        "latitude": 42.95639,
        "longitude": 19.09389
    },
    {
        "stateId": 3186995,
        "name": "Op\u0161tina \u017dabljak",
        "countryId": 3194884,
        "latitude": 43.15722,
        "longitude": 19.12333
    },
    {
        "stateId": 11497643,
        "name": "Petnjica",
        "countryId": 3194884,
        "latitude": 42.947,
        "longitude": 20.01397
    },
    {
        "stateId": 3193160,
        "name": "Pljevlja",
        "countryId": 3194884,
        "latitude": 43.33333,
        "longitude": 19.33333
    },
    {
        "stateId": 3189077,
        "name": "Podgorica",
        "countryId": 3194884,
        "latitude": 42.5,
        "longitude": 19.33333
    },
    {
        "stateId": 3189071,
        "name": "Tivat",
        "countryId": 3194884,
        "latitude": 42.40556,
        "longitude": 18.65306
    },
    {
        "stateId": 3188514,
        "name": "Ulcinj",
        "countryId": 3194884,
        "latitude": 41.95528,
        "longitude": 19.26833
    }
]