[
    {
        "stateId": 7303491,
        "name": "Ailinginae Atoll",
        "countryId": 2080185,
        "latitude": 11.13333,
        "longitude": 166.4
    },
    {
        "stateId": 7303492,
        "name": "Ailinglaplap Atoll",
        "countryId": 2080185,
        "latitude": 7.38333,
        "longitude": 168.76667
    },
    {
        "stateId": 7303493,
        "name": "Ailuk Atoll",
        "countryId": 2080185,
        "latitude": 10.28621,
        "longitude": 169.92176
    },
    {
        "stateId": 7303494,
        "name": "Arno Atoll",
        "countryId": 2080185,
        "latitude": 7.06137,
        "longitude": 171.78549
    },
    {
        "stateId": 7303495,
        "name": "Aur Atoll",
        "countryId": 2080185,
        "latitude": 8.18702,
        "longitude": 171.13953
    },
    {
        "stateId": 7303496,
        "name": "Bikar Atoll",
        "countryId": 2080185,
        "latitude": 12.25111,
        "longitude": 170.10303
    },
    {
        "stateId": 7303497,
        "name": "Bikini Atoll",
        "countryId": 2080185,
        "latitude": 11.58363,
        "longitude": 165.37617
    },
    {
        "stateId": 7303513,
        "name": "Bokak Atoll",
        "countryId": 2080185,
        "latitude": 14.61667,
        "longitude": 168.96667
    },
    {
        "stateId": 7303498,
        "name": "Ebon Atoll",
        "countryId": 2080185,
        "latitude": 4.63333,
        "longitude": 168.71667
    },
    {
        "stateId": 7303499,
        "name": "Enewetak Atoll",
        "countryId": 2080185,
        "latitude": 11.5,
        "longitude": 162.25
    },
    {
        "stateId": 7303500,
        "name": "Erikub Atoll",
        "countryId": 2080185,
        "latitude": 9.12515,
        "longitude": 169.9918
    },
    {
        "stateId": 7303519,
        "name": "Jabat Island",
        "countryId": 2080185,
        "latitude": 7.75131,
        "longitude": 168.97676
    },
    {
        "stateId": 7303501,
        "name": "Jaluit Atoll",
        "countryId": 2080185,
        "latitude": 6,
        "longitude": 169.58333
    },
    {
        "stateId": 7303520,
        "name": "Jemo Island",
        "countryId": 2080185,
        "latitude": 10.0792,
        "longitude": 169.524
    },
    {
        "stateId": 7303521,
        "name": "Kili Island",
        "countryId": 2080185,
        "latitude": 5.64605,
        "longitude": 169.12654
    },
    {
        "stateId": 7303502,
        "name": "Kwajalein Atoll",
        "countryId": 2080185,
        "latitude": 9.182,
        "longitude": 167.308
    },
    {
        "stateId": 7303503,
        "name": "Lae Atoll",
        "countryId": 2080185,
        "latitude": 8.93333,
        "longitude": 166.23333
    },
    {
        "stateId": 7303522,
        "name": "Lib Island",
        "countryId": 2080185,
        "latitude": 8.3136,
        "longitude": 167.38
    },
    {
        "stateId": 7303504,
        "name": "Likiep Atoll",
        "countryId": 2080185,
        "latitude": 9.88333,
        "longitude": 169.15
    },
    {
        "stateId": 7303505,
        "name": "Majuro Atoll",
        "countryId": 2080185,
        "latitude": 7.15,
        "longitude": 171.2
    },
    {
        "stateId": 7303506,
        "name": "Maloelap Atoll",
        "countryId": 2080185,
        "latitude": 8.75,
        "longitude": 171.05
    },
    {
        "stateId": 7303523,
        "name": "Mejit Island",
        "countryId": 2080185,
        "latitude": 10.2775,
        "longitude": 170.8692
    },
    {
        "stateId": 7303507,
        "name": "Mili Atoll",
        "countryId": 2080185,
        "latitude": 6.13333,
        "longitude": 171.91667
    },
    {
        "stateId": 7303508,
        "name": "Namdrik Atoll",
        "countryId": 2080185,
        "latitude": 5.6,
        "longitude": 168.11667
    },
    {
        "stateId": 7303509,
        "name": "Namu Atoll",
        "countryId": 2080185,
        "latitude": 8,
        "longitude": 168.16667
    },
    {
        "stateId": 7303510,
        "name": "Rongelap Atoll",
        "countryId": 2080185,
        "latitude": 11.33333,
        "longitude": 166.83333
    },
    {
        "stateId": 7303511,
        "name": "Rongrik Atoll",
        "countryId": 2080185,
        "latitude": 11.35,
        "longitude": 167.43333
    },
    {
        "stateId": 7303512,
        "name": "Taka Atoll",
        "countryId": 2080185,
        "latitude": 11.17301,
        "longitude": 169.58633
    },
    {
        "stateId": 7303514,
        "name": "Ujae Atoll",
        "countryId": 2080185,
        "latitude": 9.0804,
        "longitude": 165.62782
    },
    {
        "stateId": 7303515,
        "name": "Ujelang Atoll",
        "countryId": 2080185,
        "latitude": 9.81667,
        "longitude": 160.91667
    },
    {
        "stateId": 7303516,
        "name": "Utrik Atoll",
        "countryId": 2080185,
        "latitude": 11.26865,
        "longitude": 169.80967
    },
    {
        "stateId": 7303517,
        "name": "Wotho Atoll",
        "countryId": 2080185,
        "latitude": 10.1,
        "longitude": 165.98333
    },
    {
        "stateId": 7303518,
        "name": "Wotje Atoll",
        "countryId": 2080185,
        "latitude": 9.5134,
        "longitude": 170.02304
    }
]