[
    {
        "stateId": "1282497",
        "name": "Alifu Atholhu",
        "countryId": "1282028",
        "latitude": 4.265,
        "longitude": 72.96933
    },
    {
        "stateId": "1282478",
        "name": "Baa Atholhu",
        "countryId": "1282028",
        "latitude": 4.89104,
        "longitude": 72.97312
    },
    {
        "stateId": "1282447",
        "name": "Dhaalu Atholhu",
        "countryId": "1282028",
        "latitude": 2.94875,
        "longitude": 73.012
    },
    {
        "stateId": "1282393",
        "name": "Faafu Atholhu",
        "countryId": "1282028",
        "latitude": 3.10609,
        "longitude": 72.97933
    },
    {
        "stateId": "1282329",
        "name": "Gaafu Alifu Atholhu",
        "countryId": "1282028",
        "latitude": 0.38569,
        "longitude": 73.50921
    },
    {
        "stateId": "1282328",
        "name": "Gaafu Dhaalu Atholhu",
        "countryId": "1282028",
        "latitude": 0.22028,
        "longitude": 73.10162
    },
    {
        "stateId": "1281945",
        "name": "Gnaviyani Atoll",
        "countryId": "1282028",
        "latitude": -0.29693,
        "longitude": 73.42491
    },
    {
        "stateId": "1282294",
        "name": "Haa Alifu Atholhu",
        "countryId": "1282028",
        "latitude": 7.0218,
        "longitude": 72.97981
    },
    {
        "stateId": "1282293",
        "name": "Haa Dhaalu Atholhu",
        "countryId": "1282028",
        "latitude": 6.82625,
        "longitude": 73.18859
    },
    {
        "stateId": "1282208",
        "name": "Kaafu Atoll",
        "countryId": "1282028",
        "latitude": 4.16958,
        "longitude": 73.49918
    },
    {
        "stateId": "1282101",
        "name": "Laamu Atholhu",
        "countryId": "1282028",
        "latitude": 2.10347,
        "longitude": 73.57291
    },
    {
        "stateId": "1282096",
        "name": "Lhaviyani Atholhu",
        "countryId": "1282028",
        "latitude": 5.28055,
        "longitude": 73.58416
    },
    {
        "stateId": "1281985",
        "name": "Meemu Atholhu",
        "countryId": "1282028",
        "latitude": 2.77528,
        "longitude": 73.35194
    },
    {
        "stateId": "1281937",
        "name": "Noonu Atoll",
        "countryId": "1282028",
        "latitude": 5.96486,
        "longitude": 73.38873
    },
    {
        "stateId": "1281918",
        "name": "Raa Atholhu",
        "countryId": "1282028",
        "latitude": 5.76347,
        "longitude": 72.98495
    },
    {
        "stateId": "1281893",
        "name": "Seenu Atholhu",
        "countryId": "1282028",
        "latitude": -0.68694,
        "longitude": 73.16841
    },
    {
        "stateId": "1281892",
        "name": "Shaviyani Atholhu",
        "countryId": "1282028",
        "latitude": 6.32125,
        "longitude": 73.19763
    },
    {
        "stateId": "10346475",
        "name": "Southern Ari Atoll",
        "countryId": "1282028",
        "latitude": 3.65,
        "longitude": 72.83
    },
    {
        "stateId": "1281881",
        "name": "Thaa Atholhu",
        "countryId": "1282028",
        "latitude": 2.1943,
        "longitude": 73.11791
    },
    {
        "stateId": "1281843",
        "name": "Vaavu Atholhu",
        "countryId": "1282028",
        "latitude": 3.37014,
        "longitude": 73.58535
    }
]