[
    {
        "stateId": 7289706,
        "name": "Madhya Pashchimanchal",
        "countryId": 1282988,
        "latitude": 29.05977,
        "longitude": 82.31335
    },
    {
        "stateId": 7289707,
        "name": "Madhyamanchal",
        "countryId": 1282988,
        "latitude": 27.45436,
        "longitude": 85.22301
    },
    {
        "stateId": 7289709,
        "name": "Pashchimanchal",
        "countryId": 1282988,
        "latitude": 28.17039,
        "longitude": 83.93829
    },
    {
        "stateId": 7289708,
        "name": "Purwanchal",
        "countryId": 1282988,
        "latitude": 27.23998,
        "longitude": 87.14802
    },
    {
        "stateId": 7289705,
        "name": "Sudur Pashchimanchal",
        "countryId": 1282988,
        "latitude": 29.30915,
        "longitude": 80.91534
    }
]