[
    {
        "stateId": "2089470",
        "name": "Bougainville",
        "countryId": "2088628",
        "latitude": -6,
        "longitude": 155
    },
    {
        "stateId": "2133763",
        "name": "Central Province",
        "countryId": "2088628",
        "latitude": -10,
        "longitude": 148
    },
    {
        "stateId": "2098593",
        "name": "Chimbu Province",
        "countryId": "2088628",
        "latitude": -6.25,
        "longitude": 144.83333
    },
    {
        "stateId": "2097853",
        "name": "East New Britain Province",
        "countryId": "2088628",
        "latitude": -4.61283,
        "longitude": 151.88775
    },
    {
        "stateId": "2097846",
        "name": "East Sepik Province",
        "countryId": "2088628",
        "latitude": -4,
        "longitude": 143.75
    },
    {
        "stateId": "2097855",
        "name": "Eastern Highlands Province",
        "countryId": "2088628",
        "latitude": -6.5,
        "longitude": 145.58333
    },
    {
        "stateId": "2097655",
        "name": "Enga Province",
        "countryId": "2088628",
        "latitude": -5.5,
        "longitude": 143.5
    },
    {
        "stateId": "2096633",
        "name": "Gulf Province",
        "countryId": "2088628",
        "latitude": -7.7246,
        "longitude": 145.08545
    },
    {
        "stateId": "8521658",
        "name": "Hela",
        "countryId": "2088628",
        "latitude": -6.29824,
        "longitude": 142.84424
    },
    {
        "stateId": "8521660",
        "name": "Jiwaka",
        "countryId": "2088628",
        "latitude": -5.90224,
        "longitude": 144.67278
    },
    {
        "stateId": "2091993",
        "name": "Madang Province",
        "countryId": "2088628",
        "latitude": -5,
        "longitude": 145.5
    },
    {
        "stateId": "2091495",
        "name": "Manus Province",
        "countryId": "2088628",
        "latitude": -2,
        "longitude": 147
    },
    {
        "stateId": "2132895",
        "name": "Milne Bay Province",
        "countryId": "2088628",
        "latitude": -10.55262,
        "longitude": 150.31494
    },
    {
        "stateId": "2090468",
        "name": "Morobe Province",
        "countryId": "2088628",
        "latitude": -7.0106,
        "longitude": 146.9672
    },
    {
        "stateId": "2089856",
        "name": "National Capital District",
        "countryId": "2088628",
        "latitude": -9.41667,
        "longitude": 147.16667
    },
    {
        "stateId": "2089693",
        "name": "New Ireland Province",
        "countryId": "2088628",
        "latitude": -3,
        "longitude": 151.5
    },
    {
        "stateId": "2089478",
        "name": "Northern Province",
        "countryId": "2088628",
        "latitude": -9,
        "longitude": 148.5
    },
    {
        "stateId": "2086331",
        "name": "Southern Highlands Province",
        "countryId": "2088628",
        "latitude": -6.5,
        "longitude": 143.58333
    },
    {
        "stateId": "2083546",
        "name": "West New Britain Province",
        "countryId": "2088628",
        "latitude": -5.87833,
        "longitude": 149.82605
    },
    {
        "stateId": "2087246",
        "name": "West Sepik Province",
        "countryId": "2088628",
        "latitude": -3.5,
        "longitude": 142
    },
    {
        "stateId": "2083551",
        "name": "Western Highlands Province",
        "countryId": "2088628",
        "latitude": -5.75,
        "longitude": 144.25
    },
    {
        "stateId": "2083549",
        "name": "Western Province",
        "countryId": "2088628",
        "latitude": -7.5,
        "longitude": 142
    }
]