[
    {
        "stateId": 7115989,
        "name": "Autonomous Region in Muslim Mindanao",
        "countryId": 1694008,
        "latitude": 7.53676,
        "longitude": 124.27734
    },
    {
        "stateId": 7521310,
        "name": "Bicol",
        "countryId": 1694008,
        "latitude": 13.31389,
        "longitude": 123.56389
    },
    {
        "stateId": 7521297,
        "name": "Cagayan Valley",
        "countryId": 1694008,
        "latitude": 17.65667,
        "longitude": 121.73333
    },
    {
        "stateId": 7521303,
        "name": "Calabarzon",
        "countryId": 1694008,
        "latitude": 14.31,
        "longitude": 121.09
    },
    {
        "stateId": 7521299,
        "name": "Caraga",
        "countryId": 1694008,
        "latitude": 9,
        "longitude": 125.74167
    },
    {
        "stateId": 7521305,
        "name": "Central Luzon",
        "countryId": 1694008,
        "latitude": 15.30714,
        "longitude": 120.79762
    },
    {
        "stateId": 7521306,
        "name": "Central Visayas",
        "countryId": 1694008,
        "latitude": 10.35815,
        "longitude": 123.87085
    },
    {
        "stateId": 7521300,
        "name": "Cordillera Administrative Region",
        "countryId": 1694008,
        "latitude": 17.0852,
        "longitude": 121.03322
    },
    {
        "stateId": 7521309,
        "name": "Davao",
        "countryId": 1694008,
        "latitude": 7.54734,
        "longitude": 125.92499
    },
    {
        "stateId": 7521307,
        "name": "Eastern Visayas",
        "countryId": 1694008,
        "latitude": 11.51649,
        "longitude": 124.96204
    },
    {
        "stateId": 7521301,
        "name": "Ilocos",
        "countryId": 1694008,
        "latitude": 16.97917,
        "longitude": 120.52083
    },
    {
        "stateId": 7521296,
        "name": "Mimaropa",
        "countryId": 1694008,
        "latitude": 12.87014,
        "longitude": 121.13403
    },
    {
        "stateId": 7521311,
        "name": "National Capital Region",
        "countryId": 1694008,
        "latitude": 14.57775,
        "longitude": 121.04599
    },
    {
        "stateId": 7521295,
        "name": "Northern Mindanao",
        "countryId": 1694008,
        "latitude": 8.5262,
        "longitude": 125.22669
    },
    {
        "stateId": 7521298,
        "name": "Soccsksargen",
        "countryId": 1694008,
        "latitude": 6.47361,
        "longitude": 124.90356
    },
    {
        "stateId": 7521304,
        "name": "Western Visayas",
        "countryId": 1694008,
        "latitude": 11.13,
        "longitude": 122.53
    },
    {
        "stateId": 7521308,
        "name": "Zamboanga Peninsula",
        "countryId": 1694008,
        "latitude": 7.89603,
        "longitude": 123.13477
    }
]