[
    {
        "stateId": 3345303,
        "name": "Castello di Acquaviva",
        "countryId": 3168068,
        "latitude": 43.95,
        "longitude": 12.41667
    },
    {
        "stateId": 3345304,
        "name": "Castello di Borgo Maggiore",
        "countryId": 3168068,
        "latitude": 43.94092,
        "longitude": 12.44562
    },
    {
        "stateId": 3345305,
        "name": "Castello di Domagnano",
        "countryId": 3168068,
        "latitude": 43.95417,
        "longitude": 12.48333
    },
    {
        "stateId": 3345306,
        "name": "Castello di Faetano",
        "countryId": 3168068,
        "latitude": 43.9251,
        "longitude": 12.49849
    },
    {
        "stateId": 3345307,
        "name": "Castello di Fiorentino",
        "countryId": 3168068,
        "latitude": 43.91144,
        "longitude": 12.45652
    },
    {
        "stateId": 3345308,
        "name": "Castello di Montegiardino",
        "countryId": 3168068,
        "latitude": 43.91131,
        "longitude": 12.48442
    },
    {
        "stateId": 3345302,
        "name": "Castello di San Marino Citt\u00e0",
        "countryId": 3168068,
        "latitude": 43.93333,
        "longitude": 12.45
    },
    {
        "stateId": 3178807,
        "name": "Chiesanuova",
        "countryId": 3168068,
        "latitude": 43.91667,
        "longitude": 12.41667
    },
    {
        "stateId": 3166650,
        "name": "Serravalle",
        "countryId": 3168068,
        "latitude": 43.96667,
        "longitude": 12.46667
    }
]