[
    {
        "stateId": "3384481",
        "name": "Distrikt Brokopondo",
        "countryId": "3382998",
        "latitude": 4.75,
        "longitude": -55.16667
    },
    {
        "stateId": "3384418",
        "name": "Distrikt Commewijne",
        "countryId": "3382998",
        "latitude": 5.75,
        "longitude": -54.91667
    },
    {
        "stateId": "3384397",
        "name": "Distrikt Coronie",
        "countryId": "3382998",
        "latitude": 5.58333,
        "longitude": -56.25
    },
    {
        "stateId": "3383560",
        "name": "Distrikt Marowijne",
        "countryId": "3382998",
        "latitude": 5.58333,
        "longitude": -54.33333
    },
    {
        "stateId": "3383438",
        "name": "Distrikt Nickerie",
        "countryId": "3382998",
        "latitude": 5.66667,
        "longitude": -56.83333
    },
    {
        "stateId": "3383337",
        "name": "Distrikt Para",
        "countryId": "3382998",
        "latitude": 5.41667,
        "longitude": -55.33333
    },
    {
        "stateId": "3383329",
        "name": "Distrikt Paramaribo",
        "countryId": "3382998",
        "latitude": 5.86667,
        "longitude": -55.16667
    },
    {
        "stateId": "3383110",
        "name": "Distrikt Saramacca",
        "countryId": "3382998",
        "latitude": 5.66667,
        "longitude": -55.58333
    },
    {
        "stateId": "3383062",
        "name": "Distrikt Sipaliwini",
        "countryId": "3382998",
        "latitude": 4,
        "longitude": -56
    },
    {
        "stateId": "3382761",
        "name": "Distrikt Wanica",
        "countryId": "3382998",
        "latitude": 5.75,
        "longitude": -55.25
    }
]