[
    {
        "stateId": 3587425,
        "name": "Departamento de Ahuachap\u00e1n",
        "countryId": 3585968,
        "latitude": 13.86667,
        "longitude": -89.91667
    },
    {
        "stateId": 3587217,
        "name": "Departamento de Caba\u00f1as",
        "countryId": 3585968,
        "latitude": 13.86667,
        "longitude": -88.75
    },
    {
        "stateId": 3587090,
        "name": "Departamento de Chalatenango",
        "countryId": 3585968,
        "latitude": 14.13333,
        "longitude": -89.01667
    },
    {
        "stateId": 3586831,
        "name": "Departamento de Cuscatl\u00e1n",
        "countryId": 3585968,
        "latitude": 13.83333,
        "longitude": -89.03333
    },
    {
        "stateId": 3585155,
        "name": "Departamento de La Libertad",
        "countryId": 3585968,
        "latitude": 13.75,
        "longitude": -89.38333
    },
    {
        "stateId": 3585087,
        "name": "Departamento de La Paz",
        "countryId": 3585968,
        "latitude": 13.46667,
        "longitude": -88.98333
    },
    {
        "stateId": 3584767,
        "name": "Departamento de La Uni\u00f3n",
        "countryId": 3585968,
        "latitude": 13.55,
        "longitude": -87.9
    },
    {
        "stateId": 3584317,
        "name": "Departamento de Moraz\u00e1n",
        "countryId": 3585968,
        "latitude": 13.8,
        "longitude": -88.1
    },
    {
        "stateId": 3583462,
        "name": "Departamento de San Miguel",
        "countryId": 3585968,
        "latitude": 13.53333,
        "longitude": -88.28333
    },
    {
        "stateId": 3583360,
        "name": "Departamento de San Salvador",
        "countryId": 3585968,
        "latitude": 13.78333,
        "longitude": -89.18333
    },
    {
        "stateId": 3583176,
        "name": "Departamento de San Vicente",
        "countryId": 3585968,
        "latitude": 13.51667,
        "longitude": -88.75
    },
    {
        "stateId": 3583332,
        "name": "Departamento de Santa Ana",
        "countryId": 3585968,
        "latitude": 14.1,
        "longitude": -89.58333
    },
    {
        "stateId": 3583101,
        "name": "Departamento de Sonsonate",
        "countryId": 3585968,
        "latitude": 13.7,
        "longitude": -89.7
    },
    {
        "stateId": 3582882,
        "name": "Departamento de Usulut\u00e1n",
        "countryId": 3585968,
        "latitude": 13.43333,
        "longitude": -88.53333
    }
]