[
    {
        "stateId": "2468351",
        "name": "Gafsa Governorate",
        "countryId": "2464461",
        "latitude": 34.5,
        "longitude": 9
    },
    {
        "stateId": "2472477",
        "name": "Gouvernorat de Ben Arous",
        "countryId": "2464461",
        "latitude": 36.72127,
        "longitude": 10.32303
    },
    {
        "stateId": "2472699",
        "name": "Gouvernorat de Bizerte",
        "countryId": "2464461",
        "latitude": 37.08333,
        "longitude": 9.58333
    },
    {
        "stateId": "2472770",
        "name": "Gouvernorat de B\u00e9ja",
        "countryId": "2464461",
        "latitude": 36.66667,
        "longitude": 9.25
    },
    {
        "stateId": "2468365",
        "name": "Gouvernorat de Gab\u00e8s",
        "countryId": "2464461",
        "latitude": 33.83333,
        "longitude": 9.75
    },
    {
        "stateId": "2470085",
        "name": "Gouvernorat de Jendouba",
        "countryId": "2464461",
        "latitude": 36.66667,
        "longitude": 8.75
    },
    {
        "stateId": "2473451",
        "name": "Gouvernorat de Kairouan",
        "countryId": "2464461",
        "latitude": 35.58333,
        "longitude": 9.83333
    },
    {
        "stateId": "2473460",
        "name": "Gouvernorat de Kasserine",
        "countryId": "2464461",
        "latitude": 35.25,
        "longitude": 8.78333
    },
    {
        "stateId": "2473637",
        "name": "Gouvernorat de Kef",
        "countryId": "2464461",
        "latitude": 36.08333,
        "longitude": 8.75
    },
    {
        "stateId": "2468014",
        "name": "Gouvernorat de K\u00e9bili",
        "countryId": "2464461",
        "latitude": 33.5,
        "longitude": 8.83333
    },
    {
        "stateId": "2473574",
        "name": "Gouvernorat de Mahdia",
        "countryId": "2464461",
        "latitude": 35.33333,
        "longitude": 10.58333
    },
    {
        "stateId": "2473495",
        "name": "Gouvernorat de Monastir",
        "countryId": "2464461",
        "latitude": 35.61667,
        "longitude": 10.75
    },
    {
        "stateId": "2469470",
        "name": "Gouvernorat de M\u00e9denine",
        "countryId": "2464461",
        "latitude": 33.33333,
        "longitude": 11
    },
    {
        "stateId": "2468576",
        "name": "Gouvernorat de Nabeul",
        "countryId": "2464461",
        "latitude": 36.66667,
        "longitude": 10.66667
    },
    {
        "stateId": "2467450",
        "name": "Gouvernorat de Sfax",
        "countryId": "2464461",
        "latitude": 34.75,
        "longitude": 10.41667
    },
    {
        "stateId": "2465837",
        "name": "Gouvernorat de Sidi Bouzid",
        "countryId": "2464461",
        "latitude": 34.83333,
        "longitude": 9.5
    },
    {
        "stateId": "2465027",
        "name": "Gouvernorat de Siliana",
        "countryId": "2464461",
        "latitude": 36,
        "longitude": 9.33333
    },
    {
        "stateId": "2464912",
        "name": "Gouvernorat de Sousse",
        "countryId": "2464461",
        "latitude": 35.91667,
        "longitude": 10.41667
    },
    {
        "stateId": "2464645",
        "name": "Gouvernorat de Tozeur",
        "countryId": "2464461",
        "latitude": 34,
        "longitude": 8.08333
    },
    {
        "stateId": "2464464",
        "name": "Gouvernorat de Tunis",
        "countryId": "2464461",
        "latitude": 36.76667,
        "longitude": 10.13333
    },
    {
        "stateId": "2464038",
        "name": "Gouvernorat de Zaghouan",
        "countryId": "2464461",
        "latitude": 36.33333,
        "longitude": 10
    },
    {
        "stateId": "2473245",
        "name": "Gouvernorat de l\u2019Ariana",
        "countryId": "2464461",
        "latitude": 36.98333,
        "longitude": 10.11667
    },
    {
        "stateId": "6201192",
        "name": "Manouba",
        "countryId": "2464461",
        "latitude": 36.83333,
        "longitude": 9.83333
    },
    {
        "stateId": "2464698",
        "name": "Tataouine",
        "countryId": "2464461",
        "latitude": 32,
        "longitude": 10
    }
]