[
    {
        "cityId": 1904963,
        "name": "Th\u00e0nh Ph\u1ed1 Phan Rang-Th\u00e1p Ch\u00e0m",
        "stateId": 1559971,
        "latitude": 11.59577,
        "longitude": 108.97457
    },
    {
        "cityId": 1904965,
        "name": "Huy\u1ec7n Ninh H\u1ea3i",
        "stateId": 1559971,
        "latitude": 11.61062,
        "longitude": 109.1271
    },
    {
        "cityId": 1904966,
        "name": "Huy\u1ec7n Ninh Ph\u01b0\u1edbc",
        "stateId": 1559971,
        "latitude": 11.56118,
        "longitude": 108.88037
    },
    {
        "cityId": 1904967,
        "name": "Huy\u1ec7n Ninh S\u01a1n",
        "stateId": 1559971,
        "latitude": 11.70827,
        "longitude": 108.7708
    },
    {
        "cityId": 8727590,
        "name": "Huyen Bac Ai",
        "stateId": 1559971,
        "latitude": 11.83342,
        "longitude": 108.85515
    },
    {
        "cityId": 8993902,
        "name": "Huy\u1ec7n Thu\u1eadn Nam",
        "stateId": 1559971,
        "latitude": 11.43575,
        "longitude": 108.85043
    },
    {
        "cityId": 11497324,
        "name": "Huy\u1ec7n Thu\u1eadn B\u1eafc",
        "stateId": 1559971,
        "latitude": 11.71937,
        "longitude": 109.05836
    }
]