[
    {
        "cityId": 1905859,
        "name": "Th\u00e0nh Ph\u1ed1 Tuy\u00ean Quang",
        "stateId": 1559976,
        "latitude": 21.82806,
        "longitude": 105.21564
    },
    {
        "cityId": 1905860,
        "name": "Huy\u1ec7n S\u01a1n D\u01b0\u01a1ng",
        "stateId": 1559976,
        "latitude": 21.63623,
        "longitude": 105.38901
    },
    {
        "cityId": 1905861,
        "name": "Huy\u1ec7n Y\u00ean S\u01a1n",
        "stateId": 1559976,
        "latitude": 21.88363,
        "longitude": 105.27656
    },
    {
        "cityId": 1905862,
        "name": "Huy\u1ec7n H\u00e0m Y\u00ean",
        "stateId": 1559976,
        "latitude": 22.10935,
        "longitude": 105.0163
    },
    {
        "cityId": 1905863,
        "name": "Huy\u1ec7n Chi\u00eam H\u00f3a",
        "stateId": 1559976,
        "latitude": 22.17895,
        "longitude": 105.27671
    },
    {
        "cityId": 1905864,
        "name": "Huy\u1ec7n Na Hang",
        "stateId": 1559976,
        "latitude": 22.47522,
        "longitude": 105.4838
    },
    {
        "cityId": 8523098,
        "name": "Huy\u1ec7n L\u00e2m B\u00ecnh",
        "stateId": 1559976,
        "latitude": 22.46411,
        "longitude": 105.21903
    }
]