[
    {
        "cityId": "1905005",
        "name": "Th\u00e0nh Ph\u1ed1 L\u00e0o Cai",
        "stateId": "1562412",
        "latitude": 22.41944,
        "longitude": 103.99502
    },
    {
        "cityId": "1905007",
        "name": "Huy\u1ec7n B\u1ea3o Th\u1eafng",
        "stateId": "1562412",
        "latitude": 22.36896,
        "longitude": 104.13893
    },
    {
        "cityId": "1905008",
        "name": "Huy\u1ec7n Sa Pa",
        "stateId": "1562412",
        "latitude": 22.33769,
        "longitude": 103.84037
    },
    {
        "cityId": "1905009",
        "name": "Huy\u1ec7n B\u00e1t X\u00e1t",
        "stateId": "1562412",
        "latitude": 22.56767,
        "longitude": 103.71339
    },
    {
        "cityId": "1905010",
        "name": "Huy\u1ec7n M\u01b0\u1eddng Kh\u01b0\u01a1ng",
        "stateId": "1562412",
        "latitude": 22.67111,
        "longitude": 104.11772
    },
    {
        "cityId": "1905011",
        "name": "Huy\u1ec7n B\u1eafc H\u00e0",
        "stateId": "1562412",
        "latitude": 22.50998,
        "longitude": 104.30769
    },
    {
        "cityId": "1905012",
        "name": "Huy\u1ec7n B\u1ea3o Y\u00ean",
        "stateId": "1562412",
        "latitude": 22.26109,
        "longitude": 104.46424
    },
    {
        "cityId": "1905013",
        "name": "Huy\u1ec7n V\u0103n B\u00e0n",
        "stateId": "1562412",
        "latitude": 22.07002,
        "longitude": 104.18122
    },
    {
        "cityId": "8464780",
        "name": "Huy\u1ec7n Si Ma Cai",
        "stateId": "1562412",
        "latitude": 22.67161,
        "longitude": 104.27326
    }
]