[
    {
        "cityId": "1905076",
        "name": "Th\u00e0nh Ph\u1ed1 S\u01a1n La",
        "stateId": "1567643",
        "latitude": 21.34614,
        "longitude": 103.9115
    },
    {
        "cityId": "1905077",
        "name": "Huy\u1ec7n M\u01b0\u1eddng La",
        "stateId": "1567643",
        "latitude": 21.5296,
        "longitude": 104.11113
    },
    {
        "cityId": "1905078",
        "name": "Huy\u1ec7n Qu\u1ef3nh Nhai",
        "stateId": "1567643",
        "latitude": 21.77224,
        "longitude": 103.6492
    },
    {
        "cityId": "1905079",
        "name": "Huy\u1ec7n Thu\u1eadn Ch\u00e2u",
        "stateId": "1567643",
        "latitude": 21.42319,
        "longitude": 103.64408
    },
    {
        "cityId": "1905080",
        "name": "Huy\u1ec7n S\u00f4ng M\u00e3",
        "stateId": "1567643",
        "latitude": 21.06971,
        "longitude": 103.68727
    },
    {
        "cityId": "1905081",
        "name": "Huy\u1ec7n Mai S\u01a1n",
        "stateId": "1567643",
        "latitude": 21.15884,
        "longitude": 104.04821
    },
    {
        "cityId": "1905082",
        "name": "Huy\u1ec7n B\u1eafc Y\u00ean",
        "stateId": "1567643",
        "latitude": 21.25042,
        "longitude": 104.38501
    },
    {
        "cityId": "1905083",
        "name": "Huy\u1ec7n Y\u00ean Ch\u00e2u",
        "stateId": "1567643",
        "latitude": 21.005,
        "longitude": 104.33264
    },
    {
        "cityId": "1905084",
        "name": "Huy\u1ec7n Ph\u00f9 Y\u00ean",
        "stateId": "1567643",
        "latitude": 21.21412,
        "longitude": 104.68993
    },
    {
        "cityId": "1905085",
        "name": "Huy\u1ec7n M\u1ed9c Ch\u00e2u",
        "stateId": "1567643",
        "latitude": 21.83333,
        "longitude": 104.75
    },
    {
        "cityId": "8714967",
        "name": "Huyen Sop Cop",
        "stateId": "1567643",
        "latitude": 20.88745,
        "longitude": 103.49743
    },
    {
        "cityId": "11497487",
        "name": "Huy\u1ec7n V\u00e2n H\u1ed3",
        "stateId": "1567643",
        "latitude": 21.22561,
        "longitude": 104.02285
    }
]