[
    {
        "cityId": 1904949,
        "name": "Th\u00e0nh Ph\u1ed1 R\u1ea1ch Gi\u00e1",
        "stateId": 1579008,
        "latitude": 10.01711,
        "longitude": 105.09739
    },
    {
        "cityId": 1904950,
        "name": "Huy\u1ec7n Ch\u00e2u Th\u00e0nh",
        "stateId": 1579008,
        "latitude": 9.94372,
        "longitude": 105.16868
    },
    {
        "cityId": 1904951,
        "name": "Huy\u1ec7n Gi\u1ed3ng Ri\u1ec1ng",
        "stateId": 1579008,
        "latitude": 9.91224,
        "longitude": 105.37311
    },
    {
        "cityId": 1904952,
        "name": "Huy\u1ec7n T\u00e2n Hi\u1ec7p",
        "stateId": 1579008,
        "latitude": 10.0954,
        "longitude": 105.25936
    },
    {
        "cityId": 1904953,
        "name": "Huy\u1ec7n G\u00f2 Quao",
        "stateId": 1579008,
        "latitude": 9.74027,
        "longitude": 105.29766
    },
    {
        "cityId": 1904954,
        "name": "Huy\u1ec7n An Bi\u00ean",
        "stateId": 1579008,
        "latitude": 9.81291,
        "longitude": 105.0523
    },
    {
        "cityId": 1904955,
        "name": "Huy\u1ec7n An Minh",
        "stateId": 1579008,
        "latitude": 9.66704,
        "longitude": 104.94848
    },
    {
        "cityId": 1904956,
        "name": "Huy\u1ec7n V\u0129nh Thu\u1eadn",
        "stateId": 1579008,
        "latitude": 9.53306,
        "longitude": 105.2449
    },
    {
        "cityId": 1904957,
        "name": "Huy\u1ec7n H\u00f2n \u0110\u1ea5t",
        "stateId": 1579008,
        "latitude": 10.22908,
        "longitude": 104.9528
    },
    {
        "cityId": 1904958,
        "name": "Th\u1ecb X\u00e3 H\u00e0 Ti\u00ean",
        "stateId": 1579008,
        "latitude": 10.386,
        "longitude": 104.5029
    },
    {
        "cityId": 1904959,
        "name": "Huy\u1ec7n Ki\u00ean H\u1ea3i",
        "stateId": 1579008,
        "latitude": 9.83971,
        "longitude": 104.6156
    },
    {
        "cityId": 1904960,
        "name": "Huy\u1ec7n Ph\u00fa Qu\u1ed1c",
        "stateId": 1579008,
        "latitude": 10.25516,
        "longitude": 104.01455
    },
    {
        "cityId": 8727784,
        "name": "Kien Luong Town",
        "stateId": 1579008,
        "latitude": 10.24892,
        "longitude": 104.59
    },
    {
        "cityId": 9280591,
        "name": "Huy\u1ec7n U Minh Th\u01b0\u1ee3ng",
        "stateId": 1579008,
        "latitude": 9.6419,
        "longitude": 105.11914
    },
    {
        "cityId": 11497306,
        "name": "Huy\u1ec7n Giang Th\u00e0nh",
        "stateId": 1579008,
        "latitude": 10.42661,
        "longitude": 104.52152
    }
]