[
    {
        "cityId": 1905562,
        "name": "Th\u00e0nh Ph\u1ed1 Phan Thi\u1ebft",
        "stateId": 1581882,
        "latitude": 10.937,
        "longitude": 108.15778
    },
    {
        "cityId": 1905563,
        "name": "Huy\u1ec7n H\u00e0m Thu\u1eadn Nam",
        "stateId": 1581882,
        "latitude": 10.92101,
        "longitude": 107.93325
    },
    {
        "cityId": 1905564,
        "name": "Huy\u1ec7n H\u00e0m Thu\u1eadn B\u1eafc",
        "stateId": 1581882,
        "latitude": 11.14703,
        "longitude": 108.08172
    },
    {
        "cityId": 1905565,
        "name": "Huy\u1ec7n B\u1eafc B\u00ecnh",
        "stateId": 1581882,
        "latitude": 11.27571,
        "longitude": 108.38506
    },
    {
        "cityId": 1905566,
        "name": "Huy\u1ec7n Tuy Phong",
        "stateId": 1581882,
        "latitude": 11.34746,
        "longitude": 108.70466
    },
    {
        "cityId": 1905567,
        "name": "Huy\u1ec7n H\u00e0m T\u00e2n",
        "stateId": 1581882,
        "latitude": 10.76856,
        "longitude": 107.64233
    },
    {
        "cityId": 1905568,
        "name": "Huy\u1ec7n T\u00e1nh Linh",
        "stateId": 1581882,
        "latitude": 11.11367,
        "longitude": 107.68427
    },
    {
        "cityId": 1905569,
        "name": "Huy\u1ec7n \u0110\u1ee9c Linh",
        "stateId": 1581882,
        "latitude": 11.17774,
        "longitude": 107.53015
    },
    {
        "cityId": 1905570,
        "name": "Huy\u1ec7n Ph\u00fa Qu\u00fd",
        "stateId": 1581882,
        "latitude": 10.52933,
        "longitude": 108.94376
    },
    {
        "cityId": 8998373,
        "name": "Th\u1ecb X\u00e3 La Gi",
        "stateId": 1581882,
        "latitude": 10.72311,
        "longitude": 107.78911
    }
]