[
    {
        "cityId": 1905086,
        "name": "Qu\u1eadn L\u00ea Ch\u00e2n",
        "stateId": 1581297,
        "latitude": 20.84648,
        "longitude": 106.67364
    },
    {
        "cityId": 1905087,
        "name": "Qu\u1eadn Ng\u00f4 Quy\u1ec1n",
        "stateId": 1581297,
        "latitude": 20.8577,
        "longitude": 106.70172
    },
    {
        "cityId": 1905088,
        "name": "Qu\u1eadn Ki\u1ebfn An",
        "stateId": 1581297,
        "latitude": 20.80585,
        "longitude": 106.63612
    },
    {
        "cityId": 1905089,
        "name": "Qu\u1eadn \u0110\u1ed3 S\u01a1n",
        "stateId": 1581297,
        "latitude": 20.72434,
        "longitude": 106.76837
    },
    {
        "cityId": 1905090,
        "name": "Huy\u1ec7n An D\u01b0\u01a1ng",
        "stateId": 1581297,
        "latitude": 20.87274,
        "longitude": 106.5875
    },
    {
        "cityId": 1905091,
        "name": "Huy\u1ec7n Th\u1ee7y Nguy\u00ean",
        "stateId": 1581297,
        "latitude": 20.9493,
        "longitude": 106.67833
    },
    {
        "cityId": 1905092,
        "name": "Huy\u1ec7n An L\u00e3o",
        "stateId": 1581297,
        "latitude": 20.80654,
        "longitude": 106.56273
    },
    {
        "cityId": 1905093,
        "name": "Huy\u1ec7n Ki\u1ebfn Th\u1ee5y",
        "stateId": 1581297,
        "latitude": 20.72987,
        "longitude": 106.66459
    },
    {
        "cityId": 1905094,
        "name": "Huy\u1ec7n Ti\u00ean L\u00e3ng",
        "stateId": 1581297,
        "latitude": 20.69968,
        "longitude": 106.58733
    },
    {
        "cityId": 1905095,
        "name": "Huy\u1ec7n V\u0129nh B\u1ea3o",
        "stateId": 1581297,
        "latitude": 20.66263,
        "longitude": 106.485
    },
    {
        "cityId": 1905096,
        "name": "Huy\u1ec7n C\u00e1t H\u1ea3i",
        "stateId": 1581297,
        "latitude": 20.80633,
        "longitude": 106.99747
    },
    {
        "cityId": 1905097,
        "name": "Huy\u1ec7n B\u1ea1ch Long V\u1ef9",
        "stateId": 1581297,
        "latitude": 20.13435,
        "longitude": 107.73032
    },
    {
        "cityId": 1905858,
        "name": "Qu\u1eadn H\u1ed3ng B\u00e0ng",
        "stateId": 1581297,
        "latitude": 20.86911,
        "longitude": 106.65703
    },
    {
        "cityId": 8594850,
        "name": "Qu\u1eadn D\u01b0\u01a1ng Kinh",
        "stateId": 1581297,
        "latitude": 20.7766,
        "longitude": 106.71786
    },
    {
        "cityId": 11497304,
        "name": "Qu\u1eadn H\u1ea3i An",
        "stateId": 1581297,
        "latitude": 20.84332,
        "longitude": 106.73561
    }
]