[
    {
        "cityId": "1904985",
        "name": "Th\u00e0nh Ph\u1ed1 Bu\u00f4n Ma Thu\u1ed9t",
        "stateId": "1584169",
        "latitude": 12.65766,
        "longitude": 108.02831
    },
    {
        "cityId": "1904989",
        "name": "Huy\u1ec7n Bu\u00f4n \u0110\u00f4n",
        "stateId": "1584169",
        "latitude": 12.90396,
        "longitude": 107.7387
    },
    {
        "cityId": "1904990",
        "name": "Huy\u1ec7n Ea S\u00fap",
        "stateId": "1584169",
        "latitude": 13.18279,
        "longitude": 107.79954
    },
    {
        "cityId": "2591717",
        "name": "Huy\u1ec7n L\u1eafk",
        "stateId": "1584169",
        "latitude": 12.31988,
        "longitude": 108.21041
    },
    {
        "cityId": "2591721",
        "name": "Huy\u1ec7n Kr\u00f4ng Ana",
        "stateId": "1584169",
        "latitude": 12.5,
        "longitude": 108.08333
    },
    {
        "cityId": "2591722",
        "name": "Huy\u1ec7n Kr\u00f4ng B\u00f4ng",
        "stateId": "1584169",
        "latitude": 12.46423,
        "longitude": 108.5054
    },
    {
        "cityId": "2591723",
        "name": "Huy\u1ec7n Kr\u00f4ng P\u0103k",
        "stateId": "1584169",
        "latitude": 12.69292,
        "longitude": 108.36453
    },
    {
        "cityId": "2591724",
        "name": "Huy\u1ec7n Ea Kar",
        "stateId": "1584169",
        "latitude": 12.78609,
        "longitude": 108.51529
    },
    {
        "cityId": "2591725",
        "name": "Huy\u1ec7n M\u2019\u0110r\u1eafk",
        "stateId": "1584169",
        "latitude": 12.69833,
        "longitude": 108.82262
    },
    {
        "cityId": "2591727",
        "name": "Huy\u1ec7n C\u01b0 M\u2019Gar",
        "stateId": "1584169",
        "latitude": 12.88024,
        "longitude": 108.07563
    },
    {
        "cityId": "2591728",
        "name": "Huy\u1ec7n Kr\u00f4ng B\u00fak",
        "stateId": "1584169",
        "latitude": 13.02098,
        "longitude": 108.20683
    },
    {
        "cityId": "2591729",
        "name": "Huy\u1ec7n Kr\u00f4ng N\u0103ng",
        "stateId": "1584169",
        "latitude": 13,
        "longitude": 108.41667
    },
    {
        "cityId": "2591730",
        "name": "Huy\u1ec7n Ea H'Leo",
        "stateId": "1584169",
        "latitude": 13.31814,
        "longitude": 108.07148
    },
    {
        "cityId": "8724351",
        "name": "Huy\u1ec7n C\u01b0 Kuin",
        "stateId": "1584169",
        "latitude": 12.58658,
        "longitude": 108.1806
    },
    {
        "cityId": "8724352",
        "name": "Th\u1ecb X\u00e3 Bu\u00f4n H\u1ed3",
        "stateId": "1584169",
        "latitude": 12.84456,
        "longitude": 108.28366
    }
]