[
    {
        "cityId": "1904896",
        "name": "Th\u00e0nh Ph\u1ed1 V\u0169ng T\u00e0u",
        "stateId": "1584534",
        "latitude": 10.40239,
        "longitude": 107.14239
    },
    {
        "cityId": "1904897",
        "name": "Th\u00e0nh Ph\u1ed1 B\u00e0 R\u1ecba",
        "stateId": "1584534",
        "latitude": 10.51144,
        "longitude": 107.19002
    },
    {
        "cityId": "1904898",
        "name": "Huy\u1ec7n T\u00e2n Th\u00e0nh",
        "stateId": "1584534",
        "latitude": 10.57381,
        "longitude": 107.10189
    },
    {
        "cityId": "1904899",
        "name": "Huy\u1ec7n Ch\u00e2u \u0110\u1ee9c",
        "stateId": "1584534",
        "latitude": 10.65805,
        "longitude": 107.25098
    },
    {
        "cityId": "1904900",
        "name": "Huy\u1ec7n \u0110\u1ea5t \u0110\u1ecf",
        "stateId": "1584534",
        "latitude": 10.48025,
        "longitude": 107.27879
    },
    {
        "cityId": "1904901",
        "name": "Huy\u1ec7n Xuy\u00ean M\u1ed9c",
        "stateId": "1584534",
        "latitude": 10.63048,
        "longitude": 107.46568
    },
    {
        "cityId": "1904903",
        "name": "Huy\u1ec7n C\u00f4n \u0110\u1ea3o",
        "stateId": "1584534",
        "latitude": 8.64361,
        "longitude": 106.69455
    },
    {
        "cityId": "8421398",
        "name": "Huy\u1ec7n Long \u0110i\u1ec1n",
        "stateId": "1584534",
        "latitude": 10.45138,
        "longitude": 107.22691
    }
]