[
    {
        "cityId": 1905469,
        "name": "Qu\u1eadn Thanh Kh\u00ea",
        "stateId": 1905468,
        "latitude": 16.06726,
        "longitude": 108.1846
    },
    {
        "cityId": 1905470,
        "name": "Qu\u1eadn S\u01a1n Tr\u00e0",
        "stateId": 1905468,
        "latitude": 16.11082,
        "longitude": 108.2641
    },
    {
        "cityId": 1905471,
        "name": "Qu\u1eadn Ng\u0169 H\u00e0nh S\u01a1n",
        "stateId": 1905468,
        "latitude": 16,
        "longitude": 108.25
    },
    {
        "cityId": 1905472,
        "name": "Qu\u1eadn Li\u00ean Chi\u1ec3u",
        "stateId": 1905468,
        "latitude": 16.11477,
        "longitude": 108.12431
    },
    {
        "cityId": 1905473,
        "name": "Huy\u1ec7n H\u00f2a Vang",
        "stateId": 1905468,
        "latitude": 16.06713,
        "longitude": 108.03652
    },
    {
        "cityId": 1905474,
        "name": "Huy\u1ec7n Ho\u00e0ng Sa",
        "stateId": 1905468,
        "latitude": 16.5,
        "longitude": 112
    },
    {
        "cityId": 1905868,
        "name": "Qu\u1eadn H\u1ea3i Ch\u00e2u",
        "stateId": 1905468,
        "latitude": 16.04176,
        "longitude": 108.21346
    },
    {
        "cityId": 8656304,
        "name": "Qu\u1eadn C\u1ea9m L\u1ec7",
        "stateId": 1905468,
        "latitude": 16.0124,
        "longitude": 108.19949
    }
]