[
    {
        "cityId": "7530772",
        "name": "Bia\u0142ystok",
        "stateId": "858789",
        "latitude": 53.12744,
        "longitude": 23.15649
    },
    {
        "cityId": "7530773",
        "name": "\u0141om\u017ca",
        "stateId": "858789",
        "latitude": 53.18267,
        "longitude": 22.05888
    },
    {
        "cityId": "7530826",
        "name": "Powiat kolne\u0144ski",
        "stateId": "858789",
        "latitude": 53.39186,
        "longitude": 21.93631
    },
    {
        "cityId": "7530827",
        "name": "Powiat \u0142om\u017cy\u0144ski",
        "stateId": "858789",
        "latitude": 53.20686,
        "longitude": 22.08252
    },
    {
        "cityId": "7530828",
        "name": "Powiat zambrowski",
        "stateId": "858789",
        "latitude": 53.02256,
        "longitude": 22.28505
    },
    {
        "cityId": "7530841",
        "name": "Powiat augustowski",
        "stateId": "858789",
        "latitude": 53.79742,
        "longitude": 23.14275
    },
    {
        "cityId": "7530900",
        "name": "Powiat siemiatycki",
        "stateId": "858789",
        "latitude": 52.48842,
        "longitude": 22.88642
    },
    {
        "cityId": "7530941",
        "name": "Suwa\u0142ki",
        "stateId": "858789",
        "latitude": 54.10272,
        "longitude": 22.92914
    },
    {
        "cityId": "7531042",
        "name": "Powiat wysokomazowiecki",
        "stateId": "858789",
        "latitude": 52.86458,
        "longitude": 22.55541
    },
    {
        "cityId": "7531060",
        "name": "Powiat bia\u0142ostocki",
        "stateId": "858789",
        "latitude": 53.09897,
        "longitude": 23.59314
    },
    {
        "cityId": "7531061",
        "name": "Powiat bielski",
        "stateId": "858789",
        "latitude": 52.74629,
        "longitude": 23.00669
    },
    {
        "cityId": "7531062",
        "name": "Powiat grajewski",
        "stateId": "858789",
        "latitude": 53.55509,
        "longitude": 22.48995
    },
    {
        "cityId": "7531063",
        "name": "Powiat hajnowski",
        "stateId": "858789",
        "latitude": 52.70845,
        "longitude": 23.55719
    },
    {
        "cityId": "7531064",
        "name": "Powiat moniecki",
        "stateId": "858789",
        "latitude": 53.44561,
        "longitude": 22.78144
    },
    {
        "cityId": "7531065",
        "name": "Powiat sejne\u0144ski",
        "stateId": "858789",
        "latitude": 54.09561,
        "longitude": 23.30425
    },
    {
        "cityId": "7531066",
        "name": "Powiat sok\u00f3lski",
        "stateId": "858789",
        "latitude": 53.43511,
        "longitude": 23.41864
    },
    {
        "cityId": "7531067",
        "name": "Powiat suwalski",
        "stateId": "858789",
        "latitude": 54.16655,
        "longitude": 22.81818
    }
]