[
    {
        "cityId": "7733376",
        "name": "Reynosa",
        "stateId": "3516391",
        "latitude": 26.07517,
        "longitude": -98.30832
    },
    {
        "cityId": "8581710",
        "name": "Aldama",
        "stateId": "3516391",
        "latitude": 23.00048,
        "longitude": -98.0312
    },
    {
        "cityId": "8582846",
        "name": "Jaumave",
        "stateId": "3516391",
        "latitude": 23.45148,
        "longitude": -99.40285
    },
    {
        "cityId": "8583147",
        "name": "Jim\u00e9nez",
        "stateId": "3516391",
        "latitude": 24.26262,
        "longitude": -98.49656
    },
    {
        "cityId": "8583451",
        "name": "Abasolo",
        "stateId": "3516391",
        "latitude": 24.10458,
        "longitude": -98.30689
    },
    {
        "cityId": "8583452",
        "name": "Altamira",
        "stateId": "3516391",
        "latitude": 22.5251,
        "longitude": -98.06952
    },
    {
        "cityId": "8583453",
        "name": "Antiguo Morelos",
        "stateId": "3516391",
        "latitude": 22.5949,
        "longitude": -99.09853
    },
    {
        "cityId": "8583454",
        "name": "Burgos",
        "stateId": "3516391",
        "latitude": 24.94938,
        "longitude": -98.80472
    },
    {
        "cityId": "8583455",
        "name": "Bustamante",
        "stateId": "3516391",
        "latitude": 23.3298,
        "longitude": -99.9114
    },
    {
        "cityId": "8583456",
        "name": "Camargo",
        "stateId": "3516391",
        "latitude": 26.2313,
        "longitude": -98.85019
    },
    {
        "cityId": "8583457",
        "name": "Casas",
        "stateId": "3516391",
        "latitude": 23.58092,
        "longitude": -98.66703
    },
    {
        "cityId": "8583458",
        "name": "Ciudad Madero",
        "stateId": "3516391",
        "latitude": 22.27639,
        "longitude": -97.83139
    },
    {
        "cityId": "8583459",
        "name": "Cruillas",
        "stateId": "3516391",
        "latitude": 24.64123,
        "longitude": -98.39984
    },
    {
        "cityId": "8583460",
        "name": "G\u00f3mez Far\u00edas",
        "stateId": "3516391",
        "latitude": 22.96143,
        "longitude": -99.07734
    },
    {
        "cityId": "8583461",
        "name": "Gonz\u00e1lez",
        "stateId": "3516391",
        "latitude": 22.75541,
        "longitude": -98.53254
    },
    {
        "cityId": "8583462",
        "name": "G\u00fc\u00e9mez",
        "stateId": "3516391",
        "latitude": 23.90693,
        "longitude": -99.06872
    },
    {
        "cityId": "8583463",
        "name": "Guerrero",
        "stateId": "3516391",
        "latitude": 26.90952,
        "longitude": -99.45995
    },
    {
        "cityId": "8583464",
        "name": "Gustavo D\u00edaz Ordaz",
        "stateId": "3516391",
        "latitude": 26.1613,
        "longitude": -98.64045
    },
    {
        "cityId": "8583465",
        "name": "Hidalgo",
        "stateId": "3516391",
        "latitude": 24.21534,
        "longitude": -99.35608
    },
    {
        "cityId": "8583466",
        "name": "Llera",
        "stateId": "3516391",
        "latitude": 23.26609,
        "longitude": -98.91836
    },
    {
        "cityId": "8583467",
        "name": "Mainero",
        "stateId": "3516391",
        "latitude": 24.58503,
        "longitude": -99.56313
    },
    {
        "cityId": "8583468",
        "name": "El Mante",
        "stateId": "3516391",
        "latitude": 22.67241,
        "longitude": -98.9382
    },
    {
        "cityId": "8583469",
        "name": "Matamoros",
        "stateId": "3516391",
        "latitude": 25.72171,
        "longitude": -97.60135
    },
    {
        "cityId": "8583470",
        "name": "M\u00e9ndez",
        "stateId": "3516391",
        "latitude": 25.23503,
        "longitude": -98.44781
    },
    {
        "cityId": "8583471",
        "name": "Mier",
        "stateId": "3516391",
        "latitude": 26.43128,
        "longitude": -99.23256
    },
    {
        "cityId": "8583472",
        "name": "Miguel Alem\u00e1n",
        "stateId": "3516391",
        "latitude": 26.26713,
        "longitude": -99.06203
    },
    {
        "cityId": "8583473",
        "name": "Miquihuana",
        "stateId": "3516391",
        "latitude": 23.60254,
        "longitude": -99.77922
    },
    {
        "cityId": "8583474",
        "name": "Nuevo Laredo",
        "stateId": "3516391",
        "latitude": 27.4545,
        "longitude": -99.62697
    },
    {
        "cityId": "8583475",
        "name": "Nuevo Morelos",
        "stateId": "3516391",
        "latitude": 22.50112,
        "longitude": -99.20159
    },
    {
        "cityId": "8583476",
        "name": "Ocampo",
        "stateId": "3516391",
        "latitude": 22.83612,
        "longitude": -99.28281
    },
    {
        "cityId": "8583477",
        "name": "Padilla",
        "stateId": "3516391",
        "latitude": 24.05571,
        "longitude": -98.89671
    },
    {
        "cityId": "8583478",
        "name": "Palmillas",
        "stateId": "3516391",
        "latitude": 23.24434,
        "longitude": -99.55698
    },
    {
        "cityId": "8583479",
        "name": "R\u00edo Bravo",
        "stateId": "3516391",
        "latitude": 25.83854,
        "longitude": -98.03879
    },
    {
        "cityId": "8583480",
        "name": "San Carlos",
        "stateId": "3516391",
        "latitude": 24.40291,
        "longitude": -98.98898
    },
    {
        "cityId": "8583481",
        "name": "San Fernando",
        "stateId": "3516391",
        "latitude": 24.91613,
        "longitude": -98.03549
    },
    {
        "cityId": "8583482",
        "name": "San Nicol\u00e1s",
        "stateId": "3516391",
        "latitude": 24.64676,
        "longitude": -98.80515
    },
    {
        "cityId": "8583483",
        "name": "Soto la Marina",
        "stateId": "3516391",
        "latitude": 23.72796,
        "longitude": -98.03044
    },
    {
        "cityId": "8583484",
        "name": "Tampico",
        "stateId": "3516391",
        "latitude": 22.29508,
        "longitude": -97.93595
    },
    {
        "cityId": "8583485",
        "name": "Tula",
        "stateId": "3516391",
        "latitude": 22.97028,
        "longitude": -99.70257
    },
    {
        "cityId": "8583486",
        "name": "Valle Hermoso",
        "stateId": "3516391",
        "latitude": 25.69636,
        "longitude": -97.83819
    },
    {
        "cityId": "8583487",
        "name": "Victoria",
        "stateId": "3516391",
        "latitude": 23.75836,
        "longitude": -99.13489
    },
    {
        "cityId": "8583488",
        "name": "Villagr\u00e1n",
        "stateId": "3516391",
        "latitude": 24.51731,
        "longitude": -99.41872
    },
    {
        "cityId": "8583489",
        "name": "Xicot\u00e9ncatl",
        "stateId": "3516391",
        "latitude": 23.00986,
        "longitude": -98.98315
    }
]