[
    {
        "cityId": 8582719,
        "name": "Centla",
        "stateId": 3516458,
        "latitude": 18.43932,
        "longitude": -92.69324
    },
    {
        "cityId": 8583010,
        "name": "Centro",
        "stateId": 3516458,
        "latitude": 17.98633,
        "longitude": -92.88674
    },
    {
        "cityId": 8583436,
        "name": "Balanc\u00e1n",
        "stateId": 3516458,
        "latitude": 17.82644,
        "longitude": -91.37517
    },
    {
        "cityId": 8583437,
        "name": "C\u00e1rdenas",
        "stateId": 3516458,
        "latitude": 18.13421,
        "longitude": -93.55794
    },
    {
        "cityId": 8583438,
        "name": "Comalcalco",
        "stateId": 3516458,
        "latitude": 18.26537,
        "longitude": -93.30409
    },
    {
        "cityId": 8583439,
        "name": "Cunduac\u00e1n",
        "stateId": 3516458,
        "latitude": 18.08138,
        "longitude": -93.23153
    },
    {
        "cityId": 8583440,
        "name": "Emiliano Zapata",
        "stateId": 3516458,
        "latitude": 17.70519,
        "longitude": -91.67578
    },
    {
        "cityId": 8583441,
        "name": "Huimanguillo",
        "stateId": 3516458,
        "latitude": 17.81531,
        "longitude": -93.66702
    },
    {
        "cityId": 8583442,
        "name": "Jalapa",
        "stateId": 3516458,
        "latitude": 17.78215,
        "longitude": -92.77595
    },
    {
        "cityId": 8583443,
        "name": "Jalpa de M\u00e9ndez",
        "stateId": 3516458,
        "latitude": 18.19056,
        "longitude": -93.09227
    },
    {
        "cityId": 8583444,
        "name": "Jonuta",
        "stateId": 3516458,
        "latitude": 18.0548,
        "longitude": -92.12308
    },
    {
        "cityId": 8583445,
        "name": "Macuspana",
        "stateId": 3516458,
        "latitude": 17.81478,
        "longitude": -92.47023
    },
    {
        "cityId": 8583446,
        "name": "Nacajuca",
        "stateId": 3516458,
        "latitude": 18.13859,
        "longitude": -92.96032
    },
    {
        "cityId": 8583447,
        "name": "Para\u00edso",
        "stateId": 3516458,
        "latitude": 18.37602,
        "longitude": -93.19989
    },
    {
        "cityId": 8583448,
        "name": "Tacotalpa",
        "stateId": 3516458,
        "latitude": 17.50754,
        "longitude": -92.75309
    },
    {
        "cityId": 8583449,
        "name": "Teapa",
        "stateId": 3516458,
        "latitude": 17.60264,
        "longitude": -92.95149
    },
    {
        "cityId": 8583450,
        "name": "Tenosique",
        "stateId": 3516458,
        "latitude": 17.43343,
        "longitude": -91.30637
    }
]