[
    {
        "cityId": 8582472,
        "name": "Abejones",
        "stateId": 3522509,
        "latitude": 17.4325,
        "longitude": -96.60417
    },
    {
        "cityId": 8582473,
        "name": "Acatl\u00e1n de P\u00e9rez Figueroa",
        "stateId": 3522509,
        "latitude": 18.48357,
        "longitude": -96.52819
    },
    {
        "cityId": 8582474,
        "name": "Asunci\u00f3n Cacalotepec",
        "stateId": 3522509,
        "latitude": 17.0347,
        "longitude": -95.93361
    },
    {
        "cityId": 8582475,
        "name": "Asunci\u00f3n Cuyotepeji",
        "stateId": 3522509,
        "latitude": 17.92426,
        "longitude": -97.6794
    },
    {
        "cityId": 8582476,
        "name": "Asunci\u00f3n Ixtaltepec",
        "stateId": 3522509,
        "latitude": 16.5482,
        "longitude": -95.03043
    },
    {
        "cityId": 8582477,
        "name": "Asunci\u00f3n Nochixtl\u00e1n",
        "stateId": 3522509,
        "latitude": 17.43751,
        "longitude": -97.17967
    },
    {
        "cityId": 8582478,
        "name": "Asunci\u00f3n Ocotl\u00e1n",
        "stateId": 3522509,
        "latitude": 16.75722,
        "longitude": -96.72194
    },
    {
        "cityId": 8582479,
        "name": "Asunci\u00f3n Tlacolulita",
        "stateId": 3522509,
        "latitude": 16.22612,
        "longitude": -95.7662
    },
    {
        "cityId": 8582480,
        "name": "Ayotzintepec",
        "stateId": 3522509,
        "latitude": 17.71909,
        "longitude": -96.14202
    },
    {
        "cityId": 8582481,
        "name": "El Barrio de la Soledad",
        "stateId": 3522509,
        "latitude": 16.80131,
        "longitude": -95.03909
    },
    {
        "cityId": 8582482,
        "name": "Calihual\u00e1",
        "stateId": 3522509,
        "latitude": 17.53983,
        "longitude": -98.26756
    },
    {
        "cityId": 8582483,
        "name": "Candelaria Loxicha",
        "stateId": 3522509,
        "latitude": 15.92801,
        "longitude": -96.51749
    },
    {
        "cityId": 8582484,
        "name": "Ci\u00e9nega de Zimatl\u00e1n",
        "stateId": 3522509,
        "latitude": 16.89366,
        "longitude": -96.76801
    },
    {
        "cityId": 8582485,
        "name": "Ciudad Ixtepec",
        "stateId": 3522509,
        "latitude": 16.57628,
        "longitude": -95.10983
    },
    {
        "cityId": 8582486,
        "name": "Coatecas Altas",
        "stateId": 3522509,
        "latitude": 16.52022,
        "longitude": -96.61657
    },
    {
        "cityId": 8582487,
        "name": "Coicoy\u00e1n de las Flores",
        "stateId": 3522509,
        "latitude": 17.21594,
        "longitude": -98.18371
    },
    {
        "cityId": 8582488,
        "name": "La Compa\u00f1\u00eda",
        "stateId": 3522509,
        "latitude": 16.57368,
        "longitude": -96.83838
    },
    {
        "cityId": 8582489,
        "name": "Concepci\u00f3n Buenavista",
        "stateId": 3522509,
        "latitude": 17.96072,
        "longitude": -97.42863
    },
    {
        "cityId": 8582490,
        "name": "Concepci\u00f3n P\u00e1palo",
        "stateId": 3522509,
        "latitude": 17.85391,
        "longitude": -96.84472
    },
    {
        "cityId": 8582491,
        "name": "Constancia del Rosario",
        "stateId": 3522509,
        "latitude": 17.05972,
        "longitude": -97.99546
    },
    {
        "cityId": 8582492,
        "name": "Cosolapa",
        "stateId": 3522509,
        "latitude": 18.58423,
        "longitude": -96.66304
    },
    {
        "cityId": 8582493,
        "name": "Cosoltepec",
        "stateId": 3522509,
        "latitude": 18.13942,
        "longitude": -97.80552
    },
    {
        "cityId": 8582494,
        "name": "Cuil\u00e1pam de Guerrero",
        "stateId": 3522509,
        "latitude": 17.00391,
        "longitude": -96.78173
    },
    {
        "cityId": 8582495,
        "name": "Cuyamecalco Villa de Zaragoza",
        "stateId": 3522509,
        "latitude": 17.96703,
        "longitude": -96.83944
    },
    {
        "cityId": 8582496,
        "name": "Chahuites",
        "stateId": 3522509,
        "latitude": 16.27267,
        "longitude": -94.19986
    },
    {
        "cityId": 8582497,
        "name": "Chalcatongo de Hidalgo",
        "stateId": 3522509,
        "latitude": 16.99293,
        "longitude": -97.54976
    },
    {
        "cityId": 8582498,
        "name": "Chiquihuitl\u00e1n de Benito Ju\u00e1rez",
        "stateId": 3522509,
        "latitude": 17.99062,
        "longitude": -96.75583
    },
    {
        "cityId": 8582499,
        "name": "Heroica Ciudad de Ejutla de Crespo",
        "stateId": 3522509,
        "latitude": 16.57835,
        "longitude": -96.73079
    },
    {
        "cityId": 8582500,
        "name": "Eloxochitl\u00e1n de Flores Mag\u00f3n",
        "stateId": 3522509,
        "latitude": 18.18584,
        "longitude": -96.87721
    },
    {
        "cityId": 8582501,
        "name": "El Espinal",
        "stateId": 3522509,
        "latitude": 16.46751,
        "longitude": -95.04198
    },
    {
        "cityId": 8582502,
        "name": "Tamazul\u00e1pam del Esp\u00edritu Santo",
        "stateId": 3522509,
        "latitude": 17.0377,
        "longitude": -96.03562
    },
    {
        "cityId": 8582503,
        "name": "Fresnillo de Trujano",
        "stateId": 3522509,
        "latitude": 17.92505,
        "longitude": -98.13278
    },
    {
        "cityId": 8582504,
        "name": "Guadalupe Etla",
        "stateId": 3522509,
        "latitude": 17.17907,
        "longitude": -96.7975
    },
    {
        "cityId": 8582505,
        "name": "Guadalupe de Ram\u00edrez",
        "stateId": 3522509,
        "latitude": 17.75445,
        "longitude": -98.1643
    },
    {
        "cityId": 8582506,
        "name": "Guelatao de Ju\u00e1rez",
        "stateId": 3522509,
        "latitude": 17.31479,
        "longitude": -96.50014
    },
    {
        "cityId": 8582507,
        "name": "Guevea de Humboldt",
        "stateId": 3522509,
        "latitude": 16.81078,
        "longitude": -95.39203
    },
    {
        "cityId": 8582508,
        "name": "Mesones Hidalgo",
        "stateId": 3522509,
        "latitude": 16.92208,
        "longitude": -97.99765
    },
    {
        "cityId": 8582509,
        "name": "Villa Hidalgo",
        "stateId": 3522509,
        "latitude": 17.18115,
        "longitude": -96.16892
    },
    {
        "cityId": 8582510,
        "name": "Heroica Ciudad de Huajuapan de Le\u00f3n",
        "stateId": 3522509,
        "latitude": 17.82307,
        "longitude": -97.78635
    },
    {
        "cityId": 8582511,
        "name": "Huautepec",
        "stateId": 3522509,
        "latitude": 18.08382,
        "longitude": -96.79404
    },
    {
        "cityId": 8582512,
        "name": "Huautla de Jim\u00e9nez",
        "stateId": 3522509,
        "latitude": 18.14518,
        "longitude": -96.8035
    },
    {
        "cityId": 8582513,
        "name": "Ixtl\u00e1n de Ju\u00e1rez",
        "stateId": 3522509,
        "latitude": 17.49468,
        "longitude": -96.33925
    },
    {
        "cityId": 8582514,
        "name": "Heroica Ciudad de Juchit\u00e1n de Zaragoza",
        "stateId": 3522509,
        "latitude": 16.44873,
        "longitude": -94.98619
    },
    {
        "cityId": 8582515,
        "name": "Loma Bonita",
        "stateId": 3522509,
        "latitude": 18.0188,
        "longitude": -95.88829
    },
    {
        "cityId": 8582516,
        "name": "Magdalena Apasco",
        "stateId": 3522509,
        "latitude": 17.23556,
        "longitude": -96.82469
    },
    {
        "cityId": 8582517,
        "name": "Magdalena Jaltepec",
        "stateId": 3522509,
        "latitude": 17.2896,
        "longitude": -97.22669
    },
    {
        "cityId": 8582518,
        "name": "Santa Magdalena Jicotl\u00e1n",
        "stateId": 3522509,
        "latitude": 17.80819,
        "longitude": -97.47389
    },
    {
        "cityId": 8582519,
        "name": "Magdalena Mixtepec",
        "stateId": 3522509,
        "latitude": 16.89053,
        "longitude": -96.91722
    },
    {
        "cityId": 8582520,
        "name": "Magdalena Ocotl\u00e1n",
        "stateId": 3522509,
        "latitude": 16.70889,
        "longitude": -96.71176
    },
    {
        "cityId": 8582521,
        "name": "Magdalena Pe\u00f1asco",
        "stateId": 3522509,
        "latitude": 17.23831,
        "longitude": -97.5614
    },
    {
        "cityId": 8582522,
        "name": "Magdalena Teitipac",
        "stateId": 3522509,
        "latitude": 16.90231,
        "longitude": -96.56176
    },
    {
        "cityId": 8582523,
        "name": "Magdalena Tequisistl\u00e1n",
        "stateId": 3522509,
        "latitude": 16.40497,
        "longitude": -95.62065
    },
    {
        "cityId": 8582524,
        "name": "Magdalena Tlacotepec",
        "stateId": 3522509,
        "latitude": 16.50898,
        "longitude": -95.20102
    },
    {
        "cityId": 8582525,
        "name": "Magdalena Zahuatl\u00e1n",
        "stateId": 3522509,
        "latitude": 17.39139,
        "longitude": -97.22708
    },
    {
        "cityId": 8582526,
        "name": "Mariscala de Ju\u00e1rez",
        "stateId": 3522509,
        "latitude": 17.84782,
        "longitude": -98.1362
    },
    {
        "cityId": 8582527,
        "name": "M\u00e1rtires de Tacubaya",
        "stateId": 3522509,
        "latitude": 16.54618,
        "longitude": -98.24174
    },
    {
        "cityId": 8582528,
        "name": "Mat\u00edas Romero Avenda\u00f1o",
        "stateId": 3522509,
        "latitude": 17.20162,
        "longitude": -95.0217
    },
    {
        "cityId": 8582529,
        "name": "Mazatl\u00e1n Villa de Flores",
        "stateId": 3522509,
        "latitude": 18.03498,
        "longitude": -96.92221
    },
    {
        "cityId": 8582530,
        "name": "Miahuatl\u00e1n de Porfirio D\u00edaz",
        "stateId": 3522509,
        "latitude": 16.34489,
        "longitude": -96.61229
    },
    {
        "cityId": 8582531,
        "name": "Mixistl\u00e1n de la Reforma",
        "stateId": 3522509,
        "latitude": 17.14669,
        "longitude": -96.10669
    },
    {
        "cityId": 8582532,
        "name": "Monjas",
        "stateId": 3522509,
        "latitude": 16.39363,
        "longitude": -96.63406
    },
    {
        "cityId": 8582533,
        "name": "Natividad",
        "stateId": 3522509,
        "latitude": 17.29639,
        "longitude": -96.43194
    },
    {
        "cityId": 8582534,
        "name": "Nazareno Etla",
        "stateId": 3522509,
        "latitude": 17.17667,
        "longitude": -96.83264
    },
    {
        "cityId": 8582535,
        "name": "Nejapa de Madero",
        "stateId": 3522509,
        "latitude": 16.56317,
        "longitude": -95.99305
    },
    {
        "cityId": 8582536,
        "name": "Ixpantepec Nieves",
        "stateId": 3522509,
        "latitude": 17.50552,
        "longitude": -98.03664
    },
    {
        "cityId": 8582538,
        "name": "Oaxaca de Ju\u00e1rez",
        "stateId": 3522509,
        "latitude": 17.11345,
        "longitude": -96.73556
    },
    {
        "cityId": 8582539,
        "name": "Ocotl\u00e1n de Morelos",
        "stateId": 3522509,
        "latitude": 16.78148,
        "longitude": -96.67398
    },
    {
        "cityId": 8582540,
        "name": "La Pe",
        "stateId": 3522509,
        "latitude": 16.61833,
        "longitude": -96.78931
    },
    {
        "cityId": 8582541,
        "name": "Pinotepa de Don Luis",
        "stateId": 3522509,
        "latitude": 16.40531,
        "longitude": -97.96684
    },
    {
        "cityId": 8582542,
        "name": "Pluma Hidalgo",
        "stateId": 3522509,
        "latitude": 15.92127,
        "longitude": -96.42977
    },
    {
        "cityId": 8582543,
        "name": "San Jos\u00e9 del Progreso",
        "stateId": 3522509,
        "latitude": 16.69909,
        "longitude": -96.68148
    },
    {
        "cityId": 8582544,
        "name": "Putla Villa de Guerrero",
        "stateId": 3522509,
        "latitude": 17.02733,
        "longitude": -97.87028
    },
    {
        "cityId": 8582545,
        "name": "Santa Catarina Quioquitani",
        "stateId": 3522509,
        "latitude": 16.31472,
        "longitude": -96.28444
    },
    {
        "cityId": 8582546,
        "name": "Reforma de Pineda",
        "stateId": 3522509,
        "latitude": 16.39989,
        "longitude": -94.451
    },
    {
        "cityId": 8582547,
        "name": "La Reforma",
        "stateId": 3522509,
        "latitude": 16.65776,
        "longitude": -97.86005
    },
    {
        "cityId": 8582548,
        "name": "Reyes Etla",
        "stateId": 3522509,
        "latitude": 17.21451,
        "longitude": -96.81507
    },
    {
        "cityId": 8582549,
        "name": "Rojas de Cuauht\u00e9moc",
        "stateId": 3522509,
        "latitude": 17.00861,
        "longitude": -96.61944
    },
    {
        "cityId": 8582550,
        "name": "Salina Cruz",
        "stateId": 3522509,
        "latitude": 16.1949,
        "longitude": -95.21515
    },
    {
        "cityId": 8582551,
        "name": "San Agust\u00edn Amatengo",
        "stateId": 3522509,
        "latitude": 16.51542,
        "longitude": -96.78931
    },
    {
        "cityId": 8582552,
        "name": "San Agust\u00edn Atenango",
        "stateId": 3522509,
        "latitude": 17.59886,
        "longitude": -97.99889
    },
    {
        "cityId": 8582553,
        "name": "San Agust\u00edn Chayuco",
        "stateId": 3522509,
        "latitude": 16.44207,
        "longitude": -97.82645
    },
    {
        "cityId": 8582554,
        "name": "San Agust\u00edn de las Juntas",
        "stateId": 3522509,
        "latitude": 17.0073,
        "longitude": -96.70484
    },
    {
        "cityId": 8582555,
        "name": "San Agust\u00edn Etla",
        "stateId": 3522509,
        "latitude": 17.18659,
        "longitude": -96.75825
    },
    {
        "cityId": 8582556,
        "name": "San Agust\u00edn Loxicha",
        "stateId": 3522509,
        "latitude": 15.97926,
        "longitude": -96.62173
    },
    {
        "cityId": 8582557,
        "name": "San Agust\u00edn Tlacotepec",
        "stateId": 3522509,
        "latitude": 17.20927,
        "longitude": -97.51356
    },
    {
        "cityId": 8582558,
        "name": "San Agust\u00edn Yatareni",
        "stateId": 3522509,
        "latitude": 17.08635,
        "longitude": -96.67845
    },
    {
        "cityId": 8582559,
        "name": "San Andr\u00e9s Cabecera Nueva",
        "stateId": 3522509,
        "latitude": 16.85982,
        "longitude": -97.75695
    },
    {
        "cityId": 8582560,
        "name": "San Andr\u00e9s Dinicuiti",
        "stateId": 3522509,
        "latitude": 17.69633,
        "longitude": -97.69433
    },
    {
        "cityId": 8582561,
        "name": "San Andr\u00e9s Huaxpaltepec",
        "stateId": 3522509,
        "latitude": 16.33081,
        "longitude": -97.9053
    },
    {
        "cityId": 8582562,
        "name": "San Andr\u00e9s Huay\u00e1pam",
        "stateId": 3522509,
        "latitude": 17.09981,
        "longitude": -96.66832
    },
    {
        "cityId": 8582563,
        "name": "San Andr\u00e9s Ixtlahuaca",
        "stateId": 3522509,
        "latitude": 17.06979,
        "longitude": -96.84139
    },
    {
        "cityId": 8582564,
        "name": "San Andr\u00e9s Lagunas",
        "stateId": 3522509,
        "latitude": 17.57344,
        "longitude": -97.52283
    },
    {
        "cityId": 8582565,
        "name": "San Andr\u00e9s Nuxi\u00f1o",
        "stateId": 3522509,
        "latitude": 17.2349,
        "longitude": -97.06851
    },
    {
        "cityId": 8582566,
        "name": "San Andr\u00e9s Paxtl\u00e1n",
        "stateId": 3522509,
        "latitude": 16.20938,
        "longitude": -96.52537
    },
    {
        "cityId": 8582567,
        "name": "San Andr\u00e9s Sinaxtla",
        "stateId": 3522509,
        "latitude": 17.48541,
        "longitude": -97.27335
    },
    {
        "cityId": 8582568,
        "name": "San Andr\u00e9s Solaga",
        "stateId": 3522509,
        "latitude": 17.27042,
        "longitude": -96.22667
    },
    {
        "cityId": 8582569,
        "name": "San Andr\u00e9s Teotil\u00e1lpam",
        "stateId": 3522509,
        "latitude": 17.94684,
        "longitude": -96.61798
    },
    {
        "cityId": 8582570,
        "name": "San Andr\u00e9s Tepetlapa",
        "stateId": 3522509,
        "latitude": 17.66292,
        "longitude": -98.38944
    },
    {
        "cityId": 8582571,
        "name": "San Andr\u00e9s Ya\u00e1",
        "stateId": 3522509,
        "latitude": 17.2938,
        "longitude": -96.1488
    },
    {
        "cityId": 8582572,
        "name": "San Andr\u00e9s Zabache",
        "stateId": 3522509,
        "latitude": 16.59917,
        "longitude": -96.85889
    },
    {
        "cityId": 8582573,
        "name": "San Andr\u00e9s Zautla",
        "stateId": 3522509,
        "latitude": 17.18961,
        "longitude": -96.8573
    },
    {
        "cityId": 8582574,
        "name": "San Antonino Castillo Velasco",
        "stateId": 3522509,
        "latitude": 16.809,
        "longitude": -96.69267
    },
    {
        "cityId": 8582575,
        "name": "San Antonino el Alto",
        "stateId": 3522509,
        "latitude": 16.81984,
        "longitude": -97.02719
    },
    {
        "cityId": 8582576,
        "name": "San Antonino Monte Verde",
        "stateId": 3522509,
        "latitude": 17.51869,
        "longitude": -97.72654
    },
    {
        "cityId": 8582577,
        "name": "San Antonio Acutla",
        "stateId": 3522509,
        "latitude": 17.74463,
        "longitude": -97.49801
    },
    {
        "cityId": 8582578,
        "name": "San Antonio de la Cal",
        "stateId": 3522509,
        "latitude": 17.03092,
        "longitude": -96.69714
    },
    {
        "cityId": 8582579,
        "name": "San Antonio Huitepec",
        "stateId": 3522509,
        "latitude": 16.9214,
        "longitude": -97.13504
    },
    {
        "cityId": 8582580,
        "name": "San Antonio Nanahuat\u00edpam",
        "stateId": 3522509,
        "latitude": 18.14319,
        "longitude": -97.13181
    },
    {
        "cityId": 8582581,
        "name": "San Antonio Sinicahua",
        "stateId": 3522509,
        "latitude": 17.15319,
        "longitude": -97.57725
    },
    {
        "cityId": 8582582,
        "name": "San Antonio Tepetlapa",
        "stateId": 3522509,
        "latitude": 16.53215,
        "longitude": -98.06618
    },
    {
        "cityId": 8582583,
        "name": "San Baltazar Chichic\u00e1pam",
        "stateId": 3522509,
        "latitude": 16.76491,
        "longitude": -96.48648
    },
    {
        "cityId": 8582584,
        "name": "San Baltazar Loxicha",
        "stateId": 3522509,
        "latitude": 16.01429,
        "longitude": -96.79696
    },
    {
        "cityId": 8582585,
        "name": "San Baltazar Yatzachi el Bajo",
        "stateId": 3522509,
        "latitude": 17.22958,
        "longitude": -96.22046
    },
    {
        "cityId": 8582586,
        "name": "San Bartolo Coyotepec",
        "stateId": 3522509,
        "latitude": 16.94877,
        "longitude": -96.70977
    },
    {
        "cityId": 8582587,
        "name": "San Bartolom\u00e9 Ayautla",
        "stateId": 3522509,
        "latitude": 18.03758,
        "longitude": -96.67442
    },
    {
        "cityId": 8582588,
        "name": "San Bartolom\u00e9 Loxicha",
        "stateId": 3522509,
        "latitude": 15.93974,
        "longitude": -96.74637
    },
    {
        "cityId": 8582589,
        "name": "San Bartolom\u00e9 Quialana",
        "stateId": 3522509,
        "latitude": 16.90094,
        "longitude": -96.49994
    },
    {
        "cityId": 8582590,
        "name": "San Bartolom\u00e9 Yucua\u00f1e",
        "stateId": 3522509,
        "latitude": 17.23078,
        "longitude": -97.45194
    },
    {
        "cityId": 8582591,
        "name": "San Bartolom\u00e9 Zoogocho",
        "stateId": 3522509,
        "latitude": 17.23861,
        "longitude": -96.24167
    },
    {
        "cityId": 8582592,
        "name": "San Bartolo Soyaltepec",
        "stateId": 3522509,
        "latitude": 17.58563,
        "longitude": -97.30622
    },
    {
        "cityId": 8582593,
        "name": "San Bartolo Yautepec",
        "stateId": 3522509,
        "latitude": 16.43222,
        "longitude": -95.94493
    },
    {
        "cityId": 8582594,
        "name": "San Bernardo Mixtepec",
        "stateId": 3522509,
        "latitude": 16.84321,
        "longitude": -96.90571
    },
    {
        "cityId": 8582595,
        "name": "San Blas Atempa",
        "stateId": 3522509,
        "latitude": 16.3464,
        "longitude": -95.16384
    },
    {
        "cityId": 8582596,
        "name": "San Carlos Yautepec",
        "stateId": 3522509,
        "latitude": 16.42072,
        "longitude": -96.0906
    },
    {
        "cityId": 8582597,
        "name": "San Crist\u00f3bal Amatl\u00e1n",
        "stateId": 3522509,
        "latitude": 16.31045,
        "longitude": -96.38299
    },
    {
        "cityId": 8582598,
        "name": "San Crist\u00f3bal Amoltepec",
        "stateId": 3522509,
        "latitude": 17.28655,
        "longitude": -97.57885
    },
    {
        "cityId": 8582599,
        "name": "San Crist\u00f3bal Lachirioag",
        "stateId": 3522509,
        "latitude": 17.33861,
        "longitude": -96.16444
    },
    {
        "cityId": 8582600,
        "name": "San Crist\u00f3bal Suchixtlahuaca",
        "stateId": 3522509,
        "latitude": 17.72809,
        "longitude": -97.37038
    },
    {
        "cityId": 8582602,
        "name": "San Dionisio del Mar",
        "stateId": 3522509,
        "latitude": 16.32786,
        "longitude": -94.75103
    },
    {
        "cityId": 8582603,
        "name": "San Dionisio Ocotepec",
        "stateId": 3522509,
        "latitude": 16.76984,
        "longitude": -96.36972
    },
    {
        "cityId": 8582604,
        "name": "San Dionisio Ocotl\u00e1n",
        "stateId": 3522509,
        "latitude": 16.74489,
        "longitude": -96.66511
    },
    {
        "cityId": 8582605,
        "name": "San Esteban Atatlahuca",
        "stateId": 3522509,
        "latitude": 17.07585,
        "longitude": -97.69096
    },
    {
        "cityId": 8582606,
        "name": "San Felipe Jalapa de D\u00edaz",
        "stateId": 3522509,
        "latitude": 18.0778,
        "longitude": -96.52476
    },
    {
        "cityId": 8582607,
        "name": "San Felipe Tejal\u00e1pam",
        "stateId": 3522509,
        "latitude": 17.09684,
        "longitude": -96.86448
    },
    {
        "cityId": 8582608,
        "name": "San Felipe Usila",
        "stateId": 3522509,
        "latitude": 17.88964,
        "longitude": -96.48801
    },
    {
        "cityId": 8582609,
        "name": "San Francisco Cahuacu\u00e1",
        "stateId": 3522509,
        "latitude": 16.88061,
        "longitude": -97.34685
    },
    {
        "cityId": 8582610,
        "name": "San Francisco Cajonos",
        "stateId": 3522509,
        "latitude": 17.18086,
        "longitude": -96.26465
    },
    {
        "cityId": 8582611,
        "name": "San Francisco Chapulapa",
        "stateId": 3522509,
        "latitude": 17.92542,
        "longitude": -96.74948
    },
    {
        "cityId": 8582612,
        "name": "San Francisco Chind\u00faa",
        "stateId": 3522509,
        "latitude": 17.42602,
        "longitude": -97.30704
    },
    {
        "cityId": 8582613,
        "name": "San Francisco del Mar",
        "stateId": 3522509,
        "latitude": 16.207,
        "longitude": -94.55198
    },
    {
        "cityId": 8582614,
        "name": "San Francisco Huehuetl\u00e1n",
        "stateId": 3522509,
        "latitude": 18.19839,
        "longitude": -96.93772
    },
    {
        "cityId": 8582615,
        "name": "San Francisco Ixhuat\u00e1n",
        "stateId": 3522509,
        "latitude": 16.31382,
        "longitude": -94.47711
    },
    {
        "cityId": 8582616,
        "name": "San Francisco Jaltepetongo",
        "stateId": 3522509,
        "latitude": 17.34929,
        "longitude": -97.27704
    },
    {
        "cityId": 8582617,
        "name": "San Francisco Lachigol\u00f3",
        "stateId": 3522509,
        "latitude": 17.02505,
        "longitude": -96.59963
    },
    {
        "cityId": 8582618,
        "name": "San Francisco Logueche",
        "stateId": 3522509,
        "latitude": 16.37576,
        "longitude": -96.37907
    },
    {
        "cityId": 8582619,
        "name": "San Francisco Nuxa\u00f1o",
        "stateId": 3522509,
        "latitude": 17.37465,
        "longitude": -97.33882
    },
    {
        "cityId": 8582620,
        "name": "San Francisco Ozolotepec",
        "stateId": 3522509,
        "latitude": 16.08889,
        "longitude": -96.20407
    },
    {
        "cityId": 8582621,
        "name": "San Francisco Sola",
        "stateId": 3522509,
        "latitude": 16.52122,
        "longitude": -96.94347
    },
    {
        "cityId": 8582622,
        "name": "San Francisco Telixtlahuaca",
        "stateId": 3522509,
        "latitude": 17.37723,
        "longitude": -96.93906
    },
    {
        "cityId": 8582623,
        "name": "San Francisco Teopan",
        "stateId": 3522509,
        "latitude": 17.85536,
        "longitude": -97.50937
    },
    {
        "cityId": 8582624,
        "name": "San Francisco Tlapancingo",
        "stateId": 3522509,
        "latitude": 17.47829,
        "longitude": -98.28298
    },
    {
        "cityId": 8582625,
        "name": "San Gabriel Mixtepec",
        "stateId": 3522509,
        "latitude": 16.06993,
        "longitude": -97.07572
    },
    {
        "cityId": 8582626,
        "name": "San Ildefonso Amatl\u00e1n",
        "stateId": 3522509,
        "latitude": 16.28885,
        "longitude": -96.4524
    },
    {
        "cityId": 8582627,
        "name": "San Ildefonso Sola",
        "stateId": 3522509,
        "latitude": 16.55974,
        "longitude": -96.9706
    },
    {
        "cityId": 8582628,
        "name": "San Ildefonso Villa Alta",
        "stateId": 3522509,
        "latitude": 17.3725,
        "longitude": -96.10688
    },
    {
        "cityId": 8582629,
        "name": "San Jacinto Amilpas",
        "stateId": 3522509,
        "latitude": 17.10056,
        "longitude": -96.7625
    },
    {
        "cityId": 8582630,
        "name": "San Jacinto Tlacotepec",
        "stateId": 3522509,
        "latitude": 16.51993,
        "longitude": -97.37252
    },
    {
        "cityId": 8582631,
        "name": "San Jer\u00f3nimo Coatl\u00e1n",
        "stateId": 3522509,
        "latitude": 16.18341,
        "longitude": -96.97806
    },
    {
        "cityId": 8582632,
        "name": "San Jer\u00f3nimo Silacayoapilla",
        "stateId": 3522509,
        "latitude": 17.8125,
        "longitude": -97.84833
    },
    {
        "cityId": 8582633,
        "name": "San Jer\u00f3nimo Sosola",
        "stateId": 3522509,
        "latitude": 17.39288,
        "longitude": -97.04291
    },
    {
        "cityId": 8582634,
        "name": "San Jer\u00f3nimo Taviche",
        "stateId": 3522509,
        "latitude": 16.70861,
        "longitude": -96.59091
    },
    {
        "cityId": 8582635,
        "name": "San Jer\u00f3nimo Tec\u00f3atl",
        "stateId": 3522509,
        "latitude": 18.15548,
        "longitude": -96.91611
    },
    {
        "cityId": 8582636,
        "name": "San Jorge Nuchita",
        "stateId": 3522509,
        "latitude": 17.65921,
        "longitude": -98.10153
    },
    {
        "cityId": 8582637,
        "name": "San Jos\u00e9 Ayuquila",
        "stateId": 3522509,
        "latitude": 17.94282,
        "longitude": -97.96764
    },
    {
        "cityId": 8582638,
        "name": "San Jos\u00e9 Chiltepec",
        "stateId": 3522509,
        "latitude": 17.95301,
        "longitude": -96.15507
    },
    {
        "cityId": 8582639,
        "name": "San Jos\u00e9 del Pe\u00f1asco",
        "stateId": 3522509,
        "latitude": 16.28811,
        "longitude": -96.49517
    },
    {
        "cityId": 8582640,
        "name": "San Jos\u00e9 Estancia Grande",
        "stateId": 3522509,
        "latitude": 16.36912,
        "longitude": -98.25681
    },
    {
        "cityId": 8582641,
        "name": "San Jos\u00e9 Independencia",
        "stateId": 3522509,
        "latitude": 18.24356,
        "longitude": -96.64568
    },
    {
        "cityId": 8582642,
        "name": "San Jos\u00e9 Lachiguiri",
        "stateId": 3522509,
        "latitude": 16.41059,
        "longitude": -96.34009
    },
    {
        "cityId": 8582643,
        "name": "San Jos\u00e9 Tenango",
        "stateId": 3522509,
        "latitude": 18.16332,
        "longitude": -96.67315
    },
    {
        "cityId": 8582644,
        "name": "San Juan Achiutla",
        "stateId": 3522509,
        "latitude": 17.34225,
        "longitude": -97.50839
    },
    {
        "cityId": 8582645,
        "name": "San Juan Atepec",
        "stateId": 3522509,
        "latitude": 17.43648,
        "longitude": -96.52843
    },
    {
        "cityId": 8582647,
        "name": "San Juan Bautista Atatlahuca",
        "stateId": 3522509,
        "latitude": 17.57906,
        "longitude": -96.80009
    },
    {
        "cityId": 8582648,
        "name": "San Juan Bautista Coixtlahuaca",
        "stateId": 3522509,
        "latitude": 17.72873,
        "longitude": -97.27017
    },
    {
        "cityId": 8582649,
        "name": "San Juan Bautista Cuicatl\u00e1n",
        "stateId": 3522509,
        "latitude": 17.7255,
        "longitude": -96.92219
    },
    {
        "cityId": 8582650,
        "name": "San Juan Bautista Guelache",
        "stateId": 3522509,
        "latitude": 17.22033,
        "longitude": -96.78147
    },
    {
        "cityId": 8582652,
        "name": "San Juan Bautista Jayacatl\u00e1n",
        "stateId": 3522509,
        "latitude": 17.42458,
        "longitude": -96.82639
    },
    {
        "cityId": 8582653,
        "name": "San Juan Bautista Lo de Soto",
        "stateId": 3522509,
        "latitude": 16.51144,
        "longitude": -98.3362
    },
    {
        "cityId": 8582654,
        "name": "San Juan Bautista Suchitepec",
        "stateId": 3522509,
        "latitude": 17.975,
        "longitude": -97.66508
    },
    {
        "cityId": 8582655,
        "name": "San Juan Bautista Tlacoatzintepec",
        "stateId": 3522509,
        "latitude": 17.88046,
        "longitude": -96.58815
    },
    {
        "cityId": 8582656,
        "name": "San Juan Bautista Tlachichilco",
        "stateId": 3522509,
        "latitude": 17.58557,
        "longitude": -98.35128
    },
    {
        "cityId": 8582657,
        "name": "San Juan Bautista Tuxtepec",
        "stateId": 3522509,
        "latitude": 18.04141,
        "longitude": -96.08871
    },
    {
        "cityId": 8582658,
        "name": "San Juan Cacahuatepec",
        "stateId": 3522509,
        "latitude": 16.61981,
        "longitude": -98.1639
    },
    {
        "cityId": 8582659,
        "name": "San Juan Cieneguilla",
        "stateId": 3522509,
        "latitude": 17.87496,
        "longitude": -98.31036
    },
    {
        "cityId": 8582660,
        "name": "San Juan Coatz\u00f3spam",
        "stateId": 3522509,
        "latitude": 18.04569,
        "longitude": -96.75281
    },
    {
        "cityId": 8582661,
        "name": "San Juan Colorado",
        "stateId": 3522509,
        "latitude": 16.47032,
        "longitude": -97.91523
    },
    {
        "cityId": 8582662,
        "name": "San Juan Comaltepec",
        "stateId": 3522509,
        "latitude": 17.31074,
        "longitude": -95.94347
    },
    {
        "cityId": 8582663,
        "name": "San Juan Cotzoc\u00f3n",
        "stateId": 3522509,
        "latitude": 17.43863,
        "longitude": -95.32666
    },
    {
        "cityId": 8582664,
        "name": "San Juan Chicomez\u00fachil",
        "stateId": 3522509,
        "latitude": 17.29792,
        "longitude": -96.51144
    },
    {
        "cityId": 8582665,
        "name": "San Juan Chilateca",
        "stateId": 3522509,
        "latitude": 16.82806,
        "longitude": -96.67028
    },
    {
        "cityId": 8582666,
        "name": "San Juan del Estado",
        "stateId": 3522509,
        "latitude": 17.28883,
        "longitude": -96.79511
    },
    {
        "cityId": 8582667,
        "name": "San Juan del R\u00edo",
        "stateId": 3522509,
        "latitude": 16.89139,
        "longitude": -96.16944
    },
    {
        "cityId": 8582668,
        "name": "San Juan Diuxi",
        "stateId": 3522509,
        "latitude": 17.27792,
        "longitude": -97.38514
    },
    {
        "cityId": 8582669,
        "name": "San Juan Evangelista Analco",
        "stateId": 3522509,
        "latitude": 17.40481,
        "longitude": -96.53546
    },
    {
        "cityId": 8582670,
        "name": "San Juan Guelav\u00eda",
        "stateId": 3522509,
        "latitude": 16.95528,
        "longitude": -96.53875
    },
    {
        "cityId": 8582671,
        "name": "San Juan Guichicovi",
        "stateId": 3522509,
        "latitude": 17.07339,
        "longitude": -95.09109
    },
    {
        "cityId": 8582672,
        "name": "San Juan Ihualtepec",
        "stateId": 3522509,
        "latitude": 17.75656,
        "longitude": -98.28518
    },
    {
        "cityId": 8582673,
        "name": "San Juan Juquila Mixes",
        "stateId": 3522509,
        "latitude": 16.88433,
        "longitude": -95.88913
    },
    {
        "cityId": 8582674,
        "name": "San Juan Juquila Vijanos",
        "stateId": 3522509,
        "latitude": 17.33734,
        "longitude": -96.27421
    },
    {
        "cityId": 8582675,
        "name": "San Juan Lachao",
        "stateId": 3522509,
        "latitude": 16.17994,
        "longitude": -97.11115
    },
    {
        "cityId": 8582676,
        "name": "San Juan Lachigalla",
        "stateId": 3522509,
        "latitude": 16.55594,
        "longitude": -96.53855
    },
    {
        "cityId": 8582677,
        "name": "San Juan Lajarcia",
        "stateId": 3522509,
        "latitude": 16.4935,
        "longitude": -95.90517
    },
    {
        "cityId": 8582678,
        "name": "San Juan Lalana",
        "stateId": 3522509,
        "latitude": 17.53232,
        "longitude": -95.80926
    },
    {
        "cityId": 8582679,
        "name": "San Juan de los Cu\u00e9s",
        "stateId": 3522509,
        "latitude": 18.05944,
        "longitude": -97.01031
    },
    {
        "cityId": 8582680,
        "name": "San Juan Mazatl\u00e1n",
        "stateId": 3522509,
        "latitude": 17.20873,
        "longitude": -95.31276
    },
    {
        "cityId": 8582681,
        "name": "San Juan Mixtepec -Dto. 08 -",
        "stateId": 3522509,
        "latitude": 17.31676,
        "longitude": -97.86147
    },
    {
        "cityId": 8582682,
        "name": "San Juan Mixtepec -Dto. 26 -",
        "stateId": 3522509,
        "latitude": 16.27667,
        "longitude": -96.29917
    },
    {
        "cityId": 8582683,
        "name": "San Juan \u00d1um\u00ed",
        "stateId": 3522509,
        "latitude": 17.41488,
        "longitude": -97.73619
    },
    {
        "cityId": 8582684,
        "name": "San Juan Ozolotepec",
        "stateId": 3522509,
        "latitude": 16.09775,
        "longitude": -96.26861
    },
    {
        "cityId": 8582685,
        "name": "San Juan Petlapa",
        "stateId": 3522509,
        "latitude": 17.5069,
        "longitude": -96.03616
    },
    {
        "cityId": 8582686,
        "name": "San Juan Quiahije",
        "stateId": 3522509,
        "latitude": 16.32147,
        "longitude": -97.36026
    },
    {
        "cityId": 8582687,
        "name": "San Juan Quiotepec",
        "stateId": 3522509,
        "latitude": 17.61243,
        "longitude": -96.58025
    },
    {
        "cityId": 8582688,
        "name": "San Juan Sayultepec",
        "stateId": 3522509,
        "latitude": 17.44736,
        "longitude": -97.29375
    },
    {
        "cityId": 8582689,
        "name": "San Juan Taba\u00e1",
        "stateId": 3522509,
        "latitude": 17.30222,
        "longitude": -96.21208
    },
    {
        "cityId": 8582690,
        "name": "San Juan Tamazola",
        "stateId": 3522509,
        "latitude": 17.11057,
        "longitude": -97.12544
    },
    {
        "cityId": 8582691,
        "name": "San Juan Teita",
        "stateId": 3522509,
        "latitude": 17.09319,
        "longitude": -97.41993
    },
    {
        "cityId": 8582692,
        "name": "San Juan Teitipac",
        "stateId": 3522509,
        "latitude": 16.9263,
        "longitude": -96.60954
    },
    {
        "cityId": 8582693,
        "name": "San Juan Tepeuxila",
        "stateId": 3522509,
        "latitude": 17.75636,
        "longitude": -96.75589
    },
    {
        "cityId": 8582694,
        "name": "San Juan Teposcolula",
        "stateId": 3522509,
        "latitude": 17.58142,
        "longitude": -97.41686
    },
    {
        "cityId": 8582695,
        "name": "San Juan Yae\u00e9",
        "stateId": 3522509,
        "latitude": 17.43083,
        "longitude": -96.2888
    },
    {
        "cityId": 8582696,
        "name": "San Juan Yatzona",
        "stateId": 3522509,
        "latitude": 17.40213,
        "longitude": -96.16935
    },
    {
        "cityId": 8582697,
        "name": "San Juan Yucuita",
        "stateId": 3522509,
        "latitude": 17.51656,
        "longitude": -97.26828
    },
    {
        "cityId": 8582698,
        "name": "San Lorenzo",
        "stateId": 3522509,
        "latitude": 16.41663,
        "longitude": -97.88818
    },
    {
        "cityId": 8582699,
        "name": "San Lorenzo Albarradas",
        "stateId": 3522509,
        "latitude": 16.91286,
        "longitude": -96.25275
    },
    {
        "cityId": 8582700,
        "name": "San Lorenzo Cacaotepec",
        "stateId": 3522509,
        "latitude": 17.13533,
        "longitude": -96.7978
    },
    {
        "cityId": 8582701,
        "name": "San Lorenzo Cuaunecuiltitla",
        "stateId": 3522509,
        "latitude": 18.20694,
        "longitude": -96.91139
    },
    {
        "cityId": 8582702,
        "name": "San Lorenzo Texmel\u00facan",
        "stateId": 3522509,
        "latitude": 16.53225,
        "longitude": -97.18821
    },
    {
        "cityId": 8582703,
        "name": "San Lorenzo Victoria",
        "stateId": 3522509,
        "latitude": 17.6319,
        "longitude": -98.12383
    },
    {
        "cityId": 8582704,
        "name": "San Lucas Camotl\u00e1n",
        "stateId": 3522509,
        "latitude": 16.94632,
        "longitude": -95.69889
    },
    {
        "cityId": 8582705,
        "name": "San Lucas Ojitl\u00e1n",
        "stateId": 3522509,
        "latitude": 18.04194,
        "longitude": -96.38469
    },
    {
        "cityId": 8582706,
        "name": "San Lucas Quiavin\u00ed",
        "stateId": 3522509,
        "latitude": 16.89361,
        "longitude": -96.46778
    },
    {
        "cityId": 8582707,
        "name": "San Lucas Zoqui\u00e1pam",
        "stateId": 3522509,
        "latitude": 18.12007,
        "longitude": -96.90712
    },
    {
        "cityId": 8582708,
        "name": "San Luis Amatl\u00e1n",
        "stateId": 3522509,
        "latitude": 16.457,
        "longitude": -96.4895
    },
    {
        "cityId": 8582709,
        "name": "San Marcial Ozolotepec",
        "stateId": 3522509,
        "latitude": 16.05577,
        "longitude": -96.40034
    },
    {
        "cityId": 8582710,
        "name": "San Marcos Arteaga",
        "stateId": 3522509,
        "latitude": 17.72936,
        "longitude": -97.88633
    },
    {
        "cityId": 8582711,
        "name": "San Mart\u00edn de los Cansecos",
        "stateId": 3522509,
        "latitude": 16.65611,
        "longitude": -96.72111
    },
    {
        "cityId": 8582712,
        "name": "San Mart\u00edn Huamel\u00falpam",
        "stateId": 3522509,
        "latitude": 17.3984,
        "longitude": -97.60421
    },
    {
        "cityId": 8582713,
        "name": "San Mart\u00edn Itunyoso",
        "stateId": 3522509,
        "latitude": 17.21204,
        "longitude": -97.85846
    },
    {
        "cityId": 8582714,
        "name": "San Mart\u00edn Lachil\u00e1",
        "stateId": 3522509,
        "latitude": 16.61074,
        "longitude": -96.84648
    },
    {
        "cityId": 8582715,
        "name": "San Mart\u00edn Peras",
        "stateId": 3522509,
        "latitude": 17.36826,
        "longitude": -98.24467
    },
    {
        "cityId": 8582716,
        "name": "San Mart\u00edn Tilcajete",
        "stateId": 3522509,
        "latitude": 16.86347,
        "longitude": -96.69361
    },
    {
        "cityId": 8582717,
        "name": "San Mart\u00edn Toxpalan",
        "stateId": 3522509,
        "latitude": 18.10724,
        "longitude": -97.04088
    },
    {
        "cityId": 8582718,
        "name": "San Mart\u00edn Zacatepec",
        "stateId": 3522509,
        "latitude": 17.81563,
        "longitude": -98.07345
    },
    {
        "cityId": 8582720,
        "name": "San Mateo Cajonos",
        "stateId": 3522509,
        "latitude": 17.16074,
        "longitude": -96.20537
    },
    {
        "cityId": 8582721,
        "name": "Capul\u00e1lpam de M\u00e9ndez",
        "stateId": 3522509,
        "latitude": 17.30972,
        "longitude": -96.44656
    },
    {
        "cityId": 8582722,
        "name": "San Mateo del Mar",
        "stateId": 3522509,
        "latitude": 16.208,
        "longitude": -95.03878
    },
    {
        "cityId": 8582723,
        "name": "San Mateo Yoloxochitl\u00e1n",
        "stateId": 3522509,
        "latitude": 18.14157,
        "longitude": -96.86417
    },
    {
        "cityId": 8582724,
        "name": "San Mateo Etlatongo",
        "stateId": 3522509,
        "latitude": 17.41824,
        "longitude": -97.26198
    },
    {
        "cityId": 8582725,
        "name": "San Mateo Nej\u00e1pam",
        "stateId": 3522509,
        "latitude": 17.652,
        "longitude": -98.40939
    },
    {
        "cityId": 8582726,
        "name": "San Mateo Pe\u00f1asco",
        "stateId": 3522509,
        "latitude": 17.15083,
        "longitude": -97.51644
    },
    {
        "cityId": 8582727,
        "name": "San Mateo Pi\u00f1as",
        "stateId": 3522509,
        "latitude": 15.95722,
        "longitude": -96.34002
    },
    {
        "cityId": 8582728,
        "name": "San Mateo R\u00edo Hondo",
        "stateId": 3522509,
        "latitude": 16.1293,
        "longitude": -96.50935
    },
    {
        "cityId": 8582729,
        "name": "San Mateo Sindihui",
        "stateId": 3522509,
        "latitude": 16.98762,
        "longitude": -97.36707
    },
    {
        "cityId": 8582730,
        "name": "San Mateo Tlapiltepec",
        "stateId": 3522509,
        "latitude": 17.80824,
        "longitude": -97.42676
    },
    {
        "cityId": 8582731,
        "name": "San Melchor Betaza",
        "stateId": 3522509,
        "latitude": 17.25602,
        "longitude": -96.14713
    },
    {
        "cityId": 8582732,
        "name": "San Miguel Achiutla",
        "stateId": 3522509,
        "latitude": 17.30639,
        "longitude": -97.48889
    },
    {
        "cityId": 8582733,
        "name": "San Miguel Ahuehuetitl\u00e1n",
        "stateId": 3522509,
        "latitude": 17.65537,
        "longitude": -98.34144
    },
    {
        "cityId": 8582734,
        "name": "San Miguel Alo\u00e1pam",
        "stateId": 3522509,
        "latitude": 17.40213,
        "longitude": -96.70435
    },
    {
        "cityId": 8582735,
        "name": "San Miguel Amatitl\u00e1n",
        "stateId": 3522509,
        "latitude": 17.88319,
        "longitude": -98.01399
    },
    {
        "cityId": 8582736,
        "name": "San Miguel Amatl\u00e1n",
        "stateId": 3522509,
        "latitude": 17.20015,
        "longitude": -96.45641
    },
    {
        "cityId": 8582737,
        "name": "San Miguel Coatl\u00e1n",
        "stateId": 3522509,
        "latitude": 16.16358,
        "longitude": -96.69097
    },
    {
        "cityId": 8582738,
        "name": "San Miguel Chicahua",
        "stateId": 3522509,
        "latitude": 17.62867,
        "longitude": -97.1951
    },
    {
        "cityId": 8582739,
        "name": "San Miguel Chimalapa",
        "stateId": 3522509,
        "latitude": 16.64657,
        "longitude": -94.47607
    },
    {
        "cityId": 8582740,
        "name": "San Miguel del Puerto",
        "stateId": 3522509,
        "latitude": 15.94058,
        "longitude": -96.11858
    },
    {
        "cityId": 8582741,
        "name": "San Miguel del R\u00edo",
        "stateId": 3522509,
        "latitude": 17.32292,
        "longitude": -96.56944
    },
    {
        "cityId": 8582742,
        "name": "San Miguel Ejutla",
        "stateId": 3522509,
        "latitude": 16.59407,
        "longitude": -96.73769
    },
    {
        "cityId": 8582743,
        "name": "San Miguel el Grande",
        "stateId": 3522509,
        "latitude": 17.06466,
        "longitude": -97.61547
    },
    {
        "cityId": 8582744,
        "name": "San Miguel Huautla",
        "stateId": 3522509,
        "latitude": 17.7437,
        "longitude": -97.1509
    },
    {
        "cityId": 8582745,
        "name": "San Miguel Mixtepec",
        "stateId": 3522509,
        "latitude": 16.7655,
        "longitude": -96.93899
    },
    {
        "cityId": 8582746,
        "name": "San Miguel Panixtlahuaca",
        "stateId": 3522509,
        "latitude": 16.25201,
        "longitude": -97.40976
    },
    {
        "cityId": 8582747,
        "name": "San Miguel Peras",
        "stateId": 3522509,
        "latitude": 16.93141,
        "longitude": -97.00831
    },
    {
        "cityId": 8582748,
        "name": "San Miguel Piedras",
        "stateId": 3522509,
        "latitude": 16.98723,
        "longitude": -97.23223
    },
    {
        "cityId": 8582749,
        "name": "San Miguel Quetzaltepec",
        "stateId": 3522509,
        "latitude": 16.98335,
        "longitude": -95.76197
    },
    {
        "cityId": 8582750,
        "name": "San Miguel Santa Flor",
        "stateId": 3522509,
        "latitude": 17.92889,
        "longitude": -96.7975
    },
    {
        "cityId": 8582751,
        "name": "Villa Sola de Vega",
        "stateId": 3522509,
        "latitude": 16.51307,
        "longitude": -97.05818
    },
    {
        "cityId": 8582752,
        "name": "San Miguel Soyaltepec",
        "stateId": 3522509,
        "latitude": 18.25404,
        "longitude": -96.396
    },
    {
        "cityId": 8582753,
        "name": "San Miguel Suchixtepec",
        "stateId": 3522509,
        "latitude": 16.07765,
        "longitude": -96.46299
    },
    {
        "cityId": 8582754,
        "name": "Villa Talea de Castro",
        "stateId": 3522509,
        "latitude": 17.36489,
        "longitude": -96.24722
    },
    {
        "cityId": 8582755,
        "name": "San Miguel Tecomatl\u00e1n",
        "stateId": 3522509,
        "latitude": 17.39517,
        "longitude": -97.26961
    },
    {
        "cityId": 8582756,
        "name": "San Miguel Tenango",
        "stateId": 3522509,
        "latitude": 16.23803,
        "longitude": -95.55662
    },
    {
        "cityId": 8582757,
        "name": "San Miguel Tequixtepec",
        "stateId": 3522509,
        "latitude": 17.80225,
        "longitude": -97.3241
    },
    {
        "cityId": 8582758,
        "name": "San Miguel Tilqui\u00e1pam",
        "stateId": 3522509,
        "latitude": 16.77454,
        "longitude": -96.57037
    },
    {
        "cityId": 8582759,
        "name": "San Miguel Tlacamama",
        "stateId": 3522509,
        "latitude": 16.43017,
        "longitude": -98.09096
    },
    {
        "cityId": 8582760,
        "name": "San Miguel Tlacotepec",
        "stateId": 3522509,
        "latitude": 17.44328,
        "longitude": -98.01157
    },
    {
        "cityId": 8582761,
        "name": "San Miguel Tulancingo",
        "stateId": 3522509,
        "latitude": 17.75137,
        "longitude": -97.44252
    },
    {
        "cityId": 8582762,
        "name": "San Miguel Yotao",
        "stateId": 3522509,
        "latitude": 17.37056,
        "longitude": -96.33639
    },
    {
        "cityId": 8582764,
        "name": "San Nicol\u00e1s Hidalgo",
        "stateId": 3522509,
        "latitude": 17.78264,
        "longitude": -98.16188
    },
    {
        "cityId": 8582765,
        "name": "San Pablo Coatl\u00e1n",
        "stateId": 3522509,
        "latitude": 16.12578,
        "longitude": -96.81636
    },
    {
        "cityId": 8582766,
        "name": "San Pablo Cuatro Venados",
        "stateId": 3522509,
        "latitude": 16.97504,
        "longitude": -96.88921
    },
    {
        "cityId": 8582767,
        "name": "San Pablo Etla",
        "stateId": 3522509,
        "latitude": 17.15439,
        "longitude": -96.76781
    },
    {
        "cityId": 8582768,
        "name": "San Pablo Huitzo",
        "stateId": 3522509,
        "latitude": 17.29933,
        "longitude": -96.87978
    },
    {
        "cityId": 8582769,
        "name": "San Pablo Huixtepec",
        "stateId": 3522509,
        "latitude": 16.81813,
        "longitude": -96.79585
    },
    {
        "cityId": 8582770,
        "name": "San Pablo Macuiltianguis",
        "stateId": 3522509,
        "latitude": 17.52909,
        "longitude": -96.53968
    },
    {
        "cityId": 8582771,
        "name": "San Pablo Tijaltepec",
        "stateId": 3522509,
        "latitude": 17.02549,
        "longitude": -97.49199
    },
    {
        "cityId": 8582772,
        "name": "San Pablo Villa de Mitla",
        "stateId": 3522509,
        "latitude": 16.93364,
        "longitude": -96.33833
    },
    {
        "cityId": 8582773,
        "name": "San Pablo Yaganiza",
        "stateId": 3522509,
        "latitude": 17.14486,
        "longitude": -96.22653
    },
    {
        "cityId": 8582774,
        "name": "San Pedro Amuzgos",
        "stateId": 3522509,
        "latitude": 16.66931,
        "longitude": -98.08892
    },
    {
        "cityId": 8582776,
        "name": "San Pedro Atoyac",
        "stateId": 3522509,
        "latitude": 16.50801,
        "longitude": -97.97336
    },
    {
        "cityId": 8582777,
        "name": "San Pedro Cajonos",
        "stateId": 3522509,
        "latitude": 17.16593,
        "longitude": -96.26139
    },
    {
        "cityId": 8582778,
        "name": "San Pedro Coxcaltepec C\u00e1ntaros",
        "stateId": 3522509,
        "latitude": 17.51617,
        "longitude": -97.11408
    },
    {
        "cityId": 8582781,
        "name": "San Pedro Huamelula",
        "stateId": 3522509,
        "latitude": 15.98318,
        "longitude": -95.74633
    },
    {
        "cityId": 8582782,
        "name": "San Pedro Huilotepec",
        "stateId": 3522509,
        "latitude": 16.23787,
        "longitude": -95.155
    },
    {
        "cityId": 8582783,
        "name": "San Pedro Ixcatl\u00e1n",
        "stateId": 3522509,
        "latitude": 18.15344,
        "longitude": -96.53979
    },
    {
        "cityId": 8582784,
        "name": "San Pedro Ixtlahuaca",
        "stateId": 3522509,
        "latitude": 17.05529,
        "longitude": -96.8022
    },
    {
        "cityId": 8582785,
        "name": "San Pedro Jaltepetongo",
        "stateId": 3522509,
        "latitude": 17.68861,
        "longitude": -97.03389
    },
    {
        "cityId": 8582786,
        "name": "San Pedro Jicay\u00e1n",
        "stateId": 3522509,
        "latitude": 16.46477,
        "longitude": -98.04313
    },
    {
        "cityId": 8582788,
        "name": "San Pedro Juchatengo",
        "stateId": 3522509,
        "latitude": 16.3264,
        "longitude": -97.1042
    },
    {
        "cityId": 8582790,
        "name": "San Pedro M\u00e1rtir Quiechapa",
        "stateId": 3522509,
        "latitude": 16.41306,
        "longitude": -96.24722
    },
    {
        "cityId": 8582791,
        "name": "San Pedro M\u00e1rtir Yucuxaco",
        "stateId": 3522509,
        "latitude": 17.43856,
        "longitude": -97.62134
    },
    {
        "cityId": 8582792,
        "name": "San Pedro Mixtepec -Dto. 22 -",
        "stateId": 3522509,
        "latitude": 15.93766,
        "longitude": -97.0816
    },
    {
        "cityId": 8582793,
        "name": "San Pedro Mixtepec -Dto. 26 -",
        "stateId": 3522509,
        "latitude": 16.21509,
        "longitude": -96.21722
    },
    {
        "cityId": 8582798,
        "name": "San Pedro Pochutla",
        "stateId": 3522509,
        "latitude": 15.78899,
        "longitude": -96.43126
    },
    {
        "cityId": 8582799,
        "name": "San Pedro Quiatoni",
        "stateId": 3522509,
        "latitude": 16.76269,
        "longitude": -96.03722
    },
    {
        "cityId": 8582800,
        "name": "San Pedro Sochi\u00e1pam",
        "stateId": 3522509,
        "latitude": 17.81431,
        "longitude": -96.64562
    },
    {
        "cityId": 8582802,
        "name": "San Pedro Taviche",
        "stateId": 3522509,
        "latitude": 16.64881,
        "longitude": -96.53353
    },
    {
        "cityId": 8582803,
        "name": "San Pedro Teozacoalco",
        "stateId": 3522509,
        "latitude": 17.00295,
        "longitude": -97.30253
    },
    {
        "cityId": 8582808,
        "name": "Villa de Tututepec de Melchor Ocampo",
        "stateId": 3522509,
        "latitude": 16.04794,
        "longitude": -97.53109
    },
    {
        "cityId": 8582809,
        "name": "San Pedro Yaneri",
        "stateId": 3522509,
        "latitude": 17.41009,
        "longitude": -96.36417
    },
    {
        "cityId": 8582810,
        "name": "San Pedro Y\u00f3lox",
        "stateId": 3522509,
        "latitude": 17.62516,
        "longitude": -96.48319
    },
    {
        "cityId": 8582811,
        "name": "San Pedro y San Pablo Ayutla",
        "stateId": 3522509,
        "latitude": 17.02593,
        "longitude": -96.13577
    },
    {
        "cityId": 8582812,
        "name": "Villa de Etla",
        "stateId": 3522509,
        "latitude": 17.19617,
        "longitude": -96.79622
    },
    {
        "cityId": 8582813,
        "name": "San Pedro y San Pablo Teposcolula",
        "stateId": 3522509,
        "latitude": 17.50179,
        "longitude": -97.48836
    },
    {
        "cityId": 8582814,
        "name": "San Pedro y San Pablo Tequixtepec",
        "stateId": 3522509,
        "latitude": 18.08622,
        "longitude": -97.7066
    },
    {
        "cityId": 8582815,
        "name": "San Pedro Yucunama",
        "stateId": 3522509,
        "latitude": 17.56315,
        "longitude": -97.48139
    },
    {
        "cityId": 8582816,
        "name": "San Raymundo Jalpan",
        "stateId": 3522509,
        "latitude": 16.98416,
        "longitude": -96.75287
    },
    {
        "cityId": 8582817,
        "name": "San Sebasti\u00e1n Abasolo",
        "stateId": 3522509,
        "latitude": 16.98641,
        "longitude": -96.63912
    },
    {
        "cityId": 8582818,
        "name": "San Sebasti\u00e1n Coatl\u00e1n",
        "stateId": 3522509,
        "latitude": 16.10701,
        "longitude": -96.88719
    },
    {
        "cityId": 8582819,
        "name": "San Sebasti\u00e1n Ixcapa",
        "stateId": 3522509,
        "latitude": 16.52184,
        "longitude": -98.14293
    },
    {
        "cityId": 8582820,
        "name": "San Sebasti\u00e1n Nicananduta",
        "stateId": 3522509,
        "latitude": 17.51657,
        "longitude": -97.6837
    },
    {
        "cityId": 8582821,
        "name": "San Sebasti\u00e1n R\u00edo Hondo",
        "stateId": 3522509,
        "latitude": 16.19024,
        "longitude": -96.44065
    },
    {
        "cityId": 8582822,
        "name": "San Sebasti\u00e1n Tecomaxtlahuaca",
        "stateId": 3522509,
        "latitude": 17.35514,
        "longitude": -98.08025
    },
    {
        "cityId": 8582823,
        "name": "San Sebasti\u00e1n Teitipac",
        "stateId": 3522509,
        "latitude": 16.95217,
        "longitude": -96.61917
    },
    {
        "cityId": 8582824,
        "name": "San Sebasti\u00e1n Tutla",
        "stateId": 3522509,
        "latitude": 17.04755,
        "longitude": -96.68158
    },
    {
        "cityId": 8582825,
        "name": "San Sim\u00f3n Almolongas",
        "stateId": 3522509,
        "latitude": 16.4167,
        "longitude": -96.71167
    },
    {
        "cityId": 8582826,
        "name": "San Sim\u00f3n Zahuatl\u00e1n",
        "stateId": 3522509,
        "latitude": 17.83373,
        "longitude": -98.00127
    },
    {
        "cityId": 8582828,
        "name": "Santa Ana Ateixtlahuaca",
        "stateId": 3522509,
        "latitude": 18.23004,
        "longitude": -96.87853
    },
    {
        "cityId": 8582829,
        "name": "Santa Ana Cuauht\u00e9moc",
        "stateId": 3522509,
        "latitude": 17.97389,
        "longitude": -96.79768
    },
    {
        "cityId": 8582830,
        "name": "Santa Ana del Valle",
        "stateId": 3522509,
        "latitude": 16.99361,
        "longitude": -96.47167
    },
    {
        "cityId": 8582831,
        "name": "Santa Ana Tavela",
        "stateId": 3522509,
        "latitude": 16.65264,
        "longitude": -95.90556
    },
    {
        "cityId": 8582832,
        "name": "Santa Ana Tlapacoyan",
        "stateId": 3522509,
        "latitude": 16.74278,
        "longitude": -96.85583
    },
    {
        "cityId": 8582833,
        "name": "Santa Ana Yareni",
        "stateId": 3522509,
        "latitude": 17.39278,
        "longitude": -96.62417
    },
    {
        "cityId": 8582834,
        "name": "Santa Ana Zegache",
        "stateId": 3522509,
        "latitude": 16.83981,
        "longitude": -96.72713
    },
    {
        "cityId": 8582835,
        "name": "Santa Catalina Quier\u00ed",
        "stateId": 3522509,
        "latitude": 16.31972,
        "longitude": -96.26694
    },
    {
        "cityId": 8582836,
        "name": "Santa Catarina Cuixtla",
        "stateId": 3522509,
        "latitude": 16.3051,
        "longitude": -96.64472
    },
    {
        "cityId": 8582837,
        "name": "Santa Catarina Ixtepeji",
        "stateId": 3522509,
        "latitude": 17.2124,
        "longitude": -96.57941
    },
    {
        "cityId": 8582838,
        "name": "Santa Catarina Juquila",
        "stateId": 3522509,
        "latitude": 16.15311,
        "longitude": -97.30605
    },
    {
        "cityId": 8582839,
        "name": "Santa Catarina Lachatao",
        "stateId": 3522509,
        "latitude": 17.18409,
        "longitude": -96.50126
    },
    {
        "cityId": 8582840,
        "name": "Santa Catarina Loxicha",
        "stateId": 3522509,
        "latitude": 16.06327,
        "longitude": -96.71942
    },
    {
        "cityId": 8582841,
        "name": "Santa Catarina Mechoac\u00e1n",
        "stateId": 3522509,
        "latitude": 16.32528,
        "longitude": -97.84396
    },
    {
        "cityId": 8582843,
        "name": "Santa Catarina Quian\u00e9",
        "stateId": 3522509,
        "latitude": 16.88813,
        "longitude": -96.73758
    },
    {
        "cityId": 8582844,
        "name": "Santa Catarina Tayata",
        "stateId": 3522509,
        "latitude": 17.34717,
        "longitude": -97.55708
    },
    {
        "cityId": 8582847,
        "name": "Santa Catarina Yosonot\u00fa",
        "stateId": 3522509,
        "latitude": 17.00788,
        "longitude": -97.66986
    },
    {
        "cityId": 8582848,
        "name": "Santa Catarina Zapoquila",
        "stateId": 3522509,
        "latitude": 18.05667,
        "longitude": -97.58838
    },
    {
        "cityId": 8582849,
        "name": "Santa Cruz Acatepec",
        "stateId": 3522509,
        "latitude": 18.15736,
        "longitude": -96.8834
    },
    {
        "cityId": 8582850,
        "name": "Santa Cruz Amilpas",
        "stateId": 3522509,
        "latitude": 17.05833,
        "longitude": -96.68333
    },
    {
        "cityId": 8582851,
        "name": "Santa Cruz de Bravo",
        "stateId": 3522509,
        "latitude": 17.57972,
        "longitude": -98.22361
    },
    {
        "cityId": 8582852,
        "name": "Santa Cruz Itundujia",
        "stateId": 3522509,
        "latitude": 16.76251,
        "longitude": -97.66843
    },
    {
        "cityId": 8582853,
        "name": "Santa Cruz Mixtepec",
        "stateId": 3522509,
        "latitude": 16.78111,
        "longitude": -96.85555
    },
    {
        "cityId": 8582854,
        "name": "Santa Cruz Nundaco",
        "stateId": 3522509,
        "latitude": 17.16597,
        "longitude": -97.71756
    },
    {
        "cityId": 8582855,
        "name": "Santa Cruz Papalutla",
        "stateId": 3522509,
        "latitude": 16.95667,
        "longitude": -96.58444
    },
    {
        "cityId": 8582856,
        "name": "Santa Cruz Tacache de Mina",
        "stateId": 3522509,
        "latitude": 17.82104,
        "longitude": -98.15021
    },
    {
        "cityId": 8582857,
        "name": "Santa Cruz Tacahua",
        "stateId": 3522509,
        "latitude": 16.92033,
        "longitude": -97.48083
    },
    {
        "cityId": 8582858,
        "name": "Santa Cruz Tayata",
        "stateId": 3522509,
        "latitude": 17.37287,
        "longitude": -97.565
    },
    {
        "cityId": 8582859,
        "name": "Santa Cruz Xitla",
        "stateId": 3522509,
        "latitude": 16.3496,
        "longitude": -96.68242
    },
    {
        "cityId": 8582860,
        "name": "Santa Cruz Xoxocotl\u00e1n",
        "stateId": 3522509,
        "latitude": 17.02401,
        "longitude": -96.75582
    },
    {
        "cityId": 8582861,
        "name": "Santa Cruz Zenzontepec",
        "stateId": 3522509,
        "latitude": 16.49605,
        "longitude": -97.48268
    },
    {
        "cityId": 8582862,
        "name": "Santa Gertrudis",
        "stateId": 3522509,
        "latitude": 16.78508,
        "longitude": -96.80187
    },
    {
        "cityId": 8582864,
        "name": "Santa In\u00e9s Yatzeche",
        "stateId": 3522509,
        "latitude": 16.80444,
        "longitude": -96.75486
    },
    {
        "cityId": 8582867,
        "name": "Santa Luc\u00eda Monteverde",
        "stateId": 3522509,
        "latitude": 16.94906,
        "longitude": -97.71261
    },
    {
        "cityId": 8582870,
        "name": "Santa Mar\u00eda Apazco",
        "stateId": 3522509,
        "latitude": 17.62226,
        "longitude": -97.08524
    },
    {
        "cityId": 8582872,
        "name": "Heroica Ciudad de Tlaxiaco",
        "stateId": 3522509,
        "latitude": 17.20767,
        "longitude": -97.67977
    },
    {
        "cityId": 8582873,
        "name": "Ayoquezco de Aldama",
        "stateId": 3522509,
        "latitude": 16.6849,
        "longitude": -96.85919
    },
    {
        "cityId": 8582874,
        "name": "Santa Mar\u00eda Atzompa",
        "stateId": 3522509,
        "latitude": 17.09835,
        "longitude": -96.78495
    },
    {
        "cityId": 8582878,
        "name": "Santa Mar\u00eda Coyotepec",
        "stateId": 3522509,
        "latitude": 16.9713,
        "longitude": -96.70262
    },
    {
        "cityId": 8582880,
        "name": "Villa de Chilapa de D\u00edaz",
        "stateId": 3522509,
        "latitude": 17.59253,
        "longitude": -97.63077
    },
    {
        "cityId": 8582886,
        "name": "Santa Mar\u00eda Guelac\u00e9",
        "stateId": 3522509,
        "latitude": 17.00151,
        "longitude": -96.60946
    },
    {
        "cityId": 8582887,
        "name": "Santa Mar\u00eda Guienagati",
        "stateId": 3522509,
        "latitude": 16.75239,
        "longitude": -95.36862
    },
    {
        "cityId": 8582889,
        "name": "Santa Mar\u00eda Huazolotitl\u00e1n",
        "stateId": 3522509,
        "latitude": 16.22608,
        "longitude": -97.93945
    },
    {
        "cityId": 8582891,
        "name": "Santa Mar\u00eda Ixcatl\u00e1n",
        "stateId": 3522509,
        "latitude": 17.855,
        "longitude": -97.19583
    },
    {
        "cityId": 8582893,
        "name": "Santa Mar\u00eda Jalapa del Marqu\u00e9s",
        "stateId": 3522509,
        "latitude": 16.49423,
        "longitude": -95.4635
    },
    {
        "cityId": 8582894,
        "name": "Santa Mar\u00eda Jaltianguis",
        "stateId": 3522509,
        "latitude": 17.36134,
        "longitude": -96.52111
    },
    {
        "cityId": 8582895,
        "name": "Santa Mar\u00eda Lachix\u00edo",
        "stateId": 3522509,
        "latitude": 16.73757,
        "longitude": -97.04093
    },
    {
        "cityId": 8582896,
        "name": "Santa Mar\u00eda Mixtequilla",
        "stateId": 3522509,
        "latitude": 16.39111,
        "longitude": -95.27798
    },
    {
        "cityId": 8582897,
        "name": "Santa Mar\u00eda Nativitas",
        "stateId": 3522509,
        "latitude": 17.64714,
        "longitude": -97.32925
    },
    {
        "cityId": 8582898,
        "name": "Santa Mar\u00eda Nduayaco",
        "stateId": 3522509,
        "latitude": 17.40832,
        "longitude": -97.50586
    },
    {
        "cityId": 8582899,
        "name": "Santa Mar\u00eda Ozolotepec",
        "stateId": 3522509,
        "latitude": 16.10099,
        "longitude": -96.34824
    },
    {
        "cityId": 8582903,
        "name": "Santa Mar\u00eda Quiegolani",
        "stateId": 3522509,
        "latitude": 16.28978,
        "longitude": -96.04156
    },
    {
        "cityId": 8582906,
        "name": "Santa Mar\u00eda Tecomavaca",
        "stateId": 3522509,
        "latitude": 17.97567,
        "longitude": -97.005
    },
    {
        "cityId": 8582907,
        "name": "Santa Mar\u00eda Temaxcalapa",
        "stateId": 3522509,
        "latitude": 17.38056,
        "longitude": -96.16111
    },
    {
        "cityId": 8582908,
        "name": "Santa Mar\u00eda Temaxcaltepec",
        "stateId": 3522509,
        "latitude": 16.16433,
        "longitude": -97.1795
    },
    {
        "cityId": 8582909,
        "name": "Santa Mar\u00eda Teopoxco",
        "stateId": 3522509,
        "latitude": 18.17731,
        "longitude": -96.96618
    },
    {
        "cityId": 8582911,
        "name": "Santa Mar\u00eda Texcatitl\u00e1n",
        "stateId": 3522509,
        "latitude": 17.71035,
        "longitude": -97.06757
    },
    {
        "cityId": 8582913,
        "name": "Santa Mar\u00eda Tlalixtac",
        "stateId": 3522509,
        "latitude": 17.93618,
        "longitude": -96.73402
    },
    {
        "cityId": 8582916,
        "name": "Santa Mar\u00eda Xadani",
        "stateId": 3522509,
        "latitude": 16.3789,
        "longitude": -95.0284
    },
    {
        "cityId": 8582917,
        "name": "Santa Mar\u00eda Yalina",
        "stateId": 3522509,
        "latitude": 17.23889,
        "longitude": -96.26194
    },
    {
        "cityId": 8582918,
        "name": "Santa Mar\u00eda Yaves\u00eda",
        "stateId": 3522509,
        "latitude": 17.2341,
        "longitude": -96.43035
    },
    {
        "cityId": 8582919,
        "name": "Santa Mar\u00eda Yolotepec",
        "stateId": 3522509,
        "latitude": 16.88134,
        "longitude": -97.48014
    },
    {
        "cityId": 8582920,
        "name": "Santa Mar\u00eda Yosoy\u00faa",
        "stateId": 3522509,
        "latitude": 17.11366,
        "longitude": -97.50657
    },
    {
        "cityId": 8582921,
        "name": "Santa Mar\u00eda Yucuhiti",
        "stateId": 3522509,
        "latitude": 17.03102,
        "longitude": -97.79851
    },
    {
        "cityId": 8582922,
        "name": "Santa Mar\u00eda Zacatepec",
        "stateId": 3522509,
        "latitude": 16.77936,
        "longitude": -97.99268
    },
    {
        "cityId": 8582923,
        "name": "Santa Mar\u00eda Zaniza",
        "stateId": 3522509,
        "latitude": 16.65392,
        "longitude": -97.33448
    },
    {
        "cityId": 8582924,
        "name": "Santa Mar\u00eda Zoquitl\u00e1n",
        "stateId": 3522509,
        "latitude": 16.54966,
        "longitude": -96.35518
    },
    {
        "cityId": 8582925,
        "name": "Santiago Amoltepec",
        "stateId": 3522509,
        "latitude": 16.62754,
        "longitude": -97.53224
    },
    {
        "cityId": 8582930,
        "name": "Santiago Ayuquililla",
        "stateId": 3522509,
        "latitude": 17.92043,
        "longitude": -97.96114
    },
    {
        "cityId": 8582931,
        "name": "Santiago Cacaloxtepec",
        "stateId": 3522509,
        "latitude": 17.73444,
        "longitude": -97.74139
    },
    {
        "cityId": 8582934,
        "name": "Santiago Chazumba",
        "stateId": 3522509,
        "latitude": 18.19928,
        "longitude": -97.70472
    },
    {
        "cityId": 8582940,
        "name": "Santiago Ixcuintepec",
        "stateId": 3522509,
        "latitude": 16.91553,
        "longitude": -95.59227
    },
    {
        "cityId": 8582941,
        "name": "Santiago Ixtayutla",
        "stateId": 3522509,
        "latitude": 16.55038,
        "longitude": -97.68257
    },
    {
        "cityId": 8582944,
        "name": "Santiago Juxtlahuaca",
        "stateId": 3522509,
        "latitude": 17.21921,
        "longitude": -97.99748
    },
    {
        "cityId": 8582948,
        "name": "Santiago Laxopa",
        "stateId": 3522509,
        "latitude": 17.22,
        "longitude": -96.30597
    },
    {
        "cityId": 8582956,
        "name": "Santiago Nuyo\u00f3",
        "stateId": 3522509,
        "latitude": 17.00937,
        "longitude": -97.75
    },
    {
        "cityId": 8582958,
        "name": "Santiago Suchilquitongo",
        "stateId": 3522509,
        "latitude": 17.24853,
        "longitude": -96.86799
    },
    {
        "cityId": 8582959,
        "name": "Santiago Tamazola",
        "stateId": 3522509,
        "latitude": 17.72861,
        "longitude": -98.21396
    },
    {
        "cityId": 8582960,
        "name": "Santiago Tapextla",
        "stateId": 3522509,
        "latitude": 16.32691,
        "longitude": -98.48632
    },
    {
        "cityId": 8582961,
        "name": "Villa Tej\u00fapam de la Uni\u00f3n",
        "stateId": 3522509,
        "latitude": 17.66339,
        "longitude": -97.46357
    },
    {
        "cityId": 8582965,
        "name": "Santiago Texcalcingo",
        "stateId": 3522509,
        "latitude": 18.21438,
        "longitude": -96.97358
    },
    {
        "cityId": 8582966,
        "name": "Santiago Textitl\u00e1n",
        "stateId": 3522509,
        "latitude": 16.70265,
        "longitude": -97.28069
    },
    {
        "cityId": 8582969,
        "name": "Santiago Tlazoyaltepec",
        "stateId": 3522509,
        "latitude": 17.02761,
        "longitude": -96.96732
    },
    {
        "cityId": 8582970,
        "name": "Santiago Xanica",
        "stateId": 3522509,
        "latitude": 16.00388,
        "longitude": -96.24816
    },
    {
        "cityId": 8582971,
        "name": "Santiago Xiacu\u00ed",
        "stateId": 3522509,
        "latitude": 17.27533,
        "longitude": -96.42383
    },
    {
        "cityId": 8582972,
        "name": "Santiago Yaitepec",
        "stateId": 3522509,
        "latitude": 16.19425,
        "longitude": -97.24603
    },
    {
        "cityId": 8582973,
        "name": "Santiago Yaveo",
        "stateId": 3522509,
        "latitude": 17.54796,
        "longitude": -95.42281
    },
    {
        "cityId": 8582974,
        "name": "Santiago Yolom\u00e9catl",
        "stateId": 3522509,
        "latitude": 17.4652,
        "longitude": -97.57242
    },
    {
        "cityId": 8582975,
        "name": "Santiago Yosond\u00faa",
        "stateId": 3522509,
        "latitude": 16.85348,
        "longitude": -97.55384
    },
    {
        "cityId": 8582976,
        "name": "Santiago Yucuyachi",
        "stateId": 3522509,
        "latitude": 17.61436,
        "longitude": -98.2206
    },
    {
        "cityId": 8582977,
        "name": "Santiago Zacatepec",
        "stateId": 3522509,
        "latitude": 17.18872,
        "longitude": -95.8847
    },
    {
        "cityId": 8582978,
        "name": "Santiago Zoochila",
        "stateId": 3522509,
        "latitude": 17.22,
        "longitude": -96.24167
    },
    {
        "cityId": 8582979,
        "name": "Nuevo Zoqui\u00e1pam",
        "stateId": 3522509,
        "latitude": 17.28361,
        "longitude": -96.62153
    },
    {
        "cityId": 8582981,
        "name": "Santo Domingo Albarradas",
        "stateId": 3522509,
        "latitude": 17.07257,
        "longitude": -96.19076
    },
    {
        "cityId": 8582985,
        "name": "Santo Domingo Ixcatl\u00e1n",
        "stateId": 3522509,
        "latitude": 16.90972,
        "longitude": -97.53006
    },
    {
        "cityId": 8582986,
        "name": "Santo Domingo Nuxa\u00e1",
        "stateId": 3522509,
        "latitude": 17.17216,
        "longitude": -97.06507
    },
    {
        "cityId": 8582987,
        "name": "Santo Domingo Ozolotepec",
        "stateId": 3522509,
        "latitude": 16.17103,
        "longitude": -96.32044
    },
    {
        "cityId": 8582989,
        "name": "Santo Domingo Roayaga",
        "stateId": 3522509,
        "latitude": 17.33509,
        "longitude": -96.08852
    },
    {
        "cityId": 8582992,
        "name": "Santo Domingo Tepuxtepec",
        "stateId": 3522509,
        "latitude": 16.93673,
        "longitude": -96.06893
    },
    {
        "cityId": 8582993,
        "name": "Santo Domingo Tlatay\u00e1pam",
        "stateId": 3522509,
        "latitude": 17.40593,
        "longitude": -97.34778
    },
    {
        "cityId": 8582997,
        "name": "Santo Domingo Xagac\u00eda",
        "stateId": 3522509,
        "latitude": 17.15194,
        "longitude": -96.25944
    },
    {
        "cityId": 8582998,
        "name": "Santo Domingo Yanhuitl\u00e1n",
        "stateId": 3522509,
        "latitude": 17.53283,
        "longitude": -97.35332
    },
    {
        "cityId": 8582999,
        "name": "Santo Domingo Yodohino",
        "stateId": 3522509,
        "latitude": 17.61708,
        "longitude": -97.68625
    },
    {
        "cityId": 8583000,
        "name": "Santo Domingo Zanatepec",
        "stateId": 3522509,
        "latitude": 16.474,
        "longitude": -94.35147
    },
    {
        "cityId": 8583001,
        "name": "Santos Reyes Nopala",
        "stateId": 3522509,
        "latitude": 16.09172,
        "longitude": -97.19174
    },
    {
        "cityId": 8583002,
        "name": "Santos Reyes P\u00e1palo",
        "stateId": 3522509,
        "latitude": 17.79731,
        "longitude": -96.87361
    },
    {
        "cityId": 8583003,
        "name": "Santos Reyes Tepejillo",
        "stateId": 3522509,
        "latitude": 17.43851,
        "longitude": -97.93476
    },
    {
        "cityId": 8583004,
        "name": "Santos Reyes Yucun\u00e1",
        "stateId": 3522509,
        "latitude": 17.774,
        "longitude": -98.00172
    },
    {
        "cityId": 8583005,
        "name": "Santo Tom\u00e1s Jalieza",
        "stateId": 3522509,
        "latitude": 16.85496,
        "longitude": -96.65944
    },
    {
        "cityId": 8583006,
        "name": "Santo Tom\u00e1s Mazaltepec",
        "stateId": 3522509,
        "latitude": 17.17222,
        "longitude": -96.87083
    },
    {
        "cityId": 8583008,
        "name": "Santo Tom\u00e1s Tamazulapan",
        "stateId": 3522509,
        "latitude": 16.23476,
        "longitude": -96.57066
    },
    {
        "cityId": 8583009,
        "name": "San Vicente Coatl\u00e1n",
        "stateId": 3522509,
        "latitude": 16.37919,
        "longitude": -96.848
    },
    {
        "cityId": 8583011,
        "name": "San Vicente Lachix\u00edo",
        "stateId": 3522509,
        "latitude": 16.68191,
        "longitude": -97.0158
    },
    {
        "cityId": 8583012,
        "name": "San Vicente Nu\u00f1\u00fa",
        "stateId": 3522509,
        "latitude": 17.44102,
        "longitude": -97.4431
    },
    {
        "cityId": 8583013,
        "name": "Silacayo\u00e1pam",
        "stateId": 3522509,
        "latitude": 17.5284,
        "longitude": -98.13353
    },
    {
        "cityId": 8583014,
        "name": "Sitio de Xitlapehua",
        "stateId": 3522509,
        "latitude": 16.37172,
        "longitude": -96.54372
    },
    {
        "cityId": 8583016,
        "name": "Villa de Tamazul\u00e1pam del Progreso",
        "stateId": 3522509,
        "latitude": 17.693,
        "longitude": -97.57366
    },
    {
        "cityId": 8583017,
        "name": "Tanetze de Zaragoza",
        "stateId": 3522509,
        "latitude": 17.38565,
        "longitude": -96.2988
    },
    {
        "cityId": 8583019,
        "name": "Tataltepec de Vald\u00e9s",
        "stateId": 3522509,
        "latitude": 16.32422,
        "longitude": -97.56
    },
    {
        "cityId": 8583020,
        "name": "Teococuilco de Marcos P\u00e9rez",
        "stateId": 3522509,
        "latitude": 17.31377,
        "longitude": -96.65028
    },
    {
        "cityId": 8583021,
        "name": "Teotitl\u00e1n de Flores Mag\u00f3n",
        "stateId": 3522509,
        "latitude": 18.14224,
        "longitude": -97.05885
    },
    {
        "cityId": 8583022,
        "name": "Teotitl\u00e1n del Valle",
        "stateId": 3522509,
        "latitude": 17.02275,
        "longitude": -96.52796
    },
    {
        "cityId": 8583024,
        "name": "Tepelmeme Villa de Morelos",
        "stateId": 3522509,
        "latitude": 17.95913,
        "longitude": -97.34557
    },
    {
        "cityId": 8583025,
        "name": "Heroica Villa Tezoatl\u00e1n de Segura y Luna, Cuna de la Independencia de Oaxaca",
        "stateId": 3522509,
        "latitude": 17.59159,
        "longitude": -97.84606
    },
    {
        "cityId": 8583026,
        "name": "San Jer\u00f3nimo Tlacochahuaya",
        "stateId": 3522509,
        "latitude": 17.00843,
        "longitude": -96.55522
    },
    {
        "cityId": 8583029,
        "name": "Tlalixtac de Cabrera",
        "stateId": 3522509,
        "latitude": 17.06688,
        "longitude": -96.64611
    },
    {
        "cityId": 8583030,
        "name": "Totontepec Villa de Morelos",
        "stateId": 3522509,
        "latitude": 17.24677,
        "longitude": -96.00894
    },
    {
        "cityId": 8583031,
        "name": "Trinidad Zaachila",
        "stateId": 3522509,
        "latitude": 16.92271,
        "longitude": -96.77458
    },
    {
        "cityId": 8583032,
        "name": "La Trinidad Vista Hermosa",
        "stateId": 3522509,
        "latitude": 17.77028,
        "longitude": -97.50222
    },
    {
        "cityId": 8583034,
        "name": "Valerio Trujano",
        "stateId": 3522509,
        "latitude": 17.7813,
        "longitude": -96.97852
    },
    {
        "cityId": 8583035,
        "name": "San Juan Bautista Valle Nacional",
        "stateId": 3522509,
        "latitude": 17.79581,
        "longitude": -96.32398
    },
    {
        "cityId": 8583036,
        "name": "Villa D\u00edaz Ordaz",
        "stateId": 3522509,
        "latitude": 17.05107,
        "longitude": -96.4127
    },
    {
        "cityId": 8583037,
        "name": "Yaxe",
        "stateId": 3522509,
        "latitude": 16.72639,
        "longitude": -96.47241
    },
    {
        "cityId": 8583038,
        "name": "Magdalena Yodocono de Porfirio D\u00edaz",
        "stateId": 3522509,
        "latitude": 17.37528,
        "longitude": -97.37019
    },
    {
        "cityId": 8583039,
        "name": "Yogana",
        "stateId": 3522509,
        "latitude": 16.44983,
        "longitude": -96.79739
    },
    {
        "cityId": 8583040,
        "name": "Yutanduchi de Guerrero",
        "stateId": 3522509,
        "latitude": 17.04875,
        "longitude": -97.29111
    },
    {
        "cityId": 8583041,
        "name": "Villa de Zaachila",
        "stateId": 3522509,
        "latitude": 16.93074,
        "longitude": -96.72065
    },
    {
        "cityId": 8583042,
        "name": "San Mateo Yucutindoo",
        "stateId": 3522509,
        "latitude": 16.79163,
        "longitude": -97.29556
    },
    {
        "cityId": 8583043,
        "name": "Zapotitl\u00e1n Lagunas",
        "stateId": 3522509,
        "latitude": 17.74936,
        "longitude": -98.39337
    },
    {
        "cityId": 8583044,
        "name": "Zapotitl\u00e1n Palmas",
        "stateId": 3522509,
        "latitude": 17.87972,
        "longitude": -97.81722
    },
    {
        "cityId": 8583045,
        "name": "Santa In\u00e9s de Zaragoza",
        "stateId": 3522509,
        "latitude": 17.26946,
        "longitude": -97.1512
    },
    {
        "cityId": 8583046,
        "name": "Zimatl\u00e1n de \u00c1lvarez",
        "stateId": 3522509,
        "latitude": 16.78027,
        "longitude": -97.03454
    }
]