[
    {
        "cityId": "6951543",
        "name": "Puente de Ixtla",
        "stateId": "3522961",
        "latitude": 18.61472,
        "longitude": -99.31806
    },
    {
        "cityId": "8582370",
        "name": "Amacuzac",
        "stateId": "3522961",
        "latitude": 18.60056,
        "longitude": -99.37252
    },
    {
        "cityId": "8582371",
        "name": "Atlatlahucan",
        "stateId": "3522961",
        "latitude": 18.93554,
        "longitude": -98.89496
    },
    {
        "cityId": "8582372",
        "name": "Axochiapan",
        "stateId": "3522961",
        "latitude": 18.51633,
        "longitude": -98.74698
    },
    {
        "cityId": "8582373",
        "name": "Ayala",
        "stateId": "3522961",
        "latitude": 18.72604,
        "longitude": -98.95106
    },
    {
        "cityId": "8582374",
        "name": "Coatl\u00e1n del R\u00edo",
        "stateId": "3522961",
        "latitude": 18.73438,
        "longitude": -99.44875
    },
    {
        "cityId": "8582375",
        "name": "Cuautla",
        "stateId": "3522961",
        "latitude": 18.82507,
        "longitude": -98.95286
    },
    {
        "cityId": "8582376",
        "name": "Cuernavaca",
        "stateId": "3522961",
        "latitude": 18.95532,
        "longitude": -99.24002
    },
    {
        "cityId": "8582377",
        "name": "Emiliano Zapata",
        "stateId": "3522961",
        "latitude": 18.81062,
        "longitude": -99.18711
    },
    {
        "cityId": "8582378",
        "name": "Huitzilac",
        "stateId": "3522961",
        "latitude": 19.02878,
        "longitude": -99.24847
    },
    {
        "cityId": "8582379",
        "name": "Jantetelco",
        "stateId": "3522961",
        "latitude": 18.70126,
        "longitude": -98.78023
    },
    {
        "cityId": "8582380",
        "name": "Jiutepec",
        "stateId": "3522961",
        "latitude": 18.8783,
        "longitude": -99.1503
    },
    {
        "cityId": "8582381",
        "name": "Jojutla",
        "stateId": "3522961",
        "latitude": 18.58999,
        "longitude": -99.22129
    },
    {
        "cityId": "8582382",
        "name": "Jonacatepec",
        "stateId": "3522961",
        "latitude": 18.66475,
        "longitude": -98.80565
    },
    {
        "cityId": "8582383",
        "name": "Mazatepec",
        "stateId": "3522961",
        "latitude": 18.71126,
        "longitude": -99.36517
    },
    {
        "cityId": "8582384",
        "name": "Miacatl\u00e1n",
        "stateId": "3522961",
        "latitude": 18.78101,
        "longitude": -99.35386
    },
    {
        "cityId": "8582385",
        "name": "Ocuituco",
        "stateId": "3522961",
        "latitude": 18.88252,
        "longitude": -98.78043
    },
    {
        "cityId": "8582386",
        "name": "Temixco",
        "stateId": "3522961",
        "latitude": 18.85274,
        "longitude": -99.25538
    },
    {
        "cityId": "8582387",
        "name": "Tepalcingo",
        "stateId": "3522961",
        "latitude": 18.60151,
        "longitude": -98.86942
    },
    {
        "cityId": "8582388",
        "name": "Tepoztl\u00e1n",
        "stateId": "3522961",
        "latitude": 18.96424,
        "longitude": -99.09972
    },
    {
        "cityId": "8582389",
        "name": "Tetecala",
        "stateId": "3522961",
        "latitude": 18.71103,
        "longitude": -99.40453
    },
    {
        "cityId": "8582390",
        "name": "Tetela del Volc\u00e1n",
        "stateId": "3522961",
        "latitude": 18.87504,
        "longitude": -98.71427
    },
    {
        "cityId": "8582391",
        "name": "Tlalnepantla",
        "stateId": "3522961",
        "latitude": 19.02052,
        "longitude": -98.96875
    },
    {
        "cityId": "8582392",
        "name": "Tlaltizap\u00e1n de Zapata",
        "stateId": "3522961",
        "latitude": 18.70815,
        "longitude": -99.12618
    },
    {
        "cityId": "8582393",
        "name": "Tlaquiltenango",
        "stateId": "3522961",
        "latitude": 18.55041,
        "longitude": -99.12255
    },
    {
        "cityId": "8582394",
        "name": "Tlayacapan",
        "stateId": "3522961",
        "latitude": 18.95069,
        "longitude": -98.97599
    },
    {
        "cityId": "8582395",
        "name": "Totolapan",
        "stateId": "3522961",
        "latitude": 18.99277,
        "longitude": -98.92078
    },
    {
        "cityId": "8582396",
        "name": "Xochitepec",
        "stateId": "3522961",
        "latitude": 18.77045,
        "longitude": -99.23266
    },
    {
        "cityId": "8582397",
        "name": "Yautepec",
        "stateId": "3522961",
        "latitude": 18.88465,
        "longitude": -99.04341
    },
    {
        "cityId": "8582398",
        "name": "Yecapixtla",
        "stateId": "3522961",
        "latitude": 18.85913,
        "longitude": -98.87216
    },
    {
        "cityId": "8582399",
        "name": "Zacatepec",
        "stateId": "3522961",
        "latitude": 18.65225,
        "longitude": -99.20767
    },
    {
        "cityId": "8582400",
        "name": "Zacualpan",
        "stateId": "3522961",
        "latitude": 18.80856,
        "longitude": -98.75274
    },
    {
        "cityId": "8582401",
        "name": "Temoac",
        "stateId": "3522961",
        "latitude": 18.76067,
        "longitude": -98.77855
    }
]