[
    {
        "cityId": "8581894",
        "name": "Abasolo",
        "stateId": "4005267",
        "latitude": 20.5058,
        "longitude": -101.53802
    },
    {
        "cityId": "8581895",
        "name": "Ac\u00e1mbaro",
        "stateId": "4005267",
        "latitude": 20.05832,
        "longitude": -100.74141
    },
    {
        "cityId": "8581896",
        "name": "San Miguel de Allende",
        "stateId": "4005267",
        "latitude": 20.94214,
        "longitude": -100.71072
    },
    {
        "cityId": "8581897",
        "name": "Apaseo el Alto",
        "stateId": "4005267",
        "latitude": 20.42678,
        "longitude": -100.56761
    },
    {
        "cityId": "8581898",
        "name": "Apaseo el Grande",
        "stateId": "4005267",
        "latitude": 20.55315,
        "longitude": -100.63472
    },
    {
        "cityId": "8581899",
        "name": "Atarjea",
        "stateId": "4005267",
        "latitude": 21.24263,
        "longitude": -99.80847
    },
    {
        "cityId": "8581900",
        "name": "Celaya",
        "stateId": "4005267",
        "latitude": 20.53681,
        "longitude": -100.80678
    },
    {
        "cityId": "8581901",
        "name": "Manuel Doblado",
        "stateId": "4005267",
        "latitude": 20.72085,
        "longitude": -101.856
    },
    {
        "cityId": "8581902",
        "name": "Comonfort",
        "stateId": "4005267",
        "latitude": 20.72811,
        "longitude": -100.78585
    },
    {
        "cityId": "8581903",
        "name": "Coroneo",
        "stateId": "4005267",
        "latitude": 20.20993,
        "longitude": -100.37631
    },
    {
        "cityId": "8581904",
        "name": "Cortazar",
        "stateId": "4005267",
        "latitude": 20.46885,
        "longitude": -100.96409
    },
    {
        "cityId": "8581906",
        "name": "Cuer\u00e1maro",
        "stateId": "4005267",
        "latitude": 20.61902,
        "longitude": -101.66106
    },
    {
        "cityId": "8581907",
        "name": "Doctor Mora",
        "stateId": "4005267",
        "latitude": 21.13849,
        "longitude": -100.35952
    },
    {
        "cityId": "8581908",
        "name": "Dolores Hidalgo Cuna de la Independencia Nacional",
        "stateId": "4005267",
        "latitude": 21.16234,
        "longitude": -100.89688
    },
    {
        "cityId": "8581909",
        "name": "Guanajuato",
        "stateId": "4005267",
        "latitude": 21.00481,
        "longitude": -101.26484
    },
    {
        "cityId": "8581910",
        "name": "Huan\u00edmaro",
        "stateId": "4005267",
        "latitude": 20.35828,
        "longitude": -101.50127
    },
    {
        "cityId": "8581911",
        "name": "Irapuato",
        "stateId": "4005267",
        "latitude": 20.67594,
        "longitude": -101.37183
    },
    {
        "cityId": "8581912",
        "name": "Jaral del Progreso",
        "stateId": "4005267",
        "latitude": 20.3552,
        "longitude": -101.05224
    },
    {
        "cityId": "8581913",
        "name": "Jer\u00e9cuaro",
        "stateId": "4005267",
        "latitude": 20.19929,
        "longitude": -100.50688
    },
    {
        "cityId": "8581914",
        "name": "Le\u00f3n",
        "stateId": "4005267",
        "latitude": 21.09309,
        "longitude": -101.64501
    },
    {
        "cityId": "8581915",
        "name": "Morole\u00f3n",
        "stateId": "4005267",
        "latitude": 20.09634,
        "longitude": -101.23084
    },
    {
        "cityId": "8581916",
        "name": "Ocampo",
        "stateId": "4005267",
        "latitude": 21.60049,
        "longitude": -101.4681
    },
    {
        "cityId": "8581917",
        "name": "P\u00e9njamo",
        "stateId": "4005267",
        "latitude": 20.40418,
        "longitude": -101.80696
    },
    {
        "cityId": "8581918",
        "name": "Pueblo Nuevo",
        "stateId": "4005267",
        "latitude": 20.54589,
        "longitude": -101.3642
    },
    {
        "cityId": "8581919",
        "name": "Pur\u00edsima del Rinc\u00f3n",
        "stateId": "4005267",
        "latitude": 20.94704,
        "longitude": -101.90939
    },
    {
        "cityId": "8581920",
        "name": "Romita",
        "stateId": "4005267",
        "latitude": 20.84151,
        "longitude": -101.56049
    },
    {
        "cityId": "8581921",
        "name": "Salamanca",
        "stateId": "4005267",
        "latitude": 20.58539,
        "longitude": -101.17307
    },
    {
        "cityId": "8581922",
        "name": "Salvatierra",
        "stateId": "4005267",
        "latitude": 20.21094,
        "longitude": -100.9124
    },
    {
        "cityId": "8581923",
        "name": "San Diego de la Uni\u00f3n",
        "stateId": "4005267",
        "latitude": 21.39973,
        "longitude": -100.80779
    },
    {
        "cityId": "8581924",
        "name": "San Felipe",
        "stateId": "4005267",
        "latitude": 21.45976,
        "longitude": -101.24397
    },
    {
        "cityId": "8581925",
        "name": "San Francisco del Rinc\u00f3n",
        "stateId": "4005267",
        "latitude": 20.93547,
        "longitude": -101.79061
    },
    {
        "cityId": "8581926",
        "name": "San Jos\u00e9 Iturbide",
        "stateId": "4005267",
        "latitude": 21.03386,
        "longitude": -100.41152
    },
    {
        "cityId": "8581927",
        "name": "San Luis de la Paz",
        "stateId": "4005267",
        "latitude": 21.36295,
        "longitude": -100.49726
    },
    {
        "cityId": "8581928",
        "name": "Santa Catarina",
        "stateId": "4005267",
        "latitude": 21.15134,
        "longitude": -100.06954
    },
    {
        "cityId": "8581929",
        "name": "Santa Cruz de Juventino Rosas",
        "stateId": "4005267",
        "latitude": 20.63658,
        "longitude": -100.97956
    },
    {
        "cityId": "8581930",
        "name": "Santiago Maravat\u00edo",
        "stateId": "4005267",
        "latitude": 20.16328,
        "longitude": -101.00091
    },
    {
        "cityId": "8581931",
        "name": "Silao de la Victoria",
        "stateId": "4005267",
        "latitude": 20.93718,
        "longitude": -101.44987
    },
    {
        "cityId": "8581932",
        "name": "Tarandacuao",
        "stateId": "4005267",
        "latitude": 20.00361,
        "longitude": -100.53195
    },
    {
        "cityId": "8581933",
        "name": "Tarimoro",
        "stateId": "4005267",
        "latitude": 20.29924,
        "longitude": -100.75753
    },
    {
        "cityId": "8581934",
        "name": "Tierra Blanca",
        "stateId": "4005267",
        "latitude": 21.03067,
        "longitude": -100.15716
    },
    {
        "cityId": "8581935",
        "name": "Uriangato",
        "stateId": "4005267",
        "latitude": 20.11311,
        "longitude": -101.16036
    },
    {
        "cityId": "8581936",
        "name": "Valle de Santiago",
        "stateId": "4005267",
        "latitude": 20.40994,
        "longitude": -101.25288
    },
    {
        "cityId": "8581937",
        "name": "Victoria",
        "stateId": "4005267",
        "latitude": 21.35448,
        "longitude": -100.22294
    },
    {
        "cityId": "8581938",
        "name": "Villagr\u00e1n",
        "stateId": "4005267",
        "latitude": 20.53815,
        "longitude": -100.98278
    },
    {
        "cityId": "8581939",
        "name": "Xich\u00fa",
        "stateId": "4005267",
        "latitude": 21.34418,
        "longitude": -99.9997
    },
    {
        "cityId": "8581940",
        "name": "Yuriria",
        "stateId": "4005267",
        "latitude": 20.18317,
        "longitude": -101.22573
    }
]