[
    {
        "cityId": 7778819,
        "name": "Tem\u00f3sachic",
        "stateId": 4014336,
        "latitude": 28.95,
        "longitude": -107.83333
    },
    {
        "cityId": 8581800,
        "name": "Ahumada",
        "stateId": 4014336,
        "latitude": 30.48174,
        "longitude": -106.48832
    },
    {
        "cityId": 8581801,
        "name": "Allende",
        "stateId": 4014336,
        "latitude": 27.07787,
        "longitude": -105.28789
    },
    {
        "cityId": 8581802,
        "name": "Aquiles Serd\u00e1n",
        "stateId": 4014336,
        "latitude": 28.58454,
        "longitude": -105.88108
    },
    {
        "cityId": 8581803,
        "name": "Ascensi\u00f3n",
        "stateId": 4014336,
        "latitude": 31.27914,
        "longitude": -107.73149
    },
    {
        "cityId": 8581804,
        "name": "Bach\u00edniva",
        "stateId": 4014336,
        "latitude": 28.85661,
        "longitude": -107.28856
    },
    {
        "cityId": 8581805,
        "name": "Balleza",
        "stateId": 4014336,
        "latitude": 26.73537,
        "longitude": -106.53591
    },
    {
        "cityId": 8581806,
        "name": "Batopilas",
        "stateId": 4014336,
        "latitude": 26.95272,
        "longitude": -107.71842
    },
    {
        "cityId": 8581807,
        "name": "Bocoyna",
        "stateId": 4014336,
        "latitude": 27.78937,
        "longitude": -107.61036
    },
    {
        "cityId": 8581808,
        "name": "Buenaventura",
        "stateId": 4014336,
        "latitude": 30.02116,
        "longitude": -107.19308
    },
    {
        "cityId": 8581809,
        "name": "Camargo",
        "stateId": 4014336,
        "latitude": 27.82905,
        "longitude": -104.78012
    },
    {
        "cityId": 8581810,
        "name": "Carich\u00ed",
        "stateId": 4014336,
        "latitude": 27.74601,
        "longitude": -107.07795
    },
    {
        "cityId": 8581811,
        "name": "Casas Grandes",
        "stateId": 4014336,
        "latitude": 30.33984,
        "longitude": -108.07035
    },
    {
        "cityId": 8581812,
        "name": "Coronado",
        "stateId": 4014336,
        "latitude": 26.6624,
        "longitude": -105.12093
    },
    {
        "cityId": 8581813,
        "name": "Coyame del Sotol",
        "stateId": 4014336,
        "latitude": 29.68793,
        "longitude": -105.13855
    },
    {
        "cityId": 8581814,
        "name": "La Cruz",
        "stateId": 4014336,
        "latitude": 27.88634,
        "longitude": -105.13649
    },
    {
        "cityId": 8581815,
        "name": "Cusihuiriachi",
        "stateId": 4014336,
        "latitude": 28.23242,
        "longitude": -106.94148
    },
    {
        "cityId": 8581816,
        "name": "Chihuahua",
        "stateId": 4014336,
        "latitude": 28.82669,
        "longitude": -106.19876
    },
    {
        "cityId": 8581817,
        "name": "Ch\u00ednipas",
        "stateId": 4014336,
        "latitude": 27.46852,
        "longitude": -108.49727
    },
    {
        "cityId": 8581818,
        "name": "Delicias",
        "stateId": 4014336,
        "latitude": 28.16948,
        "longitude": -105.44913
    },
    {
        "cityId": 8581819,
        "name": "Dr. Belisario Dom\u00ednguez",
        "stateId": 4014336,
        "latitude": 27.98462,
        "longitude": -106.45234
    },
    {
        "cityId": 8581820,
        "name": "Galeana",
        "stateId": 4014336,
        "latitude": 30.10916,
        "longitude": -107.63167
    },
    {
        "cityId": 8581821,
        "name": "Santa Isabel",
        "stateId": 4014336,
        "latitude": 28.34445,
        "longitude": -106.34136
    },
    {
        "cityId": 8581822,
        "name": "G\u00f3mez Far\u00edas",
        "stateId": 4014336,
        "latitude": 29.33836,
        "longitude": -107.71106
    },
    {
        "cityId": 8581823,
        "name": "Gran Morelos",
        "stateId": 4014336,
        "latitude": 28.24841,
        "longitude": -106.49357
    },
    {
        "cityId": 8581824,
        "name": "Guachochi",
        "stateId": 4014336,
        "latitude": 27.17004,
        "longitude": -107.29404
    },
    {
        "cityId": 8581825,
        "name": "Guadalupe",
        "stateId": 4014336,
        "latitude": 30.82737,
        "longitude": -105.64057
    },
    {
        "cityId": 8581826,
        "name": "Guadalupe y Calvo",
        "stateId": 4014336,
        "latitude": 26.17612,
        "longitude": -107.04507
    },
    {
        "cityId": 8581827,
        "name": "Guazapares",
        "stateId": 4014336,
        "latitude": 27.44005,
        "longitude": -108.23338
    },
    {
        "cityId": 8581828,
        "name": "Guerrero",
        "stateId": 4014336,
        "latitude": 28.42888,
        "longitude": -107.50377
    },
    {
        "cityId": 8581829,
        "name": "Cuauht\u00e9moc",
        "stateId": 4014336,
        "latitude": 28.57033,
        "longitude": -106.89647
    },
    {
        "cityId": 8581830,
        "name": "Aldama",
        "stateId": 4014336,
        "latitude": 28.93636,
        "longitude": -105.71098
    },
    {
        "cityId": 8581831,
        "name": "Matach\u00ed",
        "stateId": 4014336,
        "latitude": 28.82058,
        "longitude": -107.71233
    },
    {
        "cityId": 8581832,
        "name": "Matamoros",
        "stateId": 4014336,
        "latitude": 26.74974,
        "longitude": -105.58923
    },
    {
        "cityId": 8581833,
        "name": "Meoqui",
        "stateId": 4014336,
        "latitude": 28.33926,
        "longitude": -105.52765
    },
    {
        "cityId": 8581834,
        "name": "Morelos",
        "stateId": 4014336,
        "latitude": 26.60027,
        "longitude": -107.71209
    },
    {
        "cityId": 8581835,
        "name": "Moris",
        "stateId": 4014336,
        "latitude": 28.13424,
        "longitude": -108.72721
    },
    {
        "cityId": 8581836,
        "name": "Namiquipa",
        "stateId": 4014336,
        "latitude": 29.15873,
        "longitude": -107.32285
    },
    {
        "cityId": 8581837,
        "name": "Nonoava",
        "stateId": 4014336,
        "latitude": 27.43854,
        "longitude": -106.73285
    },
    {
        "cityId": 8581838,
        "name": "Nuevo Casas Grandes",
        "stateId": 4014336,
        "latitude": 30.48953,
        "longitude": -107.84862
    },
    {
        "cityId": 8581839,
        "name": "Ocampo",
        "stateId": 4014336,
        "latitude": 28.15827,
        "longitude": -108.22155
    },
    {
        "cityId": 8581840,
        "name": "Ojinaga",
        "stateId": 4014336,
        "latitude": 29.31371,
        "longitude": -104.4484
    },
    {
        "cityId": 8581841,
        "name": "Praxedis G. Guerrero",
        "stateId": 4014336,
        "latitude": 31.30031,
        "longitude": -105.94361
    },
    {
        "cityId": 8581843,
        "name": "Riva Palacio",
        "stateId": 4014336,
        "latitude": 28.81462,
        "longitude": -106.6499
    },
    {
        "cityId": 8581844,
        "name": "Rosales",
        "stateId": 4014336,
        "latitude": 28.29782,
        "longitude": -105.58288
    },
    {
        "cityId": 8581845,
        "name": "Rosario",
        "stateId": 4014336,
        "latitude": 27.25616,
        "longitude": -106.29878
    },
    {
        "cityId": 8581846,
        "name": "San Francisco de Borja",
        "stateId": 4014336,
        "latitude": 27.89427,
        "longitude": -106.72288
    },
    {
        "cityId": 8581847,
        "name": "San Francisco de Conchos",
        "stateId": 4014336,
        "latitude": 27.57356,
        "longitude": -105.37779
    },
    {
        "cityId": 8581848,
        "name": "San Francisco del Oro",
        "stateId": 4014336,
        "latitude": 26.89417,
        "longitude": -105.90594
    },
    {
        "cityId": 8581849,
        "name": "Santa B\u00e1rbara",
        "stateId": 4014336,
        "latitude": 26.82071,
        "longitude": -105.77151
    },
    {
        "cityId": 8581850,
        "name": "Satev\u00f3",
        "stateId": 4014336,
        "latitude": 27.78583,
        "longitude": -106.19851
    },
    {
        "cityId": 8581851,
        "name": "Saucillo",
        "stateId": 4014336,
        "latitude": 28.05878,
        "longitude": -105.31508
    },
    {
        "cityId": 8581852,
        "name": "El Tule",
        "stateId": 4014336,
        "latitude": 27.07325,
        "longitude": -106.31735
    },
    {
        "cityId": 8581853,
        "name": "Urique",
        "stateId": 4014336,
        "latitude": 27.27037,
        "longitude": -107.95461
    },
    {
        "cityId": 8581854,
        "name": "Uruachi",
        "stateId": 4014336,
        "latitude": 27.84669,
        "longitude": -108.36712
    },
    {
        "cityId": 8581855,
        "name": "Valle de Zaragoza",
        "stateId": 4014336,
        "latitude": 27.48944,
        "longitude": -105.84764
    },
    {
        "cityId": 8583642,
        "name": "Hidalgo del Parral",
        "stateId": 4014336,
        "latitude": 27.07964,
        "longitude": -105.70722
    },
    {
        "cityId": 8583643,
        "name": "Huejotit\u00e1n",
        "stateId": 4014336,
        "latitude": 27.02708,
        "longitude": -106.1057
    },
    {
        "cityId": 8583644,
        "name": "Ignacio Zaragoza",
        "stateId": 4014336,
        "latitude": 29.66564,
        "longitude": -107.7327
    },
    {
        "cityId": 8583645,
        "name": "Janos",
        "stateId": 4014336,
        "latitude": 30.80855,
        "longitude": -108.40447
    },
    {
        "cityId": 8583646,
        "name": "Jim\u00e9nez",
        "stateId": 4014336,
        "latitude": 27.12734,
        "longitude": -104.72872
    },
    {
        "cityId": 8583647,
        "name": "Ju\u00e1rez",
        "stateId": 4014336,
        "latitude": 31.4977,
        "longitude": -106.51728
    },
    {
        "cityId": 8583648,
        "name": "Julimes",
        "stateId": 4014336,
        "latitude": 28.49192,
        "longitude": -105.21303
    },
    {
        "cityId": 8583649,
        "name": "L\u00f3pez",
        "stateId": 4014336,
        "latitude": 26.9831,
        "longitude": -105.04397
    },
    {
        "cityId": 8583650,
        "name": "Madera",
        "stateId": 4014336,
        "latitude": 29.25988,
        "longitude": -108.37845
    },
    {
        "cityId": 8583651,
        "name": "Maguarichi",
        "stateId": 4014336,
        "latitude": 27.81655,
        "longitude": -107.96866
    },
    {
        "cityId": 8583652,
        "name": "Manuel Benavides",
        "stateId": 4014336,
        "latitude": 28.94431,
        "longitude": -103.91889
    }
]