[
    {
        "cityId": "901764",
        "name": "Namwala District",
        "stateId": "896972",
        "latitude": -15.91068,
        "longitude": 26.76462
    },
    {
        "cityId": "906042",
        "name": "Monze District",
        "stateId": "896972",
        "latitude": -16.10444,
        "longitude": 27.35992
    },
    {
        "cityId": "907108",
        "name": "Mazabuka District",
        "stateId": "896972",
        "latitude": -15.85212,
        "longitude": 27.71608
    },
    {
        "cityId": "910107",
        "name": "Livingstone District",
        "stateId": "896972",
        "latitude": -17.802,
        "longitude": 25.867
    },
    {
        "cityId": "915082",
        "name": "Kalomo District",
        "stateId": "896972",
        "latitude": -17.147,
        "longitude": 26.679
    },
    {
        "cityId": "917010",
        "name": "Gwembe District",
        "stateId": "896972",
        "latitude": -16.64077,
        "longitude": 27.88502
    },
    {
        "cityId": "917743",
        "name": "Choma District",
        "stateId": "896972",
        "latitude": -16.68884,
        "longitude": 26.98733
    },
    {
        "cityId": "7671219",
        "name": "Siavonga District",
        "stateId": "896972",
        "latitude": -16.26742,
        "longitude": 28.55036
    },
    {
        "cityId": "8260555",
        "name": "Kazungula District",
        "stateId": "896972",
        "latitude": -17.066,
        "longitude": 25.687
    },
    {
        "cityId": "8714550",
        "name": "Itezhi-Tezhi District",
        "stateId": "896972",
        "latitude": -15.74092,
        "longitude": 26.04146
    },
    {
        "cityId": "9072525",
        "name": "Sinazongwe District",
        "stateId": "896972",
        "latitude": -17.22236,
        "longitude": 27.47913
    },
    {
        "cityId": "10815849",
        "name": "Zimba District",
        "stateId": "896972",
        "latitude": -17.61733,
        "longitude": 26.54468
    },
    {
        "cityId": "10815850",
        "name": "Pemba District",
        "stateId": "896972",
        "latitude": -16.67265,
        "longitude": 27.38679
    },
    {
        "cityId": "10815851",
        "name": "Chikankata District",
        "stateId": "896972",
        "latitude": -16.03566,
        "longitude": 28.23971
    }
]