[
    {
        "cityId": "70221",
        "name": "At Ta\u2018izz\u012byah",
        "stateId": "70222",
        "latitude": 13.69479,
        "longitude": 44.00941
    },
    {
        "cityId": "72514",
        "name": "Al Mukh\u0101\u2019",
        "stateId": "70222",
        "latitude": 13.51998,
        "longitude": 43.42798
    },
    {
        "cityId": "72780",
        "name": "M\u0101w\u012byah",
        "stateId": "70222",
        "latitude": 13.58461,
        "longitude": 44.31912
    },
    {
        "cityId": "6940596",
        "name": "Sama",
        "stateId": "70222",
        "latitude": 13.3809,
        "longitude": 44.1166
    },
    {
        "cityId": "6940597",
        "name": "Al Misrakh",
        "stateId": "70222",
        "latitude": 13.4702,
        "longitude": 44.0377
    },
    {
        "cityId": "6940598",
        "name": "Sabir Al Mawadim",
        "stateId": "70222",
        "latitude": 13.5318,
        "longitude": 44.0462
    },
    {
        "cityId": "6940599",
        "name": "Dimnat Khadir",
        "stateId": "70222",
        "latitude": 13.4386,
        "longitude": 44.2542
    },
    {
        "cityId": "6940600",
        "name": "Ash Shamayatayn",
        "stateId": "70222",
        "latitude": 13.1822,
        "longitude": 43.98
    },
    {
        "cityId": "6940601",
        "name": "Jabal Habashy",
        "stateId": "70222",
        "latitude": 13.4665,
        "longitude": 43.881
    },
    {
        "cityId": "6940683",
        "name": "Mashra'a Wa Hadnan",
        "stateId": "70222",
        "latitude": 13.5417,
        "longitude": 43.9983
    },
    {
        "cityId": "6940684",
        "name": "Al Wazi'iyah",
        "stateId": "70222",
        "latitude": 13.1846,
        "longitude": 43.7298
    },
    {
        "cityId": "6940685",
        "name": "As Silw",
        "stateId": "70222",
        "latitude": 13.3459,
        "longitude": 44.2072
    },
    {
        "cityId": "6940686",
        "name": "Hayfan",
        "stateId": "70222",
        "latitude": 13.2906,
        "longitude": 44.2607
    },
    {
        "cityId": "6940687",
        "name": "Al Ma'afer",
        "stateId": "70222",
        "latitude": 13.3742,
        "longitude": 43.9262
    },
    {
        "cityId": "6940688",
        "name": "Al Mawasit",
        "stateId": "70222",
        "latitude": 13.3042,
        "longitude": 44.1005
    },
    {
        "cityId": "6940689",
        "name": "Dhubab",
        "stateId": "70222",
        "latitude": 12.9659,
        "longitude": 43.4724
    },
    {
        "cityId": "6940690",
        "name": "Al Qahirah",
        "stateId": "70222",
        "latitude": 13.5849,
        "longitude": 44.0101
    },
    {
        "cityId": "6940691",
        "name": "Salh",
        "stateId": "70222",
        "latitude": 13.5839,
        "longitude": 44.0402
    },
    {
        "cityId": "6940692",
        "name": "Al Mudhaffar",
        "stateId": "70222",
        "latitude": 13.5831,
        "longitude": 43.9927
    },
    {
        "cityId": "6940693",
        "name": "Mawza",
        "stateId": "70222",
        "latitude": 13.3782,
        "longitude": 43.6145
    },
    {
        "cityId": "6940694",
        "name": "Shara'b Ar Rawnah",
        "stateId": "70222",
        "latitude": 13.7336,
        "longitude": 43.7672
    },
    {
        "cityId": "6940695",
        "name": "Maqbanah",
        "stateId": "70222",
        "latitude": 13.6212,
        "longitude": 43.6674
    },
    {
        "cityId": "6940696",
        "name": "Shara'b As Salam",
        "stateId": "70222",
        "latitude": 13.7832,
        "longitude": 43.8861
    }
]