[
    {
        "cityId": 6940813,
        "name": "Attawahi",
        "stateId": 80412,
        "latitude": 12.7741,
        "longitude": 44.9941
    },
    {
        "cityId": 6940814,
        "name": "Craiter",
        "stateId": 80412,
        "latitude": 12.7731,
        "longitude": 45.0381
    },
    {
        "cityId": 6940815,
        "name": "Al Buraiqeh",
        "stateId": 80412,
        "latitude": 12.80377,
        "longitude": 44.77615
    },
    {
        "cityId": 6940816,
        "name": "Khur Maksar",
        "stateId": 80412,
        "latitude": 12.8658,
        "longitude": 45.0552
    },
    {
        "cityId": 6940817,
        "name": "Dar Sad",
        "stateId": 80412,
        "latitude": 12.907,
        "longitude": 44.9784
    },
    {
        "cityId": 6940818,
        "name": "Al Mansura",
        "stateId": 80412,
        "latitude": 12.8532,
        "longitude": 44.9724
    },
    {
        "cityId": 6940819,
        "name": "Ash Shaikh Outhman",
        "stateId": 80412,
        "latitude": 12.8864,
        "longitude": 45.0156
    },
    {
        "cityId": 6940820,
        "name": "Al Mualla",
        "stateId": 80412,
        "latitude": 12.65843,
        "longitude": 43.42743
    }
]