[
    {
        "cityId": 3900772,
        "name": "Provincia Zud\u00e1\u00f1ez",
        "stateId": 3920177,
        "latitude": -18.91667,
        "longitude": -64.83333
    },
    {
        "cityId": 3901146,
        "name": "Provincia Yampar\u00e1ez",
        "stateId": 3920177,
        "latitude": -19.16667,
        "longitude": -64.91667
    },
    {
        "cityId": 3902667,
        "name": "Provincia Tomina",
        "stateId": 3920177,
        "latitude": -19.5,
        "longitude": -64.16667
    },
    {
        "cityId": 3903977,
        "name": "Provincia Sud Cinti",
        "stateId": 3920177,
        "latitude": -20.91667,
        "longitude": -64.91667
    },
    {
        "cityId": 3909247,
        "name": "Provincia Oropeza",
        "stateId": 3920177,
        "latitude": -18.66667,
        "longitude": -65.16667
    },
    {
        "cityId": 3909495,
        "name": "Provincia Nor Cinti",
        "stateId": 3920177,
        "latitude": -20.33333,
        "longitude": -65
    },
    {
        "cityId": 3911048,
        "name": "Provincia Luis Calvo",
        "stateId": 3920177,
        "latitude": -20.66667,
        "longitude": -63.5
    },
    {
        "cityId": 3915235,
        "name": "Provincia Hernando Siles",
        "stateId": 3920177,
        "latitude": -20.16667,
        "longitude": -64.25
    },
    {
        "cityId": 3923228,
        "name": "Provincia Belisario Boeto",
        "stateId": 3920177,
        "latitude": -18.91667,
        "longitude": -64.33333
    },
    {
        "cityId": 3923437,
        "name": "Provincia Azurduy",
        "stateId": 3920177,
        "latitude": -20,
        "longitude": -64.5
    }
]