[
    {
        "cityId": "7268064",
        "name": "Cerro Gordo Barrio",
        "stateId": "4562605",
        "latitude": 18.30271,
        "longitude": -67.08103
    },
    {
        "cityId": "7268079",
        "name": "Cidra Barrio",
        "stateId": "4562605",
        "latitude": 18.28221,
        "longitude": -67.10268
    },
    {
        "cityId": "7268107",
        "name": "Corcovada Barrio",
        "stateId": "4562605",
        "latitude": 18.2941,
        "longitude": -67.05667
    },
    {
        "cityId": "7268143",
        "name": "Dag\u00fcey Barrio",
        "stateId": "4562605",
        "latitude": 18.30541,
        "longitude": -67.12783
    },
    {
        "cityId": "7268194",
        "name": "A\u00f1asco Abajo Barrio",
        "stateId": "4562605",
        "latitude": 18.27503,
        "longitude": -67.17411
    },
    {
        "cityId": "7268195",
        "name": "A\u00f1asco Arriba Barrio",
        "stateId": "4562605",
        "latitude": 18.27597,
        "longitude": -67.14704
    },
    {
        "cityId": "7268196",
        "name": "A\u00f1asco Barrio-Pueblo",
        "stateId": "4562605",
        "latitude": 18.28291,
        "longitude": -67.14137
    },
    {
        "cityId": "7268285",
        "name": "Caguabo Barrio",
        "stateId": "4562605",
        "latitude": 18.29756,
        "longitude": -67.21047
    },
    {
        "cityId": "7268341",
        "name": "Caracol Barrio",
        "stateId": "4562605",
        "latitude": 18.30058,
        "longitude": -67.15937
    },
    {
        "cityId": "7268348",
        "name": "Carreras Barrio",
        "stateId": "4562605",
        "latitude": 18.28682,
        "longitude": -67.12427
    },
    {
        "cityId": "7268353",
        "name": "Casey Abajo Barrio",
        "stateId": "4562605",
        "latitude": 18.26818,
        "longitude": -67.10313
    },
    {
        "cityId": "7268354",
        "name": "Casey Arriba Barrio",
        "stateId": "4562605",
        "latitude": 18.26094,
        "longitude": -67.08611
    },
    {
        "cityId": "7268378",
        "name": "Espino Barrio",
        "stateId": "4562605",
        "latitude": 18.28019,
        "longitude": -67.11535
    },
    {
        "cityId": "7268451",
        "name": "Hatillo Barrio",
        "stateId": "4562605",
        "latitude": 18.2993,
        "longitude": -67.18833
    },
    {
        "cityId": "7268487",
        "name": "Humatas Barrio",
        "stateId": "4562605",
        "latitude": 18.30936,
        "longitude": -67.10668
    },
    {
        "cityId": "7268621",
        "name": "Mar\u00edas Barrio",
        "stateId": "4562605",
        "latitude": 18.29997,
        "longitude": -67.14003
    },
    {
        "cityId": "7268659",
        "name": "Miraflores Barrio",
        "stateId": "4562605",
        "latitude": 18.27882,
        "longitude": -67.08022
    },
    {
        "cityId": "7268712",
        "name": "Ovejas Barrio",
        "stateId": "4562605",
        "latitude": 18.26154,
        "longitude": -67.11371
    },
    {
        "cityId": "7268759",
        "name": "Pi\u00f1ales Barrio",
        "stateId": "4562605",
        "latitude": 18.30033,
        "longitude": -67.17267
    },
    {
        "cityId": "7268768",
        "name": "Playa Barrio",
        "stateId": "4562605",
        "latitude": 18.28339,
        "longitude": -67.1905
    },
    {
        "cityId": "7268859",
        "name": "Quebrada Larga Barrio",
        "stateId": "4562605",
        "latitude": 18.30694,
        "longitude": -67.14921
    },
    {
        "cityId": "7268889",
        "name": "R\u00edo Arriba Barrio",
        "stateId": "4562605",
        "latitude": 18.27708,
        "longitude": -67.05048
    },
    {
        "cityId": "7268902",
        "name": "R\u00edo Ca\u00f1as Barrio",
        "stateId": "4562605",
        "latitude": 18.2532,
        "longitude": -67.12584
    }
]