[
    {
        "cityId": "7268128",
        "name": "Cubuy Barrio",
        "stateId": "4563169",
        "latitude": 18.27498,
        "longitude": -65.86048
    },
    {
        "cityId": "7268326",
        "name": "Can\u00f3vanas Barrio",
        "stateId": "4563169",
        "latitude": 18.36048,
        "longitude": -65.9067
    },
    {
        "cityId": "7268328",
        "name": "Can\u00f3vanas Barrio-Pueblo",
        "stateId": "4563169",
        "latitude": 18.37934,
        "longitude": -65.9021
    },
    {
        "cityId": "7268462",
        "name": "Hato Puerco Barrio",
        "stateId": "4563169",
        "latitude": 18.32272,
        "longitude": -65.8843
    },
    {
        "cityId": "7268573",
        "name": "Lomas Barrio",
        "stateId": "4563169",
        "latitude": 18.28164,
        "longitude": -65.8927
    },
    {
        "cityId": "7269046",
        "name": "Torrecilla Alta Barrio",
        "stateId": "4563169",
        "latitude": 18.39203,
        "longitude": -65.91846
    }
]