[
    {
        "cityId": 7268077,
        "name": "Cibuco Barrio",
        "stateId": 4564004,
        "latitude": 18.34053,
        "longitude": -66.34351
    },
    {
        "cityId": 7268110,
        "name": "Corozal Barrio-Pueblo",
        "stateId": 4564004,
        "latitude": 18.33974,
        "longitude": -66.31675
    },
    {
        "cityId": 7268129,
        "name": "Cuchillas Barrio",
        "stateId": 4564004,
        "latitude": 18.29056,
        "longitude": -66.36117
    },
    {
        "cityId": 7268155,
        "name": "Dos Bocas Barrio",
        "stateId": 4564004,
        "latitude": 18.31949,
        "longitude": -66.32017
    },
    {
        "cityId": 7268164,
        "name": "Abras Barrio",
        "stateId": 4564004,
        "latitude": 18.35711,
        "longitude": -66.31722
    },
    {
        "cityId": 7268591,
        "name": "Magueyes Barrio",
        "stateId": 4564004,
        "latitude": 18.27622,
        "longitude": -66.36911
    },
    {
        "cityId": 7268610,
        "name": "Man\u00e1 Barrio",
        "stateId": 4564004,
        "latitude": 18.26367,
        "longitude": -66.31395
    },
    {
        "cityId": 7268701,
        "name": "Negros Barrio",
        "stateId": 4564004,
        "latitude": 18.28987,
        "longitude": -66.3321
    },
    {
        "cityId": 7268713,
        "name": "Padilla Barrio",
        "stateId": 4564004,
        "latitude": 18.31205,
        "longitude": -66.35152
    },
    {
        "cityId": 7268718,
        "name": "Palmarejo Barrio",
        "stateId": 4564004,
        "latitude": 18.32912,
        "longitude": -66.29218
    },
    {
        "cityId": 7268720,
        "name": "Palmarito Barrio",
        "stateId": 4564004,
        "latitude": 18.26009,
        "longitude": -66.34314
    },
    {
        "cityId": 7268730,
        "name": "Palos Blancos Barrio",
        "stateId": 4564004,
        "latitude": 18.29125,
        "longitude": -66.30071
    },
    {
        "cityId": 7268786,
        "name": "Pueblo Barrio",
        "stateId": 4564004,
        "latitude": 18.34581,
        "longitude": -66.30542
    }
]