[
    {
        "cityId": "7268094",
        "name": "Collores Barrio",
        "stateId": "4565449",
        "latitude": 18.17468,
        "longitude": -65.82024
    },
    {
        "cityId": "7268203",
        "name": "Ant\u00f3n Ru\u00edz Barrio",
        "stateId": "4565449",
        "latitude": 18.1794,
        "longitude": -65.78631
    },
    {
        "cityId": "7268272",
        "name": "Buena Vista Barrio",
        "stateId": "4565449",
        "latitude": 18.11565,
        "longitude": -65.7988
    },
    {
        "cityId": "7268321",
        "name": "Candelero Abajo Barrio",
        "stateId": "4565449",
        "latitude": 18.09036,
        "longitude": -65.80794
    },
    {
        "cityId": "7268322",
        "name": "Candelero Arriba Barrio",
        "stateId": "4565449",
        "latitude": 18.10557,
        "longitude": -65.83404
    },
    {
        "cityId": "7268355",
        "name": "Cata\u00f1o Barrio",
        "stateId": "4565449",
        "latitude": 18.12954,
        "longitude": -65.82462
    },
    {
        "cityId": "7268486",
        "name": "Humacao Barrio-Pueblo",
        "stateId": "4565449",
        "latitude": 18.15146,
        "longitude": -65.82497
    },
    {
        "cityId": "7268579",
        "name": "Mab\u00fa Barrio",
        "stateId": "4565449",
        "latitude": 18.16607,
        "longitude": -65.83725
    },
    {
        "cityId": "7268599",
        "name": "Mambiche Barrio",
        "stateId": "4565449",
        "latitude": 18.1974,
        "longitude": -65.8101
    },
    {
        "cityId": "7268618",
        "name": "Mariana Barrio",
        "stateId": "4565449",
        "latitude": 18.12618,
        "longitude": -65.85269
    },
    {
        "cityId": "7268837",
        "name": "Punta Santiago Barrio",
        "stateId": "4565449",
        "latitude": 18.16468,
        "longitude": -65.75043
    },
    {
        "cityId": "7268886",
        "name": "R\u00edo Abajo Barrio",
        "stateId": "4565449",
        "latitude": 18.14069,
        "longitude": -65.78493
    },
    {
        "cityId": "7269029",
        "name": "Tejas Barrio",
        "stateId": "4565449",
        "latitude": 18.14776,
        "longitude": -65.84937
    }
]