[
    {
        "cityId": 7268052,
        "name": "Ceiba Barrio",
        "stateId": 4565981,
        "latitude": 18.18844,
        "longitude": -65.89547
    },
    {
        "cityId": 7268097,
        "name": "Collores Barrio",
        "stateId": 4565981,
        "latitude": 18.18623,
        "longitude": -65.85013
    },
    {
        "cityId": 7268261,
        "name": "Boquer\u00f3n Barrio",
        "stateId": 4565981,
        "latitude": 18.20657,
        "longitude": -65.84153
    },
    {
        "cityId": 7268367,
        "name": "El R\u00edo Barrio",
        "stateId": 4565981,
        "latitude": 18.23881,
        "longitude": -65.84327
    },
    {
        "cityId": 7268555,
        "name": "Las Piedras Barrio-Pueblo",
        "stateId": 4565981,
        "latitude": 18.18271,
        "longitude": -65.86603
    },
    {
        "cityId": 7268677,
        "name": "Montones Barrio",
        "stateId": 4565981,
        "latitude": 18.15491,
        "longitude": -65.90143
    },
    {
        "cityId": 7268840,
        "name": "Quebrada Arenas Barrio",
        "stateId": 4565981,
        "latitude": 18.19864,
        "longitude": -65.87498
    },
    {
        "cityId": 7269030,
        "name": "Tejas Barrio",
        "stateId": 4565981,
        "latitude": 18.14722,
        "longitude": -65.87757
    }
]