[
    {
        "cityId": "7268068",
        "name": "Cerrote Barrio",
        "stateId": "4565961",
        "latitude": 18.21249,
        "longitude": -66.92378
    },
    {
        "cityId": "7268069",
        "name": "Chamorro Barrio",
        "stateId": "4565961",
        "latitude": 18.22412,
        "longitude": -66.91567
    },
    {
        "cityId": "7268190",
        "name": "Alto Sano Barrio",
        "stateId": "4565961",
        "latitude": 18.26912,
        "longitude": -67.0186
    },
    {
        "cityId": "7268201",
        "name": "Anones Barrio",
        "stateId": "4565961",
        "latitude": 18.25893,
        "longitude": -67.04488
    },
    {
        "cityId": "7268267",
        "name": "Bucarabones Barrio",
        "stateId": "4565961",
        "latitude": 18.20758,
        "longitude": -66.94552
    },
    {
        "cityId": "7268273",
        "name": "Buena Vista Barrio",
        "stateId": "4565961",
        "latitude": 18.2503,
        "longitude": -66.96365
    },
    {
        "cityId": "7268380",
        "name": "Espino Barrio",
        "stateId": "4565961",
        "latitude": 18.24785,
        "longitude": -66.91824
    },
    {
        "cityId": "7268402",
        "name": "Furnias Barrio",
        "stateId": "4565961",
        "latitude": 18.24834,
        "longitude": -67.01252
    },
    {
        "cityId": "7268550",
        "name": "Las Mar\u00edas Barrio-Pueblo",
        "stateId": "4565961",
        "latitude": 18.25229,
        "longitude": -66.99081
    },
    {
        "cityId": "7268613",
        "name": "Maravilla Este Barrio",
        "stateId": "4565961",
        "latitude": 18.26184,
        "longitude": -66.98085
    },
    {
        "cityId": "7268614",
        "name": "Maravilla Norte Barrio",
        "stateId": "4565961",
        "latitude": 18.26603,
        "longitude": -66.99605
    },
    {
        "cityId": "7268615",
        "name": "Maravilla Sur Barrio",
        "stateId": "4565961",
        "latitude": 18.23004,
        "longitude": -66.99798
    },
    {
        "cityId": "7268691",
        "name": "Naranjales Barrio",
        "stateId": "4565961",
        "latitude": 18.20774,
        "longitude": -67.01037
    },
    {
        "cityId": "7268715",
        "name": "Palma Escrita Barrio",
        "stateId": "4565961",
        "latitude": 18.22599,
        "longitude": -66.96529
    },
    {
        "cityId": "7268839",
        "name": "Pur\u00edsima Concepci\u00f3n Barrio",
        "stateId": "4565961",
        "latitude": 18.24968,
        "longitude": -66.94032
    },
    {
        "cityId": "7268904",
        "name": "R\u00edo Ca\u00f1as Barrio",
        "stateId": "4565961",
        "latitude": 18.2318,
        "longitude": -67.03615
    }
]