[
    {
        "cityId": 7268120,
        "name": "Cruces Barrio",
        "stateId": 4567727,
        "latitude": 18.33923,
        "longitude": -67.22195
    },
    {
        "cityId": 7268218,
        "name": "Atalaya Barrio",
        "stateId": 4567727,
        "latitude": 18.31447,
        "longitude": -67.19764
    },
    {
        "cityId": 7268239,
        "name": "Barrero Barrio",
        "stateId": 4567727,
        "latitude": 18.30397,
        "longitude": -67.23105
    },
    {
        "cityId": 7268302,
        "name": "Calvache Barrio",
        "stateId": 4567727,
        "latitude": 18.31592,
        "longitude": -67.22539
    },
    {
        "cityId": 7268375,
        "name": "Ensenada Barrio",
        "stateId": 4567727,
        "latitude": 18.34674,
        "longitude": -67.25342
    },
    {
        "cityId": 7268513,
        "name": "Jag\u00fcey Barrio",
        "stateId": 4567727,
        "latitude": 18.3256,
        "longitude": -67.20269
    },
    {
        "cityId": 7268789,
        "name": "Pueblo Barrio",
        "stateId": 4567727,
        "latitude": 18.33181,
        "longitude": -67.23835
    },
    {
        "cityId": 7268838,
        "name": "Puntas Barrio",
        "stateId": 4567727,
        "latitude": 18.36267,
        "longitude": -67.25835
    },
    {
        "cityId": 7268883,
        "name": "Rinc\u00f3n Barrio-Pueblo",
        "stateId": 4567727,
        "latitude": 18.33898,
        "longitude": -67.25077
    },
    {
        "cityId": 7268908,
        "name": "R\u00edo Grande Barrio",
        "stateId": 4567727,
        "latitude": 18.3611,
        "longitude": -67.23745
    }
]