[
    {
        "cityId": "7268104",
        "name": "Consejo Barrio",
        "stateId": "4568491",
        "latitude": 18.17741,
        "longitude": -66.66628
    },
    {
        "cityId": "7268152",
        "name": "Don Alonso Barrio",
        "stateId": "4568491",
        "latitude": 18.3061,
        "longitude": -66.63756
    },
    {
        "cityId": "7268199",
        "name": "Angeles Barrio",
        "stateId": "4568491",
        "latitude": 18.29168,
        "longitude": -66.80214
    },
    {
        "cityId": "7268212",
        "name": "Arenas Barrio",
        "stateId": "4568491",
        "latitude": 18.24104,
        "longitude": -66.70793
    },
    {
        "cityId": "7268286",
        "name": "Caguana Barrio",
        "stateId": "4568491",
        "latitude": 18.29111,
        "longitude": -66.75081
    },
    {
        "cityId": "7268324",
        "name": "Can\u00edaco Barrio",
        "stateId": "4568491",
        "latitude": 18.3115,
        "longitude": -66.67023
    },
    {
        "cityId": "7268330",
        "name": "Caonillas Abajo Barrio",
        "stateId": "4568491",
        "latitude": 18.27377,
        "longitude": -66.64683
    },
    {
        "cityId": "7268332",
        "name": "Caonillas Arriba Barrio",
        "stateId": "4568491",
        "latitude": 18.24837,
        "longitude": -66.63854
    },
    {
        "cityId": "7268424",
        "name": "Guaonico Barrio",
        "stateId": "4568491",
        "latitude": 18.23742,
        "longitude": -66.74016
    },
    {
        "cityId": "7268553",
        "name": "Las Palmas Barrio",
        "stateId": "4568491",
        "latitude": 18.23616,
        "longitude": -66.65739
    },
    {
        "cityId": "7268560",
        "name": "Lim\u00f3n Barrio",
        "stateId": "4568491",
        "latitude": 18.32511,
        "longitude": -66.63119
    },
    {
        "cityId": "7268606",
        "name": "Mameyes Abajo Barrio",
        "stateId": "4568491",
        "latitude": 18.30284,
        "longitude": -66.59347
    },
    {
        "cityId": "7268734",
        "name": "Paso Palma Barrio",
        "stateId": "4568491",
        "latitude": 18.20932,
        "longitude": -66.64543
    },
    {
        "cityId": "7268887",
        "name": "R\u00edo Abajo Barrio",
        "stateId": "4568491",
        "latitude": 18.31098,
        "longitude": -66.69749
    },
    {
        "cityId": "7268923",
        "name": "Roncador Barrio",
        "stateId": "4568491",
        "latitude": 18.26024,
        "longitude": -66.74871
    },
    {
        "cityId": "7268940",
        "name": "Sabana Grande Barrio",
        "stateId": "4568491",
        "latitude": 18.29286,
        "longitude": -66.68068
    },
    {
        "cityId": "7268955",
        "name": "Salto Abajo Barrio",
        "stateId": "4568491",
        "latitude": 18.28083,
        "longitude": -66.70938
    },
    {
        "cityId": "7268956",
        "name": "Salto Arriba Barrio",
        "stateId": "4568491",
        "latitude": 18.26838,
        "longitude": -66.72926
    },
    {
        "cityId": "7268988",
        "name": "Santa Isabel Barrio",
        "stateId": "4568491",
        "latitude": 18.25119,
        "longitude": -66.80966
    },
    {
        "cityId": "7268994",
        "name": "Santa Rosa Barrio",
        "stateId": "4568491",
        "latitude": 18.32907,
        "longitude": -66.74999
    },
    {
        "cityId": "7269034",
        "name": "Tetu\u00e1n Barrio",
        "stateId": "4568491",
        "latitude": 18.26793,
        "longitude": -66.61262
    },
    {
        "cityId": "7269060",
        "name": "Utuado Barrio-Pueblo",
        "stateId": "4568491",
        "latitude": 18.26626,
        "longitude": -66.70567
    },
    {
        "cityId": "7269082",
        "name": "Viv\u00ed Abajo Barrio",
        "stateId": "4568491",
        "latitude": 18.26025,
        "longitude": -66.68237
    },
    {
        "cityId": "7269083",
        "name": "Viv\u00ed Arriba Barrio",
        "stateId": "4568491",
        "latitude": 18.21913,
        "longitude": -66.67552
    }
]