[
    {
        "cityId": "371850",
        "name": "Mud\u012br\u012byat Kurduf\u0101n ash Sham\u0101l\u012byah",
        "stateId": "408667",
        "latitude": 14.5,
        "longitude": 29.5
    },
    {
        "cityId": "7828736",
        "name": "Ghebeish",
        "stateId": "408667",
        "latitude": 12.53423,
        "longitude": 27.73734
    },
    {
        "cityId": "7828737",
        "name": "En Nuhud",
        "stateId": "408667",
        "latitude": 12.8808,
        "longitude": 29.04599
    },
    {
        "cityId": "8051146",
        "name": "Sheikan",
        "stateId": "408667",
        "latitude": 13.13,
        "longitude": 30.08
    },
    {
        "cityId": "8051147",
        "name": "Um Rawaba",
        "stateId": "408667",
        "latitude": 13.21,
        "longitude": 31.23
    },
    {
        "cityId": "11239073",
        "name": "Bara",
        "stateId": "408667",
        "latitude": 13.70537,
        "longitude": 30.37565
    }
]