[
    {
        "cityId": 613761,
        "name": "K\u2019obulet\u2019is Raioni",
        "stateId": 615929,
        "latitude": 41.75,
        "longitude": 41.83333
    },
    {
        "cityId": 613970,
        "name": "Khelvachauri Municipality",
        "stateId": 615929,
        "latitude": 41.58333,
        "longitude": 41.66667
    },
    {
        "cityId": 9093838,
        "name": "Kedis Munitsip\u2019alit\u2019et\u2019i",
        "stateId": 615929,
        "latitude": 41.65874,
        "longitude": 41.97047
    },
    {
        "cityId": 9093934,
        "name": "Kobuletis Munitsip\u2019alit\u2019et\u2019i",
        "stateId": 615929,
        "latitude": 41.8122,
        "longitude": 41.89783
    },
    {
        "cityId": 9165838,
        "name": "Batumi",
        "stateId": 615929,
        "latitude": 41.62244,
        "longitude": 41.64462
    }
]