[
    {
        "cityId": 8621722,
        "name": "Liw\u0101\u2019 Qa\u015fabat Ma\u2018\u0101n",
        "stateId": 248380,
        "latitude": 30.33105,
        "longitude": 36.63777
    },
    {
        "cityId": 8621727,
        "name": "Liw\u0101\u2019 ash Shawbak",
        "stateId": 248380,
        "latitude": 30.50776,
        "longitude": 35.55697
    },
    {
        "cityId": 8621728,
        "name": "Liw\u0101\u2019 al Batr\u0101\u2019",
        "stateId": 248380,
        "latitude": 30.27565,
        "longitude": 35.46726
    },
    {
        "cityId": 8621737,
        "name": "Liw\u0101\u2019 al \u1e28usayn\u012byah",
        "stateId": 248380,
        "latitude": 30.53357,
        "longitude": 35.7953
    },
    {
        "cityId": 11189149,
        "name": "Shoubak",
        "stateId": 248380,
        "latitude": 30.53139,
        "longitude": 35.56083
    }
]