[
    {
        "cityId": 784096,
        "name": "Vushtrri",
        "stateId": 10097358,
        "latitude": 42.8,
        "longitude": 20.98333
    },
    {
        "cityId": 785059,
        "name": "Komuna e Mitrovic\u00ebs",
        "stateId": 10097358,
        "latitude": 42.91667,
        "longitude": 20.88333
    },
    {
        "cityId": 785641,
        "name": "Komuna e Skenderajt",
        "stateId": 10097358,
        "latitude": 42.73333,
        "longitude": 20.78333
    },
    {
        "cityId": 788730,
        "name": "Komuna e Leposaviqit",
        "stateId": 10097358,
        "latitude": 43.11667,
        "longitude": 20.78333
    },
    {
        "cityId": 831105,
        "name": "Komuna e Zubin Potokut",
        "stateId": 10097358,
        "latitude": 42.91667,
        "longitude": 20.63333
    },
    {
        "cityId": 831106,
        "name": "Op\u0161tina Zve\u010dan",
        "stateId": 10097358,
        "latitude": 42.98271,
        "longitude": 20.77523
    },
    {
        "cityId": 10098790,
        "name": "Mitrovica Veriore",
        "stateId": 10097358,
        "latitude": 42.89498,
        "longitude": 20.8649
    }
]