[
    {
        "cityId": 2761523,
        "name": "Wels-Land",
        "stateId": 2769848,
        "latitude": 48.1166,
        "longitude": 13.96637
    },
    {
        "cityId": 2762342,
        "name": "Politischer Bezirk V\u00f6cklabruck",
        "stateId": 2769848,
        "latitude": 48.00313,
        "longitude": 13.65772
    },
    {
        "cityId": 2762517,
        "name": "Politischer Bezirk Urfahr-Umgebung",
        "stateId": 2769848,
        "latitude": 48.42512,
        "longitude": 14.27451
    },
    {
        "cityId": 2764347,
        "name": "Steyr Stadt",
        "stateId": 2769848,
        "latitude": 48.03333,
        "longitude": 14.41667
    },
    {
        "cityId": 2764357,
        "name": "Politischer Bezirk Steyr-Land",
        "stateId": 2769848,
        "latitude": 47.9,
        "longitude": 14.46667
    },
    {
        "cityId": 2766154,
        "name": "Politischer Bezirk Sch\u00e4rding",
        "stateId": 2769848,
        "latitude": 48.43333,
        "longitude": 13.6
    },
    {
        "cityId": 2767290,
        "name": "Politischer Bezirk Rohrbach",
        "stateId": 2769848,
        "latitude": 48.55739,
        "longitude": 13.96926
    },
    {
        "cityId": 2767470,
        "name": "Politischer Bezirk Ried im Innkreis",
        "stateId": 2769848,
        "latitude": 48.23333,
        "longitude": 13.46667
    },
    {
        "cityId": 2769104,
        "name": "Politischer Bezirk Perg",
        "stateId": 2769848,
        "latitude": 48.25724,
        "longitude": 14.71796
    },
    {
        "cityId": 2772395,
        "name": "Linz Stadt",
        "stateId": 2769848,
        "latitude": 48.3,
        "longitude": 14.28333
    },
    {
        "cityId": 2772396,
        "name": "Politischer Bezirk Linz-Land",
        "stateId": 2769848,
        "latitude": 48.16667,
        "longitude": 14.3
    },
    {
        "cityId": 2774389,
        "name": "Politischer Bezirk Kirchdorf an der Krems",
        "stateId": 2769848,
        "latitude": 47.84346,
        "longitude": 14.21346
    },
    {
        "cityId": 2777971,
        "name": "Politischer Bezirk Grieskirchen",
        "stateId": 2769848,
        "latitude": 48.26667,
        "longitude": 13.8
    },
    {
        "cityId": 2778435,
        "name": "Politischer Bezirk Gmunden",
        "stateId": 2769848,
        "latitude": 47.75,
        "longitude": 13.75
    },
    {
        "cityId": 2779274,
        "name": "Politischer Bezirk Freistadt",
        "stateId": 2769848,
        "latitude": 48.47006,
        "longitude": 14.64844
    },
    {
        "cityId": 2780393,
        "name": "Politischer Bezirk Eferding",
        "stateId": 2769848,
        "latitude": 48.32168,
        "longitude": 13.98453
    },
    {
        "cityId": 2781519,
        "name": "Politischer Bezirk Braunau am Inn",
        "stateId": 2769848,
        "latitude": 48.11203,
        "longitude": 13.08924
    },
    {
        "cityId": 7871309,
        "name": "Wels Stadt",
        "stateId": 2769848,
        "latitude": 48.16082,
        "longitude": 14.02164
    }
]