[
    {
        "cityId": 692311,
        "name": "Gorodskoy okrug Sudak",
        "stateId": 703883,
        "latitude": 44.91667,
        "longitude": 35.00202
    },
    {
        "cityId": 693058,
        "name": "Sovetskiy rayon",
        "stateId": 703883,
        "latitude": 45.31516,
        "longitude": 34.92914
    },
    {
        "cityId": 693803,
        "name": "Simferopol\u2019skiy rayon",
        "stateId": 703883,
        "latitude": 44.9569,
        "longitude": 34.10225
    },
    {
        "cityId": 694905,
        "name": "Sakskiy rayon",
        "stateId": 703883,
        "latitude": 45.27799,
        "longitude": 33.52911
    },
    {
        "cityId": 695741,
        "name": "Razdol\u2019nenskiy rayon",
        "stateId": 703883,
        "latitude": 45.67086,
        "longitude": 33.44075
    },
    {
        "cityId": 697572,
        "name": "Pervomayskiy rayon",
        "stateId": 703883,
        "latitude": 45.59825,
        "longitude": 33.83249
    },
    {
        "cityId": 700018,
        "name": "Nizhnegorskiy rayon",
        "stateId": 703883,
        "latitude": 45.4843,
        "longitude": 34.76798
    },
    {
        "cityId": 703233,
        "name": "Leninskiy rayon",
        "stateId": 703883,
        "latitude": 45.24693,
        "longitude": 36.0054
    },
    {
        "cityId": 704361,
        "name": "Krasnoperekopskiy rayon",
        "stateId": 703883,
        "latitude": 45.96992,
        "longitude": 33.8799
    },
    {
        "cityId": 704383,
        "name": "Krasnogvardeyskiy rayon",
        "stateId": 703883,
        "latitude": 45.4023,
        "longitude": 34.25464
    },
    {
        "cityId": 705800,
        "name": "Kirovskiy rayon",
        "stateId": 703883,
        "latitude": 45.15522,
        "longitude": 35.17696
    },
    {
        "cityId": 709333,
        "name": "Dzhankoyskiy rayon",
        "stateId": 703883,
        "latitude": 45.78706,
        "longitude": 34.39197
    },
    {
        "cityId": 710690,
        "name": "Chernomorskiy rayon",
        "stateId": 703883,
        "latitude": 45.48798,
        "longitude": 32.92614
    },
    {
        "cityId": 712585,
        "name": "Belogorskiy rayon",
        "stateId": 703883,
        "latitude": 45.063,
        "longitude": 34.55675
    },
    {
        "cityId": 712968,
        "name": "Bakhchisarayskiy rayon",
        "stateId": 703883,
        "latitude": 44.75002,
        "longitude": 33.8633
    },
    {
        "cityId": 8449683,
        "name": "Gorodskoy okrug Feodosiya",
        "stateId": 703883,
        "latitude": 45.04612,
        "longitude": 35.37289
    },
    {
        "cityId": 8449684,
        "name": "Gorodskoy okrug Simferopol",
        "stateId": 703883,
        "latitude": 44.94803,
        "longitude": 34.10912
    },
    {
        "cityId": 8449685,
        "name": "Gorodskoy okrug Saki",
        "stateId": 703883,
        "latitude": 45.1278,
        "longitude": 33.60134
    },
    {
        "cityId": 8449687,
        "name": "Gorodskoy okrug Yalta",
        "stateId": 703883,
        "latitude": 44.49638,
        "longitude": 34.16336
    },
    {
        "cityId": 8449688,
        "name": "Gorodskoy okrug Alushta",
        "stateId": 703883,
        "latitude": 44.67256,
        "longitude": 34.41467
    },
    {
        "cityId": 8449689,
        "name": "Gorodskoy okrug Armyansk",
        "stateId": 703883,
        "latitude": 46.10871,
        "longitude": 33.69095
    },
    {
        "cityId": 8449690,
        "name": "Gorodskoy okrug Dzhankoy",
        "stateId": 703883,
        "latitude": 45.7081,
        "longitude": 34.39407
    },
    {
        "cityId": 8449691,
        "name": "Gorodskoy okrug Yevpatoriya",
        "stateId": 703883,
        "latitude": 45.19559,
        "longitude": 33.36342
    },
    {
        "cityId": 8449692,
        "name": "Gorodskoy okrug Kerch",
        "stateId": 703883,
        "latitude": 45.35307,
        "longitude": 36.47414
    },
    {
        "cityId": 8449693,
        "name": "Gorodskoy okrug Krasnoperekopsk",
        "stateId": 703883,
        "latitude": 45.9533,
        "longitude": 33.79669
    }
]