[
    {
        "cityId": 9030684,
        "name": "Kirovs\u2019ka Mis\u2019krada",
        "stateId": 709716,
        "latitude": 48.15135,
        "longitude": 38.36331
    },
    {
        "cityId": 9030685,
        "name": "Shakhtars\u2019ka Mis\u2019krada",
        "stateId": 709716,
        "latitude": 48.07118,
        "longitude": 38.4627
    },
    {
        "cityId": 9030686,
        "name": "Torez\u2019ka Mis\u2019krada",
        "stateId": 709716,
        "latitude": 48.03968,
        "longitude": 38.62755
    },
    {
        "cityId": 9030687,
        "name": "Snizhnyans\u2019ka Mis\u2019krada",
        "stateId": 709716,
        "latitude": 48.03723,
        "longitude": 38.76498
    },
    {
        "cityId": 9030688,
        "name": "Avdiyivs\u2019ka Mis\u2019krada",
        "stateId": 709716,
        "latitude": 48.14194,
        "longitude": 37.75221
    },
    {
        "cityId": 9030689,
        "name": "Yasynuvats\u2019ka Mis\u2019krada",
        "stateId": 709716,
        "latitude": 48.1284,
        "longitude": 37.85919
    },
    {
        "cityId": 9030690,
        "name": "Zhdanivs\u2019ka Mis\u2019krada",
        "stateId": 709716,
        "latitude": 48.1264,
        "longitude": 38.27128
    },
    {
        "cityId": 9030691,
        "name": "Khartsyz\u2019ka Mis\u2019krada",
        "stateId": 709716,
        "latitude": 48.03191,
        "longitude": 38.24919
    },
    {
        "cityId": 9030692,
        "name": "Donets\u2019ka Mis\u2019krada",
        "stateId": 709716,
        "latitude": 47.94383,
        "longitude": 37.83704
    },
    {
        "cityId": 9030861,
        "name": "Slov\u201dyans\u2019ka Mis\u2019krada",
        "stateId": 709716,
        "latitude": 48.85224,
        "longitude": 37.61619
    },
    {
        "cityId": 9030862,
        "name": "Kramators\u2019ka Mis\u2019krada",
        "stateId": 709716,
        "latitude": 48.72186,
        "longitude": 37.54932
    },
    {
        "cityId": 9030864,
        "name": "Druzhkivs\u2019ka Mis\u2019krada",
        "stateId": 709716,
        "latitude": 48.62167,
        "longitude": 37.52909
    },
    {
        "cityId": 9030869,
        "name": "Mariupol\u2019s\u2019ka Mis\u2019krada",
        "stateId": 709716,
        "latitude": 47.14021,
        "longitude": 37.5476
    },
    {
        "cityId": 9030870,
        "name": "Artemivs\u2019ka Mis\u2019krada",
        "stateId": 709716,
        "latitude": 48.59574,
        "longitude": 37.99991
    },
    {
        "cityId": 9030974,
        "name": "Kostyantynivs\u2019ka Mis\u2019krada",
        "stateId": 709716,
        "latitude": 48.52546,
        "longitude": 37.71169
    },
    {
        "cityId": 9030975,
        "name": "Krasnoarmiys\u2019ka Mis\u2019krada",
        "stateId": 709716,
        "latitude": 48.28234,
        "longitude": 37.17187
    },
    {
        "cityId": 9030976,
        "name": "Dobropil\u2019s\u2019ka Mis\u2019krada",
        "stateId": 709716,
        "latitude": 48.46896,
        "longitude": 37.08464
    },
    {
        "cityId": 9030977,
        "name": "Krasnolymans\u2019ka Mis\u2019krada",
        "stateId": 709716,
        "latitude": 48.98034,
        "longitude": 37.82025
    },
    {
        "cityId": 9030978,
        "name": "Selydivs\u2019ka Mis\u2019krada",
        "stateId": 709716,
        "latitude": 48.1453,
        "longitude": 37.29962
    },
    {
        "cityId": 9030979,
        "name": "Vuhledars\u2019ka Mis\u2019krada",
        "stateId": 709716,
        "latitude": 47.77524,
        "longitude": 37.25492
    },
    {
        "cityId": 9030980,
        "name": "Dokuchayevs\u2019ka Mis\u2019krada",
        "stateId": 709716,
        "latitude": 47.75418,
        "longitude": 37.67845
    },
    {
        "cityId": 9030981,
        "name": "Debal\u2019tsivs\u2019ka Mis\u2019krada",
        "stateId": 709716,
        "latitude": 48.3445,
        "longitude": 38.42154
    },
    {
        "cityId": 9030982,
        "name": "Horlivs\u2019ka Mis\u2019krada",
        "stateId": 709716,
        "latitude": 48.33964,
        "longitude": 38.08469
    },
    {
        "cityId": 9030983,
        "name": "Dzerzhyns\u2019ka Mis\u2019krada",
        "stateId": 709716,
        "latitude": 48.38234,
        "longitude": 37.87319
    },
    {
        "cityId": 9030984,
        "name": "Yenakiyevs\u2019ka Mis\u2019krada",
        "stateId": 709716,
        "latitude": 48.24028,
        "longitude": 38.24604
    },
    {
        "cityId": 9030985,
        "name": "Dymytrovs\u2019ka Mis\u2019krada",
        "stateId": 709716,
        "latitude": 48.29411,
        "longitude": 37.27101
    },
    {
        "cityId": 9030986,
        "name": "Novohrodivs\u2019ka Mis\u2019krada",
        "stateId": 709716,
        "latitude": 48.20842,
        "longitude": 37.33136
    },
    {
        "cityId": 9030987,
        "name": "Makiyivs\u2019ka Mis\u2019krada",
        "stateId": 709716,
        "latitude": 48.06287,
        "longitude": 38.03075
    }
]