[
    {
        "cityId": "701891",
        "name": "Man\u2019kivs\u2019kyy Rayon",
        "stateId": "710802",
        "latitude": 49.00262,
        "longitude": 30.35956
    },
    {
        "cityId": "708337",
        "name": "Horodyshchens\u2019kyy Rayon",
        "stateId": "710802",
        "latitude": 49.25613,
        "longitude": 31.42131
    },
    {
        "cityId": "709640",
        "name": "Drabiv Raion",
        "stateId": "710802",
        "latitude": 49.91667,
        "longitude": 32.25
    },
    {
        "cityId": "710713",
        "name": "Chornobayivs\u2019kyy Rayon",
        "stateId": "710802",
        "latitude": 49.56226,
        "longitude": 32.44687
    },
    {
        "cityId": "9808863",
        "name": "Umans\u2019ka Mis\u2019krada",
        "stateId": "710802",
        "latitude": 48.75013,
        "longitude": 30.21953
    },
    {
        "cityId": "9808867",
        "name": "Smilyans\u2019ka Mis\u2019krada",
        "stateId": "710802",
        "latitude": 49.21576,
        "longitude": 31.88941
    },
    {
        "cityId": "9809490",
        "name": "Zolotonis\u2019ka Mis\u2019krada",
        "stateId": "710802",
        "latitude": 49.66584,
        "longitude": 32.08069
    },
    {
        "cityId": "9811351",
        "name": "Cherkas\u2019ka Mis\u2019krada",
        "stateId": "710802",
        "latitude": 49.42598,
        "longitude": 32.05589
    },
    {
        "cityId": "9811441",
        "name": "Kanivs\u2019ka Mis\u2019krada",
        "stateId": "710802",
        "latitude": 49.75226,
        "longitude": 31.45935
    },
    {
        "cityId": "9812967",
        "name": "Vatutins\u2019ka Mis\u2019krada",
        "stateId": "710802",
        "latitude": 49.01332,
        "longitude": 31.05237
    }
]