[
    {
        "cityId": "2273190",
        "name": "Webado",
        "stateId": "2588490",
        "latitude": 4.58333,
        "longitude": -8.08333
    },
    {
        "cityId": "2274101",
        "name": "Sasstown",
        "stateId": "2588490",
        "latitude": 4.83333,
        "longitude": -8.33333
    },
    {
        "cityId": "2276161",
        "name": "Lower Jloh",
        "stateId": "2588490",
        "latitude": 4.87826,
        "longitude": -8.5624
    },
    {
        "cityId": "2276626",
        "name": "Grand Cess Wedabo",
        "stateId": "2588490",
        "latitude": 4.62337,
        "longitude": -8.08634
    },
    {
        "cityId": "2277191",
        "name": "Garraway",
        "stateId": "2588490",
        "latitude": 4.56398,
        "longitude": -7.9134
    },
    {
        "cityId": "2278169",
        "name": "Buah",
        "stateId": "2588490",
        "latitude": 4.84096,
        "longitude": -8.16949
    },
    {
        "cityId": "2278361",
        "name": "Bolloh District",
        "stateId": "2588490",
        "latitude": 4.96473,
        "longitude": -8.39801
    },
    {
        "cityId": "2278890",
        "name": "Barclayville",
        "stateId": "2588490",
        "latitude": 4.72704,
        "longitude": -8.18442
    },
    {
        "cityId": "9645219",
        "name": "Forpoh District",
        "stateId": "2588490",
        "latitude": 5.11111,
        "longitude": -8.237
    },
    {
        "cityId": "9645220",
        "name": "Wlogba District",
        "stateId": "2588490",
        "latitude": 5.08166,
        "longitude": -8.17601
    },
    {
        "cityId": "9645221",
        "name": "Dweh District",
        "stateId": "2588490",
        "latitude": 5.07072,
        "longitude": -8.06874
    },
    {
        "cityId": "9645222",
        "name": "Kpi District",
        "stateId": "2588490",
        "latitude": 5.01309,
        "longitude": -8.14151
    },
    {
        "cityId": "9645223",
        "name": "Dorbor District",
        "stateId": "2588490",
        "latitude": 4.99377,
        "longitude": -8.28102
    },
    {
        "cityId": "9645224",
        "name": "Fenetoe District",
        "stateId": "2588490",
        "latitude": 4.90498,
        "longitude": -8.37372
    },
    {
        "cityId": "9645225",
        "name": "Upper Jloh District",
        "stateId": "2588490",
        "latitude": 4.82,
        "longitude": -8.46837
    },
    {
        "cityId": "9645226",
        "name": "Nrokwia-Wesldow District",
        "stateId": "2588490",
        "latitude": 4.83094,
        "longitude": -8.32619
    },
    {
        "cityId": "9645227",
        "name": "Felo-Jekwi District",
        "stateId": "2588490",
        "latitude": 4.72577,
        "longitude": -8.3834
    },
    {
        "cityId": "9645228",
        "name": "Bleebo District",
        "stateId": "2588490",
        "latitude": 4.7548,
        "longitude": -7.95558
    },
    {
        "cityId": "9645229",
        "name": "Trenbo District",
        "stateId": "2588490",
        "latitude": 4.70179,
        "longitude": -7.87355
    }
]