[
    {
        "cityId": 9166029,
        "name": "Adi Tekelezan Subregion",
        "stateId": 448497,
        "latitude": 15.56931,
        "longitude": 38.77615
    },
    {
        "cityId": 9166032,
        "name": "Asmat",
        "stateId": 448497,
        "latitude": 16.2498,
        "longitude": 38.0331
    },
    {
        "cityId": 9166033,
        "name": "Elabered Subregion",
        "stateId": 448497,
        "latitude": 15.7106,
        "longitude": 38.6286
    },
    {
        "cityId": 9166038,
        "name": "Hagaz Subregion",
        "stateId": 448497,
        "latitude": 15.70923,
        "longitude": 38.26874
    },
    {
        "cityId": 9166039,
        "name": "Halhal Subregion",
        "stateId": 448497,
        "latitude": 15.993,
        "longitude": 38.229
    },
    {
        "cityId": 9166040,
        "name": "Habero Subregion",
        "stateId": 448497,
        "latitude": 16.275,
        "longitude": 38.4
    },
    {
        "cityId": 9166042,
        "name": "Kerkebet",
        "stateId": 448497,
        "latitude": 16.1,
        "longitude": 37.41667
    },
    {
        "cityId": 9166043,
        "name": "Keren Subregion",
        "stateId": 448497,
        "latitude": 15.78333,
        "longitude": 38.45
    },
    {
        "cityId": 9166044,
        "name": "Sela Subregion",
        "stateId": 448497,
        "latitude": 16.88,
        "longitude": 37.44
    },
    {
        "cityId": 10627798,
        "name": "Geleb Subregion",
        "stateId": 448497,
        "latitude": 15.79262,
        "longitude": 38.79581
    }
]