[
    {
        "cityId": 2733531,
        "name": "Tondela",
        "stateId": 2732264,
        "latitude": 40.54052,
        "longitude": -8.1004
    },
    {
        "cityId": 7116056,
        "name": "Carregal do Sal",
        "stateId": 2732264,
        "latitude": 40.45007,
        "longitude": -7.99819
    },
    {
        "cityId": 8010651,
        "name": "Armamar",
        "stateId": 2732264,
        "latitude": 41.09718,
        "longitude": -7.68553
    },
    {
        "cityId": 8010652,
        "name": "Castro Daire",
        "stateId": 2732264,
        "latitude": 40.92279,
        "longitude": -7.93878
    },
    {
        "cityId": 8010653,
        "name": "Cinf\u00e3es",
        "stateId": 2732264,
        "latitude": 41.03986,
        "longitude": -8.11218
    },
    {
        "cityId": 8010654,
        "name": "Lamego",
        "stateId": 2732264,
        "latitude": 41.10229,
        "longitude": -7.81025
    },
    {
        "cityId": 8010655,
        "name": "Mangualde",
        "stateId": 2732264,
        "latitude": 40.5956,
        "longitude": -7.71727
    },
    {
        "cityId": 8010656,
        "name": "Moimenta da Beira",
        "stateId": 2732264,
        "latitude": 40.97134,
        "longitude": -7.62959
    },
    {
        "cityId": 8010657,
        "name": "Mort\u00e1gua",
        "stateId": 2732264,
        "latitude": 40.39434,
        "longitude": -8.25811
    },
    {
        "cityId": 8010658,
        "name": "Nelas",
        "stateId": 2732264,
        "latitude": 40.52946,
        "longitude": -7.88259
    },
    {
        "cityId": 8010659,
        "name": "Oliveira de Frades",
        "stateId": 2732264,
        "latitude": 40.74639,
        "longitude": -8.1752
    },
    {
        "cityId": 8010660,
        "name": "Penalva do Castelo",
        "stateId": 2732264,
        "latitude": 40.66791,
        "longitude": -7.66015
    },
    {
        "cityId": 8010661,
        "name": "Penedono",
        "stateId": 2732264,
        "latitude": 40.993,
        "longitude": -7.39401
    },
    {
        "cityId": 8010662,
        "name": "Resende",
        "stateId": 2732264,
        "latitude": 41.07688,
        "longitude": -7.95123
    },
    {
        "cityId": 8010663,
        "name": "Santa Comba D\u00e3o",
        "stateId": 2732264,
        "latitude": 40.40442,
        "longitude": -8.1138
    },
    {
        "cityId": 8010664,
        "name": "S\u00e3o Jo\u00e3o da Pesqueira",
        "stateId": 2732264,
        "latitude": 41.11079,
        "longitude": -7.43382
    },
    {
        "cityId": 8010665,
        "name": "S\u00e3o Pedro do Sul",
        "stateId": 2732264,
        "latitude": 40.80073,
        "longitude": -8.09023
    },
    {
        "cityId": 8010666,
        "name": "S\u00e1t\u00e3o",
        "stateId": 2732264,
        "latitude": 40.76246,
        "longitude": -7.676
    },
    {
        "cityId": 8010667,
        "name": "Sernancelhe",
        "stateId": 2732264,
        "latitude": 40.92097,
        "longitude": -7.51226
    },
    {
        "cityId": 8010668,
        "name": "Tabua\u00e7o",
        "stateId": 2732264,
        "latitude": 41.09555,
        "longitude": -7.56735
    },
    {
        "cityId": 8010669,
        "name": "Tarouca",
        "stateId": 2732264,
        "latitude": 41.02651,
        "longitude": -7.74998
    },
    {
        "cityId": 8010670,
        "name": "Vila Nova de Paiva",
        "stateId": 2732264,
        "latitude": 40.8659,
        "longitude": -7.76127
    },
    {
        "cityId": 8010671,
        "name": "Viseu",
        "stateId": 2732264,
        "latitude": 40.6745,
        "longitude": -7.91721
    },
    {
        "cityId": 8010672,
        "name": "Vouzela",
        "stateId": 2732264,
        "latitude": 40.68944,
        "longitude": -8.1136
    }
]