[
    {
        "cityId": 11820779,
        "name": "Municipio G",
        "stateId": 3441572,
        "latitude": -34.77611,
        "longitude": -56.25665
    },
    {
        "cityId": 11820780,
        "name": "Municipio D",
        "stateId": 3441572,
        "latitude": -34.78791,
        "longitude": -56.14991
    },
    {
        "cityId": 11820781,
        "name": "Municipio F",
        "stateId": 3441572,
        "latitude": -34.82272,
        "longitude": -56.0909
    },
    {
        "cityId": 11820782,
        "name": "Municipio E",
        "stateId": 3441572,
        "latitude": -34.88324,
        "longitude": -56.08955
    },
    {
        "cityId": 11820783,
        "name": "Municipio A",
        "stateId": 3441572,
        "latitude": -34.84311,
        "longitude": -56.31553
    },
    {
        "cityId": 11820845,
        "name": "Municipio Ch",
        "stateId": 3441572,
        "latitude": -34.90288,
        "longitude": -56.14853
    },
    {
        "cityId": 11820846,
        "name": "Municipio B",
        "stateId": 3441572,
        "latitude": -34.90509,
        "longitude": -56.18389
    },
    {
        "cityId": 11820869,
        "name": "Municipio C",
        "stateId": 3441572,
        "latitude": -34.87168,
        "longitude": -56.18736
    }
]