[
    {
        "cityId": 1253629,
        "name": "Uttark\u0101shi",
        "stateId": 1444366,
        "latitude": 31,
        "longitude": 78.5
    },
    {
        "cityId": 1254807,
        "name": "Tehri-Garhw\u0101l",
        "stateId": 1444366,
        "latitude": 30.5,
        "longitude": 78.66667
    },
    {
        "cityId": 1259504,
        "name": "Pithor\u0101garh",
        "stateId": 1444366,
        "latitude": 30,
        "longitude": 80.25
    },
    {
        "cityId": 1262118,
        "name": "Naini T\u0101l",
        "stateId": 1444366,
        "latitude": 29.2,
        "longitude": 79.41667
    },
    {
        "cityId": 1271535,
        "name": "Garhw\u0101l",
        "stateId": 1444366,
        "latitude": 29.96366,
        "longitude": 78.92853
    },
    {
        "cityId": 1274839,
        "name": "Chamoli",
        "stateId": 1444366,
        "latitude": 30.5,
        "longitude": 79.5
    },
    {
        "cityId": 1278975,
        "name": "Almora",
        "stateId": 1444366,
        "latitude": 29.69223,
        "longitude": 79.49789
    },
    {
        "cityId": 7701513,
        "name": "Bageshwar",
        "stateId": 1444366,
        "latitude": 29.97315,
        "longitude": 79.83224
    },
    {
        "cityId": 7701515,
        "name": "Champawat",
        "stateId": 1444366,
        "latitude": 29.28756,
        "longitude": 80.03737
    },
    {
        "cityId": 7701516,
        "name": "Udham Singh Nagar",
        "stateId": 1444366,
        "latitude": 29.02746,
        "longitude": 79.52347
    },
    {
        "cityId": 8739870,
        "name": "Rudraprayag",
        "stateId": 1444366,
        "latitude": 30.60872,
        "longitude": 79.06517
    },
    {
        "cityId": 8740057,
        "name": "Haridwar",
        "stateId": 1444366,
        "latitude": 29.96967,
        "longitude": 78.07459
    },
    {
        "cityId": 9072830,
        "name": "Dehradun",
        "stateId": 1444366,
        "latitude": 30.33,
        "longitude": 78.06
    }
]