[
    {
        "cityId": "2089207",
        "name": "Okapa",
        "stateId": "2097855",
        "latitude": -6.63333,
        "longitude": 145.5
    },
    {
        "cityId": "2092104",
        "name": "Lufa",
        "stateId": "2097855",
        "latitude": -6.45,
        "longitude": 145.25
    },
    {
        "cityId": "2095037",
        "name": "Kainantu",
        "stateId": "2097855",
        "latitude": -6.41667,
        "longitude": 145.91667
    },
    {
        "cityId": "2096222",
        "name": "Henganofi",
        "stateId": "2097855",
        "latitude": -6.21667,
        "longitude": 145.66667
    },
    {
        "cityId": "2096740",
        "name": "Goroka",
        "stateId": "2097855",
        "latitude": -6.05,
        "longitude": 145.38333
    },
    {
        "cityId": "8657205",
        "name": "Unggai Bena",
        "stateId": "2097855",
        "latitude": -6.11667,
        "longitude": 145.51667
    },
    {
        "cityId": "8657206",
        "name": "Daulo",
        "stateId": "2097855",
        "latitude": -5.98333,
        "longitude": 145.23333
    },
    {
        "cityId": "9855501",
        "name": "Obura Wonenara",
        "stateId": "2097855",
        "latitude": -6.55434,
        "longitude": 145.97328
    }
]