[
    {
        "cityId": "1216582",
        "name": "Qiziltepa Tumani",
        "stateId": "1484841",
        "latitude": 39.91667,
        "longitude": 65
    },
    {
        "cityId": "1512504",
        "name": "Uchkuduk District",
        "stateId": "1484841",
        "latitude": 42.13693,
        "longitude": 63.56827
    },
    {
        "cityId": "1512673",
        "name": "Tomdi Tumani",
        "stateId": "1484841",
        "latitude": 42.22496,
        "longitude": 65.2346
    },
    {
        "cityId": "1513082",
        "name": "Nurota Tumani",
        "stateId": "1484841",
        "latitude": 40.48287,
        "longitude": 65.86746
    },
    {
        "cityId": "1513133",
        "name": "Navoiy Tumani",
        "stateId": "1484841",
        "latitude": 40.02021,
        "longitude": 65.21556
    },
    {
        "cityId": "1513135",
        "name": "Navbahor Tumani",
        "stateId": "1484841",
        "latitude": 40.24924,
        "longitude": 65.30487
    },
    {
        "cityId": "1513622",
        "name": "Xatirchi Tumani",
        "stateId": "1484841",
        "latitude": 40.16667,
        "longitude": 66
    },
    {
        "cityId": "1513830",
        "name": "Konimex Tumani",
        "stateId": "1484841",
        "latitude": 40.21,
        "longitude": 64.98
    },
    {
        "cityId": "8714365",
        "name": "Navbakhor Tumani",
        "stateId": "1484841",
        "latitude": 40.22,
        "longitude": 65.30306
    }
]