[
    {
        "cityId": 1512652,
        "name": "Toshkent Tumani",
        "stateId": 1484838,
        "latitude": 41.4,
        "longitude": 69.2
    },
    {
        "cityId": 1512751,
        "name": "\u016crta Chirchiq Tumani",
        "stateId": 1484838,
        "latitude": 41.08333,
        "longitude": 69.33333
    },
    {
        "cityId": 1512985,
        "name": "Piskent Tumani",
        "stateId": 1484838,
        "latitude": 40.83333,
        "longitude": 69.5
    },
    {
        "cityId": 1513016,
        "name": "Parkent Tumani",
        "stateId": 1484838,
        "latitude": 41.3,
        "longitude": 69.66667
    },
    {
        "cityId": 1513057,
        "name": "Qibray Tumani",
        "stateId": 1484838,
        "latitude": 41.5,
        "longitude": 69.5
    },
    {
        "cityId": 1513498,
        "name": "Yuqori Chirchiq Tumani",
        "stateId": 1484838,
        "latitude": 41.25,
        "longitude": 69.5
    },
    {
        "cityId": 1513860,
        "name": "Zangiota Tumani",
        "stateId": 1484838,
        "latitude": 41.25,
        "longitude": 69.08333
    },
    {
        "cityId": 1514010,
        "name": "Quyi Chirchiq Tumani",
        "stateId": 1484838,
        "latitude": 40.91667,
        "longitude": 69
    },
    {
        "cityId": 1514214,
        "name": "Chinoz Tumani",
        "stateId": 1484838,
        "latitude": 41,
        "longitude": 68.83333
    },
    {
        "cityId": 1514327,
        "name": "B\u016dka Tumani",
        "stateId": 1484838,
        "latitude": 40.75,
        "longitude": 69.16667
    },
    {
        "cityId": 1514338,
        "name": "B\u016dstonliq Tumani",
        "stateId": 1484838,
        "latitude": 41.66667,
        "longitude": 70
    },
    {
        "cityId": 1514399,
        "name": "Bekobod Tumani",
        "stateId": 1484838,
        "latitude": 40.41667,
        "longitude": 69.16667
    },
    {
        "cityId": 1514667,
        "name": "Oqq\u016drghon Tumani",
        "stateId": 1484838,
        "latitude": 40.9,
        "longitude": 69.08333
    },
    {
        "cityId": 1514687,
        "name": "Ohangaron Tumani",
        "stateId": 1484838,
        "latitude": 41,
        "longitude": 70
    },
    {
        "cityId": 1538256,
        "name": "Olmaliq Shahri",
        "stateId": 1484838,
        "latitude": 40.84472,
        "longitude": 69.59833
    },
    {
        "cityId": 1538257,
        "name": "Angren Shahri",
        "stateId": 1484838,
        "latitude": 41.01667,
        "longitude": 70.14361
    },
    {
        "cityId": 1538258,
        "name": "Ohangaron Shahri",
        "stateId": 1484838,
        "latitude": 40.90639,
        "longitude": 69.63833
    },
    {
        "cityId": 1538259,
        "name": "Bekobod Shahri",
        "stateId": 1484838,
        "latitude": 40.21583,
        "longitude": 69.25139
    },
    {
        "cityId": 1538260,
        "name": "Chirchiq Shahri",
        "stateId": 1484838,
        "latitude": 41.46889,
        "longitude": 69.58222
    },
    {
        "cityId": 1538261,
        "name": "Yangiobod Shahri",
        "stateId": 1484838,
        "latitude": 41.12778,
        "longitude": 70.10778
    }
]