[
    {
        "cityId": 1163570,
        "name": "Thatta District",
        "stateId": 1164807,
        "latitude": 24.49026,
        "longitude": 67.92284
    },
    {
        "cityId": 1163602,
        "name": "Thar P\u0101rkar District",
        "stateId": 1164807,
        "latitude": 24.82085,
        "longitude": 70.18002
    },
    {
        "cityId": 1164407,
        "name": "Sukkur District",
        "stateId": 1164807,
        "latitude": 27.49959,
        "longitude": 69.14697
    },
    {
        "cityId": 1165106,
        "name": "Shik\u0101rpur District",
        "stateId": 1164807,
        "latitude": 27.95321,
        "longitude": 68.60919
    },
    {
        "cityId": 1166162,
        "name": "S\u0101nghar District",
        "stateId": 1164807,
        "latitude": 25.97964,
        "longitude": 69.29361
    },
    {
        "cityId": 1169115,
        "name": "Naw\u0101bsh\u0101h District",
        "stateId": 1164807,
        "latitude": 26.36655,
        "longitude": 68.31772
    },
    {
        "cityId": 1172127,
        "name": "L\u0101rk\u0101na District",
        "stateId": 1164807,
        "latitude": 27.52111,
        "longitude": 68.19208
    },
    {
        "cityId": 1174348,
        "name": "Sukkur Division",
        "stateId": 1164807,
        "latitude": 27.19167,
        "longitude": 69.23181
    },
    {
        "cityId": 1174349,
        "name": "Khairpur District",
        "stateId": 1164807,
        "latitude": 26.83477,
        "longitude": 69.06444
    },
    {
        "cityId": 1174870,
        "name": "Kar\u0101chi District",
        "stateId": 1164807,
        "latitude": 25.07267,
        "longitude": 67.20346
    },
    {
        "cityId": 1176514,
        "name": "Jacobabad District",
        "stateId": 1164807,
        "latitude": 28.2221,
        "longitude": 68.4902
    },
    {
        "cityId": 1176732,
        "name": "Hyderabad Division",
        "stateId": 1164807,
        "latitude": 25.31426,
        "longitude": 68.04064
    },
    {
        "cityId": 1176733,
        "name": "Hyder\u0101b\u0101d District",
        "stateId": 1164807,
        "latitude": 25.43244,
        "longitude": 68.48421
    },
    {
        "cityId": 1180802,
        "name": "D\u0101du District",
        "stateId": 1164807,
        "latitude": 26.87326,
        "longitude": 67.50895
    },
    {
        "cityId": 1184051,
        "name": "Bad\u012bn District",
        "stateId": 1164807,
        "latitude": 24.72437,
        "longitude": 68.87457
    },
    {
        "cityId": 1376894,
        "name": "Mirpur Khas District",
        "stateId": 1164807,
        "latitude": 25.5508,
        "longitude": 69.00307
    },
    {
        "cityId": 7352189,
        "name": "Naushahro F\u012broz District",
        "stateId": 1164807,
        "latitude": 26.8756,
        "longitude": 68.12067
    },
    {
        "cityId": 7418822,
        "name": "Ghotki District",
        "stateId": 1164807,
        "latitude": 27.81569,
        "longitude": 69.65807
    },
    {
        "cityId": 7419156,
        "name": "J\u0101mshoro District",
        "stateId": 1164807,
        "latitude": 25.74112,
        "longitude": 67.81364
    },
    {
        "cityId": 7419157,
        "name": "Mati\u0101ri District",
        "stateId": 1164807,
        "latitude": 25.87582,
        "longitude": 68.41338
    },
    {
        "cityId": 9034783,
        "name": "Qamber Shahdadkot District",
        "stateId": 1164807,
        "latitude": 27.58917,
        "longitude": 68
    },
    {
        "cityId": 9035095,
        "name": "Kashmore District",
        "stateId": 1164807,
        "latitude": 28.44107,
        "longitude": 69.58354
    },
    {
        "cityId": 9072726,
        "name": "Umerkot District",
        "stateId": 1164807,
        "latitude": 25.37,
        "longitude": 69.73
    },
    {
        "cityId": 9625763,
        "name": "Tando Allahyar District",
        "stateId": 1164807,
        "latitude": 25.46,
        "longitude": 68.72
    },
    {
        "cityId": 9625902,
        "name": "Tando Mohammad Khan District",
        "stateId": 1164807,
        "latitude": 25.01667,
        "longitude": 68.48333
    },
    {
        "cityId": 10300608,
        "name": "Sujawal District",
        "stateId": 1164807,
        "latitude": 24.60639,
        "longitude": 68.07194
    },
    {
        "cityId": 11744828,
        "name": "Mirpur Khas Division",
        "stateId": 1164807,
        "latitude": 24.9644,
        "longitude": 69.98645
    },
    {
        "cityId": 11744830,
        "name": "Shaheed Benazirabad Division",
        "stateId": 1164807,
        "latitude": 26.22574,
        "longitude": 68.85422
    }
]