[
    {
        "cityId": "1164536",
        "name": "South Waz\u012brist\u0101n Agency",
        "stateId": "1179245",
        "latitude": 32.30397,
        "longitude": 69.68207
    },
    {
        "cityId": "1168705",
        "name": "Orakzai Agency",
        "stateId": "1179245",
        "latitude": 33.70777,
        "longitude": 71.00238
    },
    {
        "cityId": "1168875",
        "name": "North Waz\u012brist\u0101n Agency",
        "stateId": "1179245",
        "latitude": 32.95087,
        "longitude": 69.95764
    },
    {
        "cityId": "1170122",
        "name": "Mohmand Agency",
        "stateId": "1179245",
        "latitude": 34.46386,
        "longitude": 71.35116
    },
    {
        "cityId": "1172574",
        "name": "Kurram Agency",
        "stateId": "1179245",
        "latitude": 33.71017,
        "longitude": 70.3401
    },
    {
        "cityId": "1173641",
        "name": "Khyber Agency",
        "stateId": "1179245",
        "latitude": 33.96113,
        "longitude": 71.0577
    },
    {
        "cityId": "1180280",
        "name": "Dera Ism\u0101\u012bl Kh\u0101n Tribal Area",
        "stateId": "1179245",
        "latitude": 31.55687,
        "longitude": 70.16485
    },
    {
        "cityId": "1183781",
        "name": "B\u0101jaur Agency",
        "stateId": "1179245",
        "latitude": 34.75732,
        "longitude": 71.49067
    },
    {
        "cityId": "7419041",
        "name": "T\u0101nk Tribal Area",
        "stateId": "1179245",
        "latitude": 32.46451,
        "longitude": 70.30597
    },
    {
        "cityId": "7419043",
        "name": "Bannu Tribal Area",
        "stateId": "1179245",
        "latitude": 33.11444,
        "longitude": 70.6087
    },
    {
        "cityId": "7419044",
        "name": "Lakki Marwat Tribal Area",
        "stateId": "1179245",
        "latitude": 32.89074,
        "longitude": 70.35373
    },
    {
        "cityId": "7419049",
        "name": "Pesh\u0101war Tribal Area",
        "stateId": "1179245",
        "latitude": 33.74097,
        "longitude": 71.74599
    },
    {
        "cityId": "7419050",
        "name": "Koh\u0101t Tribal Area",
        "stateId": "1179245",
        "latitude": 33.66399,
        "longitude": 71.59205
    },
    {
        "cityId": "7732203",
        "name": "Chawkay",
        "stateId": "1179245",
        "latitude": 34.50502,
        "longitude": 71.15981
    }
]