[
    {
        "cityId": "3345496",
        "name": "Cela",
        "stateId": "3349234",
        "latitude": -11.28733,
        "longitude": 15.31679
    },
    {
        "cityId": "3346014",
        "name": "Sumbe",
        "stateId": "3349234",
        "latitude": -11.44707,
        "longitude": 13.93584
    },
    {
        "cityId": "3346113",
        "name": "Seles",
        "stateId": "3349234",
        "latitude": -11.49859,
        "longitude": 14.48977
    },
    {
        "cityId": "3346558",
        "name": "Quilenda",
        "stateId": "3349234",
        "latitude": -10.50668,
        "longitude": 14.35322
    },
    {
        "cityId": "3346597",
        "name": "Quibala",
        "stateId": "3349234",
        "latitude": -10.71279,
        "longitude": 15.2936
    },
    {
        "cityId": "3346659",
        "name": "Porto Amboim",
        "stateId": "3349234",
        "latitude": -10.61489,
        "longitude": 13.95903
    },
    {
        "cityId": "3347070",
        "name": "Mussende",
        "stateId": "3349234",
        "latitude": -10.21297,
        "longitude": 15.97635
    },
    {
        "cityId": "3347989",
        "name": "Libolo",
        "stateId": "3349234",
        "latitude": -10.01459,
        "longitude": 14.99474
    },
    {
        "cityId": "3348792",
        "name": "Ebo",
        "stateId": "3349234",
        "latitude": -10.92921,
        "longitude": 14.74483
    },
    {
        "cityId": "3349321",
        "name": "Conda",
        "stateId": "3349234",
        "latitude": -11.17912,
        "longitude": 14.4537
    },
    {
        "cityId": "3350385",
        "name": "Cassongue",
        "stateId": "3349234",
        "latitude": -11.81807,
        "longitude": 14.96898
    },
    {
        "cityId": "3351905",
        "name": "Amboim",
        "stateId": "3349234",
        "latitude": -10.89829,
        "longitude": 14.40732
    }
]