[
    {
        "cityId": 3347937,
        "name": "Lobito",
        "stateId": 3351660,
        "latitude": -12.13478,
        "longitude": 13.85612
    },
    {
        "cityId": 3348578,
        "name": "Ganda",
        "stateId": 3351660,
        "latitude": -13.08596,
        "longitude": 14.74157
    },
    {
        "cityId": 3349225,
        "name": "Cubal",
        "stateId": 3351660,
        "latitude": -13.11177,
        "longitude": 14.36729
    },
    {
        "cityId": 3349404,
        "name": "Chongoroi",
        "stateId": 3351660,
        "latitude": -13.58931,
        "longitude": 13.81231
    },
    {
        "cityId": 3351267,
        "name": "Caimbambo",
        "stateId": 3351660,
        "latitude": -13.08381,
        "longitude": 13.92201
    },
    {
        "cityId": 3351597,
        "name": "Bocoio",
        "stateId": 3351660,
        "latitude": -12.32017,
        "longitude": 14.23607
    },
    {
        "cityId": 3351661,
        "name": "Benguela",
        "stateId": 3351660,
        "latitude": -12.73963,
        "longitude": 13.57784
    },
    {
        "cityId": 3351758,
        "name": "Munic\u00edpio Balombo",
        "stateId": 3351660,
        "latitude": -13.33333,
        "longitude": 14.83333
    },
    {
        "cityId": 3351785,
        "name": "Ba\u00eda Farta",
        "stateId": 3351660,
        "latitude": -13.14834,
        "longitude": 13.1046
    },
    {
        "cityId": 10440258,
        "name": "Catumbela",
        "stateId": 3351660,
        "latitude": -12.46448,
        "longitude": 13.67159
    }
]