[
    {
        "cityId": "1516065",
        "name": "D\u00f6rg\u00f6n",
        "stateId": "1515696",
        "latitude": 48.31667,
        "longitude": 92.63333
    },
    {
        "cityId": "6619109",
        "name": "Erdeneb\u00fcren",
        "stateId": "1515696",
        "latitude": 48.47861,
        "longitude": 91.44041
    },
    {
        "cityId": "6619110",
        "name": "Buyant",
        "stateId": "1515696",
        "latitude": 48.06236,
        "longitude": 91.81721
    },
    {
        "cityId": "6619111",
        "name": "Myangad",
        "stateId": "1515696",
        "latitude": 48.2281,
        "longitude": 91.92329
    },
    {
        "cityId": "6619113",
        "name": "Jargalant",
        "stateId": "1515696",
        "latitude": 47.99291,
        "longitude": 91.64246
    },
    {
        "cityId": "6619115",
        "name": "Khovd",
        "stateId": "1515696",
        "latitude": 48.10193,
        "longitude": 91.35681
    },
    {
        "cityId": "6619116",
        "name": "Duut",
        "stateId": "1515696",
        "latitude": 47.51314,
        "longitude": 91.63267
    },
    {
        "cityId": "6619117",
        "name": "Manhan",
        "stateId": "1515696",
        "latitude": 47.41967,
        "longitude": 92.22422
    },
    {
        "cityId": "6619118",
        "name": "Dzereg",
        "stateId": "1515696",
        "latitude": 47.10612,
        "longitude": 92.84357
    },
    {
        "cityId": "6619119",
        "name": "M\u00f6nhhayrhan",
        "stateId": "1515696",
        "latitude": 46.90912,
        "longitude": 92.11676
    },
    {
        "cityId": "6619120",
        "name": "Chandman\u012d",
        "stateId": "1515696",
        "latitude": 47.82653,
        "longitude": 92.64925
    },
    {
        "cityId": "6619121",
        "name": "Darvi",
        "stateId": "1515696",
        "latitude": 46.92987,
        "longitude": 93.61931
    },
    {
        "cityId": "6619122",
        "name": "Tsetseg",
        "stateId": "1515696",
        "latitude": 46.58883,
        "longitude": 93.26723
    },
    {
        "cityId": "6619123",
        "name": "M\u00f6st",
        "stateId": "1515696",
        "latitude": 46.67712,
        "longitude": 92.78521
    },
    {
        "cityId": "6619124",
        "name": "\u00dcy\u00f6nch",
        "stateId": "1515696",
        "latitude": 46.04786,
        "longitude": 92.02612
    },
    {
        "cityId": "6619126",
        "name": "Altay",
        "stateId": "1515696",
        "latitude": 45.79566,
        "longitude": 92.28687
    },
    {
        "cityId": "6987811",
        "name": "Bulgan District",
        "stateId": "1515696",
        "latitude": 46.09609,
        "longitude": 91.53276
    },
    {
        "cityId": "10375932",
        "name": "M\u00f6nkhkhairkhan",
        "stateId": "1515696",
        "latitude": 46.97946,
        "longitude": 91.77567
    }
]