[
    {
        "cityId": "6618715",
        "name": "\u00d6mn\u00f6delger",
        "stateId": "2030783",
        "latitude": 47.86086,
        "longitude": 109.9165
    },
    {
        "cityId": "6618719",
        "name": "Darhan",
        "stateId": "2030783",
        "latitude": 46.60558,
        "longitude": 109.41696
    },
    {
        "cityId": "6618720",
        "name": "Bayanm\u00f6nh",
        "stateId": "2030783",
        "latitude": 46.89469,
        "longitude": 109.74998
    },
    {
        "cityId": "6618721",
        "name": "Delgerhaan",
        "stateId": "2030783",
        "latitude": 47.17384,
        "longitude": 109.18968
    },
    {
        "cityId": "6618722",
        "name": "Jargalthaan",
        "stateId": "2030783",
        "latitude": 47.48914,
        "longitude": 109.47309
    },
    {
        "cityId": "6618723",
        "name": "Tsenhermandal",
        "stateId": "2030783",
        "latitude": 47.73886,
        "longitude": 109.05029
    },
    {
        "cityId": "6618725",
        "name": "M\u00f6r\u00f6n",
        "stateId": "2030783",
        "latitude": 47.37557,
        "longitude": 110.31664
    },
    {
        "cityId": "6618726",
        "name": "Herlen",
        "stateId": "2030783",
        "latitude": 47.33812,
        "longitude": 110.68005
    },
    {
        "cityId": "6618727",
        "name": "Bayanhutag",
        "stateId": "2030783",
        "latitude": 47.16101,
        "longitude": 110.81669
    },
    {
        "cityId": "6618728",
        "name": "Galshar",
        "stateId": "2030783",
        "latitude": 46.23567,
        "longitude": 110.83488
    },
    {
        "cityId": "6618729",
        "name": "Batshireet",
        "stateId": "2030783",
        "latitude": 48.67645,
        "longitude": 110.18257
    },
    {
        "cityId": "6618730",
        "name": "Binder",
        "stateId": "2030783",
        "latitude": 48.6118,
        "longitude": 110.60005
    },
    {
        "cityId": "6618731",
        "name": "Bayan-Adarga",
        "stateId": "2030783",
        "latitude": 48.54661,
        "longitude": 111.08345
    },
    {
        "cityId": "6618732",
        "name": "Dadal",
        "stateId": "2030783",
        "latitude": 49.00905,
        "longitude": 111.63345
    },
    {
        "cityId": "6618733",
        "name": "Batnorov",
        "stateId": "2030783",
        "latitude": 47.94142,
        "longitude": 111.49784
    },
    {
        "cityId": "6618734",
        "name": "Bayan-Ovoo",
        "stateId": "2030783",
        "latitude": 47.77625,
        "longitude": 112.11582
    },
    {
        "cityId": "6618735",
        "name": "Norovlin",
        "stateId": "2030783",
        "latitude": 48.68484,
        "longitude": 111.99463
    },
    {
        "cityId": "6988013",
        "name": "Darhan Sum",
        "stateId": "2030783",
        "latitude": 46.59166,
        "longitude": 109.50089
    }
]