[
    {
        "cityId": "6618769",
        "name": "S\u00fcmber",
        "stateId": "2031740",
        "latitude": 46.34219,
        "longitude": 108.36227
    },
    {
        "cityId": "6618803",
        "name": "Sayhan-Ovoo",
        "stateId": "2031740",
        "latitude": 45.4464,
        "longitude": 103.89977
    },
    {
        "cityId": "6618804",
        "name": "Delgerhangay",
        "stateId": "2031740",
        "latitude": 45.23743,
        "longitude": 104.80511
    },
    {
        "cityId": "6618805",
        "name": "Huld",
        "stateId": "2031740",
        "latitude": 45.04078,
        "longitude": 105.56625
    },
    {
        "cityId": "6618806",
        "name": "Luus",
        "stateId": "2031740",
        "latitude": 45.50178,
        "longitude": 105.75577
    },
    {
        "cityId": "6618807",
        "name": "Erdenedalay",
        "stateId": "2031740",
        "latitude": 45.99625,
        "longitude": 104.94278
    },
    {
        "cityId": "6618808",
        "name": "Adaatsag",
        "stateId": "2031740",
        "latitude": 46.38341,
        "longitude": 105.73483
    },
    {
        "cityId": "6618809",
        "name": "Delgertsogt",
        "stateId": "2031740",
        "latitude": 46.11906,
        "longitude": 106.37375
    },
    {
        "cityId": "6618810",
        "name": "Deren",
        "stateId": "2031740",
        "latitude": 46.17436,
        "longitude": 106.71638
    },
    {
        "cityId": "6618811",
        "name": "Tsagaandelger",
        "stateId": "2031740",
        "latitude": 46.40614,
        "longitude": 107.65091
    },
    {
        "cityId": "6618812",
        "name": "Gov\u012d-Ugtaal",
        "stateId": "2031740",
        "latitude": 46.03416,
        "longitude": 107.49092
    },
    {
        "cityId": "6618813",
        "name": "Bayanjargalan",
        "stateId": "2031740",
        "latitude": 45.75651,
        "longitude": 107.98376
    },
    {
        "cityId": "6618814",
        "name": "Gurvansayhan",
        "stateId": "2031740",
        "latitude": 45.52499,
        "longitude": 107.04563
    },
    {
        "cityId": "6618815",
        "name": "\u00d6nd\u00f6rshil",
        "stateId": "2031740",
        "latitude": 45.22195,
        "longitude": 108.28279
    },
    {
        "cityId": "6618816",
        "name": "\u00d6ldziyt",
        "stateId": "2031740",
        "latitude": 45.29059,
        "longitude": 106.199
    },
    {
        "cityId": "6618817",
        "name": "Saintsagaan",
        "stateId": "2031740",
        "latitude": 45.751,
        "longitude": 106.27144
    },
    {
        "cityId": "6987992",
        "name": "\u00d6ldziyt Sum",
        "stateId": "2031740",
        "latitude": 44.79344,
        "longitude": 106.67243
    },
    {
        "cityId": "6997600",
        "name": "Sayntsagaan Sum",
        "stateId": "2031740",
        "latitude": 45.75856,
        "longitude": 106.36356
    }
]