[
    {
        "cityId": "1848548",
        "name": "Yanai Shi",
        "stateId": "1848681",
        "latitude": 33.96243,
        "longitude": 132.13111
    },
    {
        "cityId": "1848678",
        "name": "Yamaguchi Shi",
        "stateId": "1848681",
        "latitude": 34.17753,
        "longitude": 131.54667
    },
    {
        "cityId": "1849494",
        "name": "Ube Shi",
        "stateId": "1848681",
        "latitude": 34.04908,
        "longitude": 131.27311
    },
    {
        "cityId": "1852222",
        "name": "Shimonoseki Shi",
        "stateId": "1848681",
        "latitude": 34.17277,
        "longitude": 130.98766
    },
    {
        "cityId": "1853738",
        "name": "\u014cshima-gun",
        "stateId": "1848681",
        "latitude": 33.91587,
        "longitude": 132.28171
    },
    {
        "cityId": "1856090",
        "name": "Nagato Shi",
        "stateId": "1848681",
        "latitude": 34.3488,
        "longitude": 131.14703
    },
    {
        "cityId": "1857072",
        "name": "Mine Shi",
        "stateId": "1848681",
        "latitude": 34.21083,
        "longitude": 131.2517
    },
    {
        "cityId": "1858484",
        "name": "Kuga Gun",
        "stateId": "1848681",
        "latitude": 34.20132,
        "longitude": 132.21272
    },
    {
        "cityId": "1858497",
        "name": "Kudamatsu Shi",
        "stateId": "1848681",
        "latitude": 34.03243,
        "longitude": 131.88683
    },
    {
        "cityId": "1861209",
        "name": "Iwakuni Shi",
        "stateId": "1848681",
        "latitude": 34.20608,
        "longitude": 132.06286
    },
    {
        "cityId": "1862301",
        "name": "Hofu Shi",
        "stateId": "1848681",
        "latitude": 34.07287,
        "longitude": 131.56808
    },
    {
        "cityId": "1862667",
        "name": "Hikari Shi",
        "stateId": "1848681",
        "latitude": 33.98247,
        "longitude": 131.97485
    },
    {
        "cityId": "1863413",
        "name": "Hagi Shi",
        "stateId": "1848681",
        "latitude": 34.43206,
        "longitude": 131.50623
    },
    {
        "cityId": "1865762",
        "name": "Abu-gun",
        "stateId": "1848681",
        "latitude": 34.55574,
        "longitude": 131.57367
    },
    {
        "cityId": "7392999",
        "name": "Sany\u014donoda Shi",
        "stateId": "1848681",
        "latitude": 34.03956,
        "longitude": 131.15417
    },
    {
        "cityId": "7393001",
        "name": "Sh\u016bnan Shi",
        "stateId": "1848681",
        "latitude": 34.15136,
        "longitude": 131.82498
    },
    {
        "cityId": "8740711",
        "name": "Kumage-gun",
        "stateId": "1848681",
        "latitude": 33.91316,
        "longitude": 132.06322
    }
]