[
    {
        "cityId": "1849235",
        "name": "Uozu Shi",
        "stateId": "1849872",
        "latitude": 36.76234,
        "longitude": 137.48984
    },
    {
        "cityId": "1849870",
        "name": "Toyama Shi",
        "stateId": "1849872",
        "latitude": 36.55146,
        "longitude": 137.29872
    },
    {
        "cityId": "1850038",
        "name": "Tonami Shi",
        "stateId": "1849872",
        "latitude": 36.62395,
        "longitude": 136.98899
    },
    {
        "cityId": "1851028",
        "name": "Takaoka Shi",
        "stateId": "1849872",
        "latitude": 36.74257,
        "longitude": 136.96263
    },
    {
        "cityId": "1852239",
        "name": "Shimoniikawa Gun",
        "stateId": "1849872",
        "latitude": 36.89634,
        "longitude": 137.61725
    },
    {
        "cityId": "1853505",
        "name": "Oyabe Shi",
        "stateId": "1849872",
        "latitude": 36.66349,
        "longitude": 136.85499
    },
    {
        "cityId": "1855693",
        "name": "Namerikawa-shi",
        "stateId": "1849872",
        "latitude": 36.74934,
        "longitude": 137.38129
    },
    {
        "cityId": "1855873",
        "name": "Nakaniikawa Gun",
        "stateId": "1849872",
        "latitude": 36.63273,
        "longitude": 137.49423
    },
    {
        "cityId": "1858253",
        "name": "Kurobe Shi",
        "stateId": "1849872",
        "latitude": 36.77113,
        "longitude": 137.62164
    },
    {
        "cityId": "1861653",
        "name": "Imizu Shi",
        "stateId": "1849872",
        "latitude": 36.72939,
        "longitude": 137.08784
    },
    {
        "cityId": "1862610",
        "name": "Himi Shi",
        "stateId": "1849872",
        "latitude": 36.87218,
        "longitude": 136.94066
    },
    {
        "cityId": "7391183",
        "name": "Nanto Shi",
        "stateId": "1849872",
        "latitude": 36.4526,
        "longitude": 136.9143
    }
]