[
    {
        "cityId": 1850156,
        "name": "Tokushima Shi",
        "stateId": 1850157,
        "latitude": 34.04922,
        "longitude": 134.52359
    },
    {
        "cityId": 1856299,
        "name": "My\u014dzai Gun",
        "stateId": 1850157,
        "latitude": 33.99186,
        "longitude": 134.34994
    },
    {
        "cityId": 1856695,
        "name": "Miyoshi-gun",
        "stateId": 1850157,
        "latitude": 34.03647,
        "longitude": 133.91818
    },
    {
        "cityId": 1858900,
        "name": "Komatsushima Shi",
        "stateId": 1850157,
        "latitude": 33.98071,
        "longitude": 134.59529
    },
    {
        "cityId": 1859771,
        "name": "Katsuura Gun",
        "stateId": 1850157,
        "latitude": 33.9138,
        "longitude": 134.42641
    },
    {
        "cityId": 1860803,
        "name": "Kaifu Gun",
        "stateId": 1850157,
        "latitude": 33.68119,
        "longitude": 134.35312
    },
    {
        "cityId": 1861303,
        "name": "Itano-gun",
        "stateId": 1850157,
        "latitude": 34.14003,
        "longitude": 134.46943
    },
    {
        "cityId": 1864902,
        "name": "Awa-shi",
        "stateId": 1850157,
        "latitude": 34.1,
        "longitude": 134.25
    },
    {
        "cityId": 1865306,
        "name": "Anan Shi",
        "stateId": 1850157,
        "latitude": 33.87716,
        "longitude": 134.60644
    },
    {
        "cityId": 7406321,
        "name": "Mima Gun",
        "stateId": 1850157,
        "latitude": 33.96478,
        "longitude": 134.05519
    },
    {
        "cityId": 7406322,
        "name": "My\u014dd\u014d Gun",
        "stateId": 1850157,
        "latitude": 33.9823,
        "longitude": 134.4519
    },
    {
        "cityId": 7406323,
        "name": "Naka Gun",
        "stateId": 1850157,
        "latitude": 33.80068,
        "longitude": 134.26072
    },
    {
        "cityId": 7406324,
        "name": "Yoshinogawa Shi",
        "stateId": 1850157,
        "latitude": 34.03705,
        "longitude": 134.28354
    },
    {
        "cityId": 7406325,
        "name": "Mima Shi",
        "stateId": 1850157,
        "latitude": 34.01889,
        "longitude": 134.14333
    },
    {
        "cityId": 7406326,
        "name": "Miyoshi Shi",
        "stateId": 1850157,
        "latitude": 33.93349,
        "longitude": 133.85184
    },
    {
        "cityId": 10172903,
        "name": "Naruto-shi",
        "stateId": 1850157,
        "latitude": 34.17881,
        "longitude": 134.61357
    }
]