[
    {
        "cityId": 1848772,
        "name": "Yaizu Shi",
        "stateId": 1851715,
        "latitude": 34.84008,
        "longitude": 138.30127
    },
    {
        "cityId": 1851274,
        "name": "Tagata-gun",
        "stateId": 1851715,
        "latitude": 35.11394,
        "longitude": 138.99402
    },
    {
        "cityId": 1851376,
        "name": "Susono Shi",
        "stateId": 1851715,
        "latitude": 35.22551,
        "longitude": 138.87734
    },
    {
        "cityId": 1851401,
        "name": "Sunt\u014d-gun",
        "stateId": 1851715,
        "latitude": 35.34443,
        "longitude": 138.96267
    },
    {
        "cityId": 1851714,
        "name": "Shizuoka-shi",
        "stateId": 1851715,
        "latitude": 35.20164,
        "longitude": 138.31426
    },
    {
        "cityId": 1852349,
        "name": "Shimoda-shi",
        "stateId": 1851715,
        "latitude": 34.70879,
        "longitude": 138.92148
    },
    {
        "cityId": 1854181,
        "name": "Omaezaki-shi",
        "stateId": 1851715,
        "latitude": 34.6,
        "longitude": 138.21667
    },
    {
        "cityId": 1854900,
        "name": "Numazu-shi",
        "stateId": 1851715,
        "latitude": 35.09491,
        "longitude": 138.86667
    },
    {
        "cityId": 1856971,
        "name": "Mishima Shi",
        "stateId": 1851715,
        "latitude": 35.1394,
        "longitude": 138.94882
    },
    {
        "cityId": 1859485,
        "name": "Kikugawa-shi",
        "stateId": 1851715,
        "latitude": 34.75,
        "longitude": 138.1
    },
    {
        "cityId": 1860327,
        "name": "Kamo-gun",
        "stateId": 1851715,
        "latitude": 34.7684,
        "longitude": 138.88595
    },
    {
        "cityId": 1861167,
        "name": "Iwata-shi",
        "stateId": 1851715,
        "latitude": 34.74451,
        "longitude": 137.85043
    },
    {
        "cityId": 1863288,
        "name": "Hamamatsu-shi",
        "stateId": 1851715,
        "latitude": 34.95375,
        "longitude": 137.80733
    },
    {
        "cityId": 1863397,
        "name": "Haibara-gun",
        "stateId": 1851715,
        "latitude": 35.15027,
        "longitude": 138.10657
    },
    {
        "cityId": 1863526,
        "name": "Gotenba Shi",
        "stateId": 1851715,
        "latitude": 35.29893,
        "longitude": 138.87902
    },
    {
        "cityId": 1863944,
        "name": "Fukuroi-shi",
        "stateId": 1851715,
        "latitude": 34.74175,
        "longitude": 137.92805
    },
    {
        "cityId": 1864089,
        "name": "Fuji Shi",
        "stateId": 1851715,
        "latitude": 35.20106,
        "longitude": 138.69905
    },
    {
        "cityId": 1864104,
        "name": "Fujinomiya Shi",
        "stateId": 1851715,
        "latitude": 35.31753,
        "longitude": 138.62375
    },
    {
        "cityId": 1864131,
        "name": "Fujieda Shi",
        "stateId": 1851715,
        "latitude": 34.91956,
        "longitude": 138.23379
    },
    {
        "cityId": 1864943,
        "name": "Atami-shi",
        "stateId": 1851715,
        "latitude": 35.08957,
        "longitude": 139.06357
    },
    {
        "cityId": 7418312,
        "name": "Sh\u016bchi-gun",
        "stateId": 1851715,
        "latitude": 34.885,
        "longitude": 137.94757
    },
    {
        "cityId": 7418320,
        "name": "Izunokuni-shi",
        "stateId": 1851715,
        "latitude": 35.03799,
        "longitude": 138.97295
    },
    {
        "cityId": 7418321,
        "name": "Makinohara Shi",
        "stateId": 1851715,
        "latitude": 34.73226,
        "longitude": 138.18567
    },
    {
        "cityId": 7418322,
        "name": "Shimada-shi",
        "stateId": 1851715,
        "latitude": 34.9122,
        "longitude": 138.12662
    },
    {
        "cityId": 8301106,
        "name": "It\u014d Shi",
        "stateId": 1851715,
        "latitude": 34.93563,
        "longitude": 139.08725
    },
    {
        "cityId": 8301107,
        "name": "Kakegawa Shi",
        "stateId": 1851715,
        "latitude": 34.77993,
        "longitude": 138.01897
    },
    {
        "cityId": 8301108,
        "name": "Kosai-shi",
        "stateId": 1851715,
        "latitude": 34.73092,
        "longitude": 137.51643
    },
    {
        "cityId": 9036693,
        "name": "Izu-shi",
        "stateId": 1851715,
        "latitude": 34.92201,
        "longitude": 138.92585
    }
]