[
    {
        "cityId": 1849041,
        "name": "Uwajima-shi",
        "stateId": 1864226,
        "latitude": 33.22325,
        "longitude": 132.56069
    },
    {
        "cityId": 1853240,
        "name": "Saij\u014d-shi",
        "stateId": 1864226,
        "latitude": 33.861,
        "longitude": 133.10832
    },
    {
        "cityId": 1853424,
        "name": "\u014czu-shi",
        "stateId": 1864226,
        "latitude": 33.50619,
        "longitude": 132.5443
    },
    {
        "cityId": 1854782,
        "name": "Ochi-gun",
        "stateId": 1864226,
        "latitude": 34.25348,
        "longitude": 133.20982
    },
    {
        "cityId": 1855138,
        "name": "Nishiuwa-gun",
        "stateId": 1864226,
        "latitude": 33.43459,
        "longitude": 132.21256
    },
    {
        "cityId": 1855422,
        "name": "Niihama-shi",
        "stateId": 1864226,
        "latitude": 33.9067,
        "longitude": 133.3325
    },
    {
        "cityId": 1857121,
        "name": "Minamiuwa-gun",
        "stateId": 1864226,
        "latitude": 32.98851,
        "longitude": 132.58249
    },
    {
        "cityId": 1857456,
        "name": "Matsuyama-shi",
        "stateId": 1864226,
        "latitude": 33.83568,
        "longitude": 132.76224
    },
    {
        "cityId": 1859256,
        "name": "Kitauwa-gun",
        "stateId": 1864226,
        "latitude": 33.27335,
        "longitude": 132.73833
    },
    {
        "cityId": 1859338,
        "name": "Kita-gun",
        "stateId": 1864226,
        "latitude": 33.57001,
        "longitude": 132.7557
    },
    {
        "cityId": 1861141,
        "name": "Iyo-gun",
        "stateId": 1864226,
        "latitude": 33.71092,
        "longitude": 132.77905
    },
    {
        "cityId": 1861143,
        "name": "Iyo-shi",
        "stateId": 1864226,
        "latitude": 33.68493,
        "longitude": 132.68909
    },
    {
        "cityId": 1926017,
        "name": "Yawatahama-shi",
        "stateId": 1864226,
        "latitude": 33.46302,
        "longitude": 132.42336
    },
    {
        "cityId": 1926135,
        "name": "Imabari-shi",
        "stateId": 1864226,
        "latitude": 34.06667,
        "longitude": 132.99791
    },
    {
        "cityId": 6691620,
        "name": "T\u014don-shi",
        "stateId": 1864226,
        "latitude": 33.79099,
        "longitude": 132.87234
    },
    {
        "cityId": 6691622,
        "name": "Kamiukena-gun",
        "stateId": 1864226,
        "latitude": 33.63663,
        "longitude": 132.98332
    },
    {
        "cityId": 7406319,
        "name": "Shikoku-ch\u016b\u014d Shi",
        "stateId": 1864226,
        "latitude": 33.93538,
        "longitude": 133.53622
    },
    {
        "cityId": 10861187,
        "name": "Seiyo-shi",
        "stateId": 1864226,
        "latitude": 33.39408,
        "longitude": 132.63262
    }
]