[
    {
        "cityId": 725293,
        "name": "Obshtina Zlataritsa",
        "stateId": 864561,
        "latitude": 43.06667,
        "longitude": 25.98333
    },
    {
        "cityId": 725992,
        "name": "Obshtina Veliko T\u016drnovo",
        "stateId": 864561,
        "latitude": 43.08241,
        "longitude": 25.63202
    },
    {
        "cityId": 726533,
        "name": "Obshtina Svishtov",
        "stateId": 864561,
        "latitude": 43.53333,
        "longitude": 25.35
    },
    {
        "cityId": 726642,
        "name": "Obshtina Suhindol",
        "stateId": 864561,
        "latitude": 43.16667,
        "longitude": 25.2
    },
    {
        "cityId": 726725,
        "name": "Obshtina Strazhitsa",
        "stateId": 864561,
        "latitude": 43.26667,
        "longitude": 25.98333
    },
    {
        "cityId": 728123,
        "name": "Obshtina Polski Trambesh",
        "stateId": 864561,
        "latitude": 43.35,
        "longitude": 25.58333
    },
    {
        "cityId": 728384,
        "name": "Obshtina Pavlikeni",
        "stateId": 864561,
        "latitude": 43.28333,
        "longitude": 25.35
    },
    {
        "cityId": 729488,
        "name": "Obshtina Lyaskovets",
        "stateId": 864561,
        "latitude": 43.13333,
        "longitude": 25.85
    },
    {
        "cityId": 731232,
        "name": "Obshtina Gorna Oryahovitsa",
        "stateId": 864561,
        "latitude": 43.21667,
        "longitude": 25.75
    },
    {
        "cityId": 731695,
        "name": "Obshtina Elena",
        "stateId": 864561,
        "latitude": 42.91667,
        "longitude": 25.95
    }
]