[
    {
        "cityId": 8659787,
        "name": "Shomgom",
        "stateId": 2595347,
        "latitude": 9.67366,
        "longitude": 11.2566
    },
    {
        "cityId": 8659788,
        "name": "Billiri",
        "stateId": 2595347,
        "latitude": 9.81575,
        "longitude": 11.12424
    },
    {
        "cityId": 8659789,
        "name": "Balanga",
        "stateId": 2595347,
        "latitude": 9.8096,
        "longitude": 11.78623
    },
    {
        "cityId": 8659790,
        "name": "Kaltungo",
        "stateId": 2595347,
        "latitude": 9.82354,
        "longitude": 11.42205
    },
    {
        "cityId": 8659791,
        "name": "Akko",
        "stateId": 2595347,
        "latitude": 10.09994,
        "longitude": 11.04833
    },
    {
        "cityId": 8659792,
        "name": "Yamaltu\/Deba",
        "stateId": 2595347,
        "latitude": 10.23814,
        "longitude": 11.44152
    },
    {
        "cityId": 8659793,
        "name": "Gombe",
        "stateId": 2595347,
        "latitude": 10.28263,
        "longitude": 11.16674
    },
    {
        "cityId": 8659794,
        "name": "Kwami",
        "stateId": 2595347,
        "latitude": 10.49313,
        "longitude": 11.20989
    },
    {
        "cityId": 8659795,
        "name": "Dukku",
        "stateId": 2595347,
        "latitude": 10.80261,
        "longitude": 10.82838
    },
    {
        "cityId": 8659796,
        "name": "Funakaye",
        "stateId": 2595347,
        "latitude": 10.74227,
        "longitude": 11.40843
    },
    {
        "cityId": 8659797,
        "name": "Nafada",
        "stateId": 2595347,
        "latitude": 11.09069,
        "longitude": 11.21573
    }
]