[
    {
        "cityId": 7730050,
        "name": "Borsari",
        "stateId": 2597367,
        "latitude": 12.69929,
        "longitude": 11.42578
    },
    {
        "cityId": 7730053,
        "name": "Gujba",
        "stateId": 2597367,
        "latitude": 11.38333,
        "longitude": 11.96667
    },
    {
        "cityId": 7730056,
        "name": "Gulani",
        "stateId": 2597367,
        "latitude": 11,
        "longitude": 11.71667
    },
    {
        "cityId": 8659861,
        "name": "Machina",
        "stateId": 2597367,
        "latitude": 13.04519,
        "longitude": 9.98526
    },
    {
        "cityId": 8659862,
        "name": "Nguru",
        "stateId": 2597367,
        "latitude": 12.97973,
        "longitude": 10.39914
    },
    {
        "cityId": 8659863,
        "name": "Yusufari",
        "stateId": 2597367,
        "latitude": 13.22046,
        "longitude": 10.8827
    },
    {
        "cityId": 8659864,
        "name": "Yunusari",
        "stateId": 2597367,
        "latitude": 13.10432,
        "longitude": 11.78648
    },
    {
        "cityId": 8659865,
        "name": "Karasuwa",
        "stateId": 2597367,
        "latitude": 12.96284,
        "longitude": 10.78345
    },
    {
        "cityId": 8659866,
        "name": "Barde",
        "stateId": 2597367,
        "latitude": 12.71613,
        "longitude": 10.64338
    },
    {
        "cityId": 8659867,
        "name": "Geidam",
        "stateId": 2597367,
        "latitude": 12.65454,
        "longitude": 12.06733
    },
    {
        "cityId": 8659868,
        "name": "Jakusko",
        "stateId": 2597367,
        "latitude": 12.45605,
        "longitude": 10.91226
    },
    {
        "cityId": 8659869,
        "name": "Tarmua",
        "stateId": 2597367,
        "latitude": 12.17837,
        "longitude": 11.80232
    },
    {
        "cityId": 8659870,
        "name": "Damaturu",
        "stateId": 2597367,
        "latitude": 11.78032,
        "longitude": 11.97864
    },
    {
        "cityId": 8659871,
        "name": "Fune",
        "stateId": 2597367,
        "latitude": 11.85212,
        "longitude": 11.44862
    },
    {
        "cityId": 8659872,
        "name": "Nangere",
        "stateId": 2597367,
        "latitude": 11.82044,
        "longitude": 10.97139
    },
    {
        "cityId": 8659873,
        "name": "Potiskum",
        "stateId": 2597367,
        "latitude": 11.71064,
        "longitude": 11.15721
    },
    {
        "cityId": 8659874,
        "name": "Fika",
        "stateId": 2597367,
        "latitude": 11.377,
        "longitude": 11.23746
    },
    {
        "cityId": 9485484,
        "name": "Bursari Local Government Area",
        "stateId": 2597367,
        "latitude": 12.71578,
        "longitude": 11.41272
    }
]